     2.11           OBSERVATION DATA    G (GPS)             RINEX VERSION / TYPE
teqc  2009Oct19     administrateur ccgps20100106 00:06:06UTCPGM / RUN BY / DATE
Solaris 5.9|UltraSparc IIe|cc -xarch=v9 SC5.8|=+-|*Sparc    COMMENT
teqc  2009Oct19     administrateur ccgps20100105 01:06:04UTCCOMMENT
teqc  2009Oct19     CNES                20100105 01:03:59UTCCOMMENT
MSXP|IAx86-PII|bcc32 5.0|MSWin95->XP|486/DX+                COMMENT
teqc  2009Oct19                         20100105 01:03:58UTCCOMMENT
BIT 2 OF LLI FLAGS DATA COLLECTED UNDER A/S CONDITION       COMMENT
GRAS                                                        MARKER NAME
10002M006                                                   MARKER NUMBER
CARDALIAGUET        CNES                                    OBSERVER / AGENCY
48002               ASHTECH UZ-12       CN00-1A01           REC # / TYPE / VERS
24222               ASH701945E_M    NONE                    ANT # / TYPE
  4581695.6800   556115.4600  4389365.6200                  APPROX POSITION XYZ
        0.0350        0.0000        0.0000                  ANTENNA: DELTA H/E/N
     1     1                                                WAVELENGTH FACT L1/2
     7    L1    L2    C1    P1    P2    D1    D2            # / TYPES OF OBSERV
    30.0000                                                 INTERVAL
Version: Version:                                           COMMENT
Project: A002_______CNE_____________                        COMMENT
 SNR is mapped to RINEX snr flag value [0-9]                COMMENT
  L1 & L2: min(max(int(snr_dBHz/6), 0), 9)                  COMMENT
pseudorange smoothing corrections not applied               COMMENT
Forced Modulo Decimation to 30 seconds                      COMMENT
  2010     1     5     0     0    0.0000000     GPS         TIME OF FIRST OBS
                                                            END OF HEADER
 10  1  5  0  0  0.0000000  0 10G12G28G17G05G10G18G08G09G27G15
  -4921589.68347  -3822174.18546  24960724.5544   24960724.9924   24960726.4354
      3780.4044
 -16588878.46548 -12887687.55047  22428514.3124   22428513.5264   22428515.7174
     -2313.4444
 -11485471.00548  -8910960.17347  23319296.3834   23319296.1754   23319298.0424
      2341.9894
  -6846126.44947  -5277426.21446  24096440.6564   24096441.2184   24096442.5144
     -3626.1154
   1020227.90646    843347.30345  25362408.9414   25362406.5324   25362410.5444
     -3659.4804
 -12117793.05848  -9432960.61346  23372136.8604   23372135.8224   23372136.8534
      1758.4314
  -8858864.50147  -6892492.43346  24259800.4564   24259800.4594   24259804.0984
     -2956.7344
 -21886442.87748 -17048053.55347  21803306.3164   21803305.9734   21803308.3054
      2699.7154
 -16988171.02949 -13197702.69547  21839893.0214   21839892.7504   21839895.3924
      1449.0864
 -26436427.64149 -20577233.48048  20351899.5784   20351899.8494   20351901.1844
       169.1754
 10  1  5  0  0 30.0000000  0 10G12G28G17G05G10G18G08G09G27G15
  -5034961.03147  -3910515.46146  24939150.3334   24939150.3864   24939152.5484
      3777.9534
 -16519317.63848 -12833484.30947  22441751.3954   22441751.0024   22441753.2984
     -2323.6184
 -11555563.11648  -8965577.39747  23305958.4504   23305958.5154   23305960.4254
      2331.3144
  -6737316.47447  -5192639.24946  24117146.3354   24117147.1254   24117148.5594
     -3627.5304
   1129965.21946    928856.84545  25383290.9684   25383290.1164   25383295.2894
     -3656.1474
 -12170296.51848  -9473872.39646  23362145.9974   23362144.6994   23362146.4324
      1742.3094
  -8770136.02347  -6823353.39046  24276685.0334   24276684.6334   24276687.1994
     -2957.8494
 -21967319.87348 -17111074.57547  21787915.7444   21787915.9594   21787918.6334
      2692.4214
 -17031554.40748 -13231507.90847  21831637.4084   21831637.3874   21831640.0944
      1443.5584
 -26441262.49349 -20581000.90348  20350979.5264   20350979.7034   20350981.1464
       153.5834
 10  1  5  0  1  0.0000000  0 10G12G28G17G05G10G18G08G09G27G15
  -5148249.80047  -3998792.40646  24917592.2514   24917592.7164   24917595.3864
      3774.5444
 -16449444.43548 -12779037.65947  22455047.6804   22455048.2934   22455049.7864
     -2334.6534
 -11625326.03348  -9019938.10147  23292682.5494   23292682.5854   23292685.0264
      2319.5194
  -6628455.42047  -5107812.47546  24137862.1194   24137862.9774   24137864.8574
     -3629.8814
   1239611.14546   1014295.19145  25404156.8254   25404156.6854   25404159.0994
     -3653.1774
 -12222308.57847  -9514401.27246  23352247.9684   23352246.4714   23352247.7594
      1725.0374
  -8681353.13347  -6754171.93246  24293579.8134   24293579.6204   24293582.8804
     -2960.7394
 -22047968.21948 -17173917.44747  21772569.0804   21772569.2504   21772571.0514
      2684.0414
 -17074764.79548 -13265178.32647  21823414.6274   21823414.4734   21823417.2684
      1437.0694
 -26445618.20949 -20584394.97148  20350150.7274   20350150.8924   20350152.1324
       136.7274
 10  1  5  0  1 30.0000000  0 10G12G28G17G05G10G18G08G09G27G15
  -5261460.31747  -4087008.32846  24896048.9314   24896049.3084   24896052.0544
      3771.5684
 -16379266.89948 -12724353.87047  22468402.0144   22468402.1884   22468403.8844
     -2345.0594
 -11694763.16548  -9074044.95447  23279469.2584   23279469.3764   23279470.8294
      2308.2364
  -6519552.15747  -5022952.81346  24158585.9364   24158585.3414   24158586.7654
     -3631.3094
   1349157.35846   1099655.83245  25425002.6584   25425001.4424   25425001.9784
     -3651.2704
 -12273833.66847  -9554550.69246  23342443.1244   23342443.5094   23342443.9254
      1708.7004
  -8592523.33847  -6684953.92446  24310483.3124   24310481.6924   24310486.0194
     -2962.1594
 -22128393.03348 -17236586.13547  21757264.9564   21757265.0904   21757267.1344
      2676.3634
 -17117808.54949 -13298718.89647  21815223.7084   21815223.5264   21815226.3714
      1431.3014
 -26449500.06349 -20587419.79748  20349412.0564   20349412.2964   20349413.6144
       120.7904
 10  1  5  0  2  0.0000000  0 10G12G28G17G05G10G18G08G09G27G15
  -5374582.18347  -4175155.17646  24874523.0714   24874523.1784   24874524.1704
      3769.5854
 -16308778.91848 -12669428.17547  22481815.5224   22481815.2724   22481816.4684
     -2354.3674
 -11763863.30048  -9127889.21147  23266319.8094   23266318.9984   23266321.4374
      2297.9904
  -6410600.47747  -4938055.43046  24179318.3664   24179318.4304   24179320.7944
     -3632.1514
   1458609.95246   1184943.54645  25445830.8714   25445828.1694   25445835.6174
     -3646.5274
 -12324861.78547  -9594312.86846  23332732.7894   23332732.0634   23332732.9264
      1692.7664
  -8503638.32947  -6615692.88546  24327398.3284   24327396.9404   24327402.9424
     -2963.3684
 -22208585.26648 -17299073.58847  21742004.3634   21742005.1524   21742007.4624
      2669.5634
 -17160677.33048 -13332123.13147  21807066.0504   21807065.7814   21807068.9574
      1426.4004
 -26452899.16749 -20590068.45548  20348765.0224   20348765.2344   20348766.7954
       105.6774
 10  1  5  0  2 30.0000000  0 10G12G28G17G05G10G18G08G09G27G15
  -5487617.18047  -4263234.36446  24853012.1574   24853011.8134   24853015.3754
      3766.8434
 -16237986.77048 -12614265.46547  22495286.9644   22495287.2094   22495288.3264
     -2364.3714
 -11832627.53148  -9181471.73147  23253234.6894   23253234.8574   23253236.0444
      2286.8424
  -6301607.88247  -4853126.14246  24200059.0594   24200059.8404   24200061.8814
     -3633.4194
   1567962.47146   1270153.26945  25466640.1494   25466638.6274   25466642.7934
     -3643.0024
 -12375395.12047  -9633689.50746  23323116.4684   23323115.4284   23323117.7124
      1676.4884
  -8414703.10747  -6546392.74746  24344321.6444   24344321.2084   24344324.6574
     -2965.3444
 -22288547.76848 -17361382.03147  21726788.2904   21726787.8314   21726791.1154
      2662.1424
 -17203374.97949 -13365394.01747  21798941.2404   21798941.0994   21798943.3544
      1420.8244
 -26455818.23049 -20592343.05648  20348209.6254   20348209.8334   20348211.2584
        89.7604
 10  1  5  0  3  0.0000000  0 10G12G28G17G05G10G18G08G09G27G15
  -5600567.18746  -4351247.34946  24831519.1324   24831519.2174   24831521.9764
      3763.5044
 -16166895.98648 -12558870.04747  22508815.2644   22508814.6964   22508817.0614
     -2374.8704
 -11901056.98848  -9234793.37447  23240212.8014   23240212.7864   23240215.7954
      2275.0494
  -6192580.47547  -4768169.74846  24220806.6514   24220806.5894   24220808.7434
     -3635.1454
   1677208.77246   1355280.22245  25487429.2764   25487426.9704   25487431.3384
     -3639.6304
 -12425435.81848  -9672682.25246  23313593.3454   23313593.3904   23313594.2614
      1659.4484
  -8325721.34847  -6477056.34646  24361254.7494   24361254.5264   24361257.7894
     -2967.6434
 -22368283.60348 -17423513.83947  21711615.1074   21711614.9904   21711616.7964
      2653.7674
 -17245905.42749 -13398534.61648  21790847.9434   21790847.9694   21790849.9904
      1414.6454
 -26458260.73349 -20594246.30948  20347744.8064   20347745.0744   20347746.3844
        73.2284
 10  1  5  0  3 30.0000000  0 10G12G28G17G05G10G18G08G09G27G15
  -5713424.14047  -4439187.76646  24810042.9904   24810043.5694   24810046.2584
      3759.8464
 -16095502.97748 -12503239.13847  22522400.6064   22522399.8514   22522401.4754
     -2385.0814
 -11969142.87048  -9287847.30447  23227256.5614   23227256.4394   23227258.7514
      2263.1704
  -6083515.39647  -4683183.97246  24241561.0024   24241560.8814   24241563.8804
     -3636.5534
   1786352.38746   1440327.19145  25508198.5694   25508195.7574   25508200.2874
     -3636.5784
 -12474976.43847  -9711285.32946  23304166.7294   23304165.3554   23304169.2204
      1642.5254
  -8236688.20047  -6407679.89446  24378197.3834   24378197.0304   24378200.6594
     -2969.1314
 -22447785.62548 -17485463.46547  21696486.5164   21696485.9994   21696488.6084
      2645.6804
 -17288262.96149 -13431540.47547  21782787.4794   21782786.9794   21782789.9794
      1408.5464
 -26460219.15449 -20595772.35548  20347372.1524   20347372.3524   20347373.7594
        56.6784
 10  1  5  0  4  0.0000000  0 10G12G28G17G05G10G18G08G09G27G15
  -5826189.27647  -4527056.67846  24788584.8014   24788584.7694   24788586.4494
      3756.3034
 -16023812.78948 -12447376.65447  22536042.8044   22536042.5984   22536044.5184
     -2395.0734
 -12036885.03448  -9340633.39447  23214365.6254   23214366.0304   23214367.6374
      2251.5614
  -5974418.14847  -4598173.14446  24262321.8164   24262322.2964   24262324.0804
     -3637.4574
   1895388.37346   1525290.28546  25528946.9344   25528947.6734   25528949.5034
     -3633.2854
 -12524018.32348  -9749499.77746  23294834.7974   23294833.1924   23294835.1144
      1625.6914
  -8147607.12747  -6338266.10346  24395148.6694   24395148.7014   24395150.5944
     -2970.2574
 -22527055.77548 -17547232.40147  21681401.9704   21681401.8224   21681404.3264
      2637.8274
 -17330450.42049 -13464413.81248  21774759.5084   21774759.1984   21774762.0974
      1402.8864
 -26461695.98749 -20596923.13748  20347091.0964   20347091.3084   20347092.8764
        40.5384
 10  1  5  0  4 30.0000000  0 10G12G28G17G05G10G18G08G09G27G15
  -5938861.10447  -4614852.87246  24767143.6334   24767143.7804   24767147.6874
      3753.9794
 -15951827.70748 -12391284.39047  22549740.9264   22549740.3034   22549742.4014
     -2404.4024
 -12104281.57148  -9393150.16947  23201540.6194   23201540.3794   23201543.0134
      2240.6064
  -5865292.12147  -4513139.88546  24283087.3174   24283087.6514   24283090.3164
     -3638.2914
   2004314.17847   1610167.46746  25549674.7914   25549674.2944   25549678.3724
     -3628.9524
 -12572560.50948  -9787324.87646  23285597.3704   23285597.1354   23285597.4664
      1609.6784
  -8058479.02147  -6268815.66446  24412109.0034   24412107.5964   24412111.6174
     -2972.0184
 -22606093.73748 -17608820.40947  21666361.3714   21666361.4004   21666363.8394
      2630.6264
 -17372468.25749 -13497154.97148  21766763.8294   21766763.2774   21766765.8654
      1397.6484
 -26462690.75649 -20597698.28548  20346901.8704   20346902.0604   20346903.5294
        24.9804
 10  1  5  0  5  0.0000000  0 10G12G28G17G05G10G18G08G09G27G15
  -6051436.43647  -4702573.87046  24745721.3144   24745720.6384   24745724.1014
      3750.7204
 -15879548.99148 -12334963.31447  22563495.2264   22563495.1694   22563497.1134
     -2414.3254
 -12171328.54248  -9445394.56147  23188782.0154   23188781.5594   23188784.1684
      2229.0064
  -5756139.28847  -4428085.73346  24303858.5004   24303858.8154   24303860.1384
     -3638.5764
   2113128.27046   1694957.69946  25570382.2164   25570379.0064   25570384.8224
     -3625.3174
 -12620600.20348  -9824758.39946  23276455.9344   23276455.8964   23276455.5654
      1593.1014
  -7969303.29647  -6199328.13146  24429079.0644   24429078.0204   24429081.5234
     -2972.9524
 -22684897.87648 -17670226.21947  21651365.4504   21651365.6194   21651367.6604
      2622.8704
 -17414315.57749 -13529763.26348  21758800.4154   21758800.3764   21758802.8624
      1392.1214
 -26463201.52649 -20598096.29248  20346804.6244   20346804.8834   20346806.2064
         8.9174
 10  1  5  0  5 30.0000000  0 11G12G28G17G05G10G22G18G08G09G27G15
  -6163901.67547  -4790209.08246  24724319.6644   24724320.3914   24724322.2764
      3747.7924
 -15806967.28348 -12278406.14447  22577307.0964   22577306.5544   22577308.2444
     -2423.8334
 -12238011.71748  -9497355.48147  23176092.1824   23176091.9084   23176095.3834
      2217.0784
  -5646950.35047  -4343003.44446  24324636.5974   24324636.6504   24324638.7944
     -3639.6494
   2221840.07247   1779668.13846  25591069.2284   25591067.0284   25591073.1524
     -3621.4964
  -2010129.11847  -1343499.00146  25536152.8194   25536152.5144   25536153.8304
      2802.2854
 -12668124.11547  -9861790.01946  23267412.0494   23267412.8914   23267413.0574
      1576.0994
  -7880068.96147  -6129794.89646  24446059.6044   24446058.8934   24446062.0944
     -2974.5614
 -22763455.37148 -17731439.83247  21636416.4754   21636415.6924   21636418.5894
      2615.0694
 -17455980.71549 -13562229.59748  21750871.7924   21750871.6604   21750874.2544
      1386.4154
 -26463215.92149 -20598107.51448  20346801.9974   20346802.1604   20346803.6364
        -7.1874
 10  1  5  0  6  0.0000000  0 11G12G28G17G05G10G22G18G08G09G27G15
  -6276279.56447  -4877776.21646  24702935.3854   24702935.1074   24702938.0074
      3744.5164
 -15734109.10348 -12221633.53847  22591171.7384   22591171.1994   22591173.3254
     -2433.3154
 -12304352.86748  -9549049.87247  23163468.3754   23163468.3304   23163469.6134
      2205.5224
  -5537752.77047  -4257914.44246  24345416.0614   24345417.0074   24345419.7724
     -3640.0504
   2330422.21447   1864277.61446  25611731.0474   25611730.4134   25611734.4574
     -3617.6144
  -2094056.43847  -1408896.95346  25520181.5044   25520181.4594   25520182.3624
      2792.8684
 -12715155.61747  -9898437.95746  23258461.7854   23258462.3644   23258463.3384
      1559.3444
  -7790800.99747  -6060235.48646  24463046.3624   24463046.3364   24463049.6114
     -2976.0444
 -22841789.97348 -17792479.77747  21621509.7944   21621509.5734   21621512.1804
      2607.3724
 -17497488.33949 -13594573.19748  21742973.2444   21742973.1864   21742975.9494
      1380.8174
 -26462757.92449 -20597750.64248  20346889.2304   20346889.3274   20346890.8524
       -23.2794
 10  1  5  0  6 30.0000000  0 11G12G28G17G05G10G22G18G08G09G27G15
  -6388553.78547  -4965262.58146  24681570.6344   24681569.9754   24681571.7234
      3740.6614
 -15660962.39348 -12164636.10247  22605090.9894   22605089.7644   22605093.0024
     -2442.8914
 -12370334.76548  -9600464.33447  23150912.3694   23150912.8794   23150914.4214
      2193.4394
  -5428534.90647  -4172809.60946  24366199.5824   24366199.3014   24366202.8904
     -3641.0164
   2438887.19647   1948795.73246  25632370.4194   25632370.2634   25632375.0064
     -3613.3444
  -2177687.59047  -1474064.08946  25504267.5404   25504269.0654   25504267.1014
      2782.4974
 -12761678.80447  -9934689.78546  23249609.0874   23249607.8584   23249610.3134
      1542.4474
  -7701485.50047  -5990639.04546  24480043.2424   24480042.9384   24480045.6164
     -2978.1314
 -22919886.44548 -17853334.15847  21606648.5624   21606648.2584   21606650.4714
      2599.2394
 -17538824.21749 -13626782.96748  21735107.1334   21735106.9364   21735109.6294
      1375.0194
 -26461812.15549 -20597013.68248  20347069.1754   20347069.4044   20347070.6324
       -39.6874
 10  1  5  0  7  0.0000000  0 11G12G28G17G05G10G22G18G08G09G27G15
  -6500729.06947  -5052671.89746  24660223.6404   24660224.2774   24660226.1684
      3737.1224
 -15587535.54748 -12107420.38247  22619063.6754   22619064.0744   22619066.0084
     -2452.7334
 -12435961.21848  -9651601.82547  23138424.4994   23138425.1284   23138426.5754
      2181.0644
  -5319306.18247  -4087696.34446  24386984.8824   24386986.4204   24386987.9424
     -3641.6564
   2547226.76447   2033216.16346  25652988.5324   25652987.4564   25652993.4694
     -3609.7404
  -2261026.83646  -1539003.77146  25488408.2974   25488408.4404   25488409.3934
      2772.8544
 -12807698.49848  -9970549.29446  23240852.6374   23240851.7334   23240853.3224
      1525.1234
  -7612130.15547  -5921011.53046  24497046.0074   24497045.7934   24497050.1704
     -2979.7304
 -22997750.13748 -17914007.15847  21591831.6084   21591831.0584   21591833.9104
      2591.0684
 -17579994.78549 -13658863.92248  21727272.6674   21727272.4484   21727275.1964
      1369.1504
 -26460384.54549 -20595901.26348  20347340.6734   20347340.9154   20347342.4204
       -56.0994
 10  1  5  0  7 30.0000000  0 11G12G28G17G05G10G22G18G08G09G27G15
  -6612791.16847  -5139992.94446  24638898.7934   24638899.6314   24638901.2294
      3733.4984
 -15513818.51048 -12049978.54147  22633091.5424   22633090.9814   22633092.7264
     -2461.9594
 -12501217.27648  -9702450.68847  23126006.3714   23126006.4364   23126008.2484
      2168.9854
  -5210057.08647  -4002567.16246  24407774.6384   24407774.5594   24407777.3264
     -3641.8264
   2655450.30247   2117546.20846  25673582.3414   25673582.3514   25673585.6214
     -3605.3254
  -2344059.21246  -1603704.30646  25472607.6374   25472606.0464   25472608.1864
      2762.4624
 -12853201.07848 -10006005.85546  23232192.9934   23232192.0274   23232193.9514
      1508.0484
  -7522722.53346  -5851343.29646  24514060.3774   24514058.3324   24514063.2424
     -2981.3664
 -23075367.99848 -17974488.60047  21577061.3244   21577060.8144   21577063.6474
      2583.2604
 -17620987.81549 -13690806.53948  21719471.9364   21719471.6434   21719474.4514
      1363.5904
 -26458461.99149 -20594403.17648  20347706.7144   20347706.8244   20347708.1214
       -72.2644
 10  1  5  0  8  0.0000000  0 11G12G28G17G05G10G22G18G08G09G27G15
  -6724746.79347  -5227231.06546  24617594.8604   24617595.2944   24617596.5214
      3730.1994
 -15439822.33148 -11992319.18447  22647172.4864   22647171.4514   22647173.4734
     -2471.0064
 -12566109.48048  -9753016.04047  23113657.3294   23113657.4814   23113659.7964
      2157.0504
  -5100799.34947  -3917431.26546  24428565.7474   24428565.9824   24428568.0544
     -3641.8944
   2763546.72747   2201777.15846  25694152.1844   25694151.6234   25694155.3584
     -3600.7814
  -2426791.60346  -1668171.15446  25456864.6454   25456863.9604   25456865.6074
      2752.9864
 -12898194.24248 -10041065.45346  23223630.9574   23223630.6534   23223632.4624
      1491.4714
  -7433272.71746  -5781642.18546  24531082.6164   24531082.4404   24531084.6414
     -2981.8174
 -23152748.09648 -18034784.76347  21562336.3154   21562336.7304   21562339.4594
      2575.5394
 -17661812.51049 -13722617.98648  21711703.3714   21711703.1574   21711705.9674
      1358.2634
 -26456052.77449 -20592525.86948  20348165.1454   20348165.3144   20348166.7064
       -88.2054
 10  1  5  0  8 30.0000000  0 10G12G28G17G05G22G18G08G09G27G15
  -6836591.02147  -5314382.41746  24596311.1014   24596311.3124   24596313.7864
      3726.0994
 -15365546.27248 -11934441.74247  22661306.9334   22661305.9714   22661308.6834
     -2480.6274
 -12630631.84048  -9803293.20447  23101379.4004   23101380.1964   23101380.8084
      2144.2794
  -4991532.61147  -3832288.33546  24449358.3964   24449357.9794   24449361.4754
     -3642.6374
  -2509218.74447  -1732400.08046  25441178.9934   25441179.7054   25441178.9264
      2742.1384
 -12942673.50448 -10075724.63846  23215167.4924   23215166.7774   23215169.5084
      1473.7784
  -7343777.38946  -5711905.58946  24548112.9704   24548113.2244   24548117.3874
     -2984.0814
 -23229886.33348 -18094892.45747  21547657.6214   21547657.6294   21547659.4934
      2567.0794
 -17702465.91549 -13754295.95948  21703967.1884   21703966.7974   21703969.7454
      1352.2294
 -26453153.10349 -20590266.38948  20348716.9634   20348717.0874   20348718.4584
      -104.9734
 10  1  5  0  9  0.0000000  0 10G12G28G17G05G22G18G08G09G27G15
  -6948323.64747  -5401446.73246  24575048.8704   24575049.8384   24575051.4864
      3722.3354
 -15290994.04748 -11876349.10347  22675493.5064   22675492.9194   22675495.5204
     -2490.2664
 -12694783.20948  -9853281.29147  23089172.0434   23089171.4034   23089174.7094
      2131.8474
  -4882261.36947  -3747141.92546  24470151.4244   24470152.2814   24470155.5464
     -3642.9544
  -2591339.60747  -1796390.35146  25425552.5314   25425551.3154   25425552.8694
      2732.0094
 -12986638.98848 -10109983.44846  23206800.9304   23206801.6264   23206802.1504
      1456.5604
  -7254239.25646  -5642135.65646  24565151.0434   24565150.7314   24565154.4944
     -2985.8574
 -23306783.51348 -18154812.32347  21533024.4914   21533023.7004   21533026.5324
      2558.7104
 -17742949.42949 -13785841.55348  21696263.2074   21696263.2334   21696265.7744
      1346.2474
 -26449764.12349 -20587625.63248  20349361.7534   20349362.0874   20349363.3794
      -121.5304
 10  1  5  0  9 30.0000000  0 10G12G28G17G05G22G18G08G09G27G15
  -7059943.45947  -5488423.17846  24553808.7544   24553809.0494   24553809.6434
      3718.6114
 -15216168.45148 -11818043.45547  22689732.3874   22689731.8154   22689734.4744
     -2499.0474
 -12758561.95748  -9902979.01647  23077035.2324   23077035.4724   23077037.6714
      2119.4344
  -4772989.15447  -3661994.73446  24490945.4434   24490945.8884   24490948.0934
     -3642.8764
  -2673152.96847  -1860141.09246  25409983.9994   25409985.1824   25409983.6534
      2721.7714
 -13030090.10348 -10143841.47646  23198532.2954   23198533.2264   23198535.7564
      1439.6554
  -7164659.54646  -5572333.32446  24582197.5644   24582196.8394   24582200.8604
     -2986.6984
 -23383439.63348 -18214544.34447  21518437.3354   21518437.0394   21518439.1574
      2550.9804
 -17783264.04049 -13817255.54048  21688591.7334   21688591.8934   21688594.0134
      1340.7844
 -26445885.68849 -20584603.48348  20350099.8274   20350100.0874   20350101.4524
      -137.6754
 10  1  5  0 10  0.0000000  0 10G12G28G17G05G22G18G08G09G27G15
  -7171447.99247  -5575309.80346  24532589.8294   24532590.7674   24532592.8414
      3714.4054
 -15141070.87148 -11759525.85647  22704022.9314   22704023.2264   22704024.1544
     -2508.0404
 -12821964.68748  -9952383.73947  23064969.9584   23064970.1164   23064972.6054
      2106.8144
  -4663717.82847  -3576848.26146  24511739.5214   24511740.2634   24511741.2374
     -3642.3544
  -2754655.50447  -1923649.61446  25394473.7274   25394473.4694   25394474.5164
      2711.6584
 -13073024.65448 -10177296.96046  23190362.1424   23190362.9984   23190363.0494
      1422.4494
  -7075037.89246  -5502498.30546  24599252.2614   24599251.0914   24599256.6574
     -2988.4824
 -23459852.99848 -18274087.20047  21503896.0104   21503896.4264   21503898.6764
      2542.7824
 -17823408.97449 -13848537.30848  21680952.5044   21680952.2624   21680954.8524
      1335.0374
 -26441516.42049 -20581198.86348  20350931.2714   20350931.5984   20350932.8284
      -154.1364
 10  1  5  0 10 30.0000000  0 10G12G28G17G05G22G18G08G09G27G15
  -7282833.34747  -5662103.52846  24511394.4754   24511394.1594   24511397.0004
      3710.4224
 -15065701.65548 -11700796.60747  22718365.4854   22718365.0144   22718366.2394
     -2516.9694
 -12884986.70248 -10001491.79447  23052977.0204   23052977.8134   23052980.2814
      2094.1954
  -4554448.41647  -3491703.28246  24532532.2654   24532532.6844   24532534.6994
     -3642.4974
  -2835843.03647  -1986912.62746  25379025.0214   25379025.6824   25379025.2334
      2700.7814
 -13115439.35348 -10210347.37946  23182290.8654   23182289.7974   23182292.3974
      1404.8624
  -6985373.18646  -5432629.74546  24616314.7514   24616313.6104   24616318.5264
     -2989.7644
 -23536020.89348 -18333438.80547  21489401.9664   21489401.6394   21489404.0474
      2534.5664
 -17863382.31049 -13879685.36748  21673345.8664   21673345.5284   21673348.1714
      1329.3484
 -26436653.89749 -20577409.89248  20351856.6034   20351856.8974   20351858.2054
      -170.5094
 10  1  5  0 11  0.0000000  0 10G12G28G17G05G22G18G08G09G27G15
  -7394099.08947  -5748804.05646  24490220.6014   24490221.7144   24490223.2894
      3706.9094
 -14990064.48948 -11641858.56447  22732758.6774   22732758.2374   22732760.4854
     -2525.9224
 -12947627.00248 -10050302.41847  23041057.2704   23041057.9504   23041059.5574
      2081.2234
  -4445185.02447  -3406562.99546  24553325.0094   24553325.3334   24553326.4964
     -3642.2304
  -2916714.92047  -2049929.78546  25363635.9874   25363634.9674   25363634.4134
      2690.2384
 -13157334.58948 -10242993.01946  23174318.0984   23174317.6094   23174319.1264
      1387.5904
  -6895667.24046  -5362729.03746  24633384.7764   24633384.5284   24633387.1564
     -2991.7134
 -23611943.89248 -18392599.57647  21474954.2094   21474953.9764   21474956.0504
      2526.4854
 -17903185.75349 -13910701.04048  21665771.6654   21665771.2564   21665773.9544
      1323.7244
 -26431298.90849 -20573237.18248  20352875.5464   20352875.8554   20352877.2724
      -186.9774
 10  1  5  0 11 30.0000000  0 10G12G28G17G05G22G18G08G09G27G15
  -7505243.70847  -5835410.21246  24469070.4864   24469070.0754   24469073.1974
      3702.6664
 -14914161.90748 -11582713.69747  22747202.1334   22747202.0614   22747203.8864
     -2534.7774
 -13009883.28948 -10098813.80847  23029210.1314   23029210.9014   23029212.1584
      2068.7254
  -4335930.74347  -3321429.80246  24574115.5704   24574115.3924   24574118.6144
     -3641.8584
  -2997269.15347  -2112699.34446  25348306.7204   25348307.0904   25348308.3304
      2679.9354
 -13198709.65648 -10275233.34746  23166445.1614   23166444.6434   23166445.8844
      1370.3474
  -6805921.01846  -5292796.95246  24650463.6274   24650461.6984   24650467.1204
     -2992.2314
 -23687621.33748 -18451569.00447  21460553.4644   21460553.3154   21460555.4024
      2518.3644
 -17942819.47749 -13941584.46948  21658229.6164   21658229.3624   21658232.0214
      1318.1684
 -26425451.39749 -20568680.68948  20353988.3054   20353988.6604   20353990.0354
      -203.3254
 10  1  5  0 12  0.0000000  0 10G12G28G17G05G22G18G08G09G27G15
  -7616264.67147  -5921920.03446  24447943.9574   24447944.4784   24447947.1504
      3698.5794
 -14837995.25648 -11523363.06447  22761696.3884   22761696.3004   22761698.2524
     -2543.2774
 -13071752.40048 -10147023.50347  23017437.0054   23017436.7944   23017439.1844
      2055.8744
  -4226687.68747  -3236305.36746  24594904.0474   24594904.5064   24594906.8184
     -3641.4354
  -3077502.92747  -2175219.16546  25333038.4104   25333038.8624   25333038.6774
      2669.0534
 -13239562.38948 -10307066.63546  23158671.0874   23158671.2794   23158672.6944
      1353.1384
  -6716134.50546  -5222833.48446  24667549.1484   24667549.1194   24667553.1724
     -2993.2724
 -23763051.75848 -18510345.93747  21446199.4924   21446199.4334   21446201.0704
      2510.0774
 -17982283.09649 -13972335.34348  21650719.8584   21650719.4964   21650722.4194
      1312.5494
 -26419109.92349 -20563739.28648  20355194.9994   20355195.4414   20355196.6434
      -219.6854
 10  1  5  0 12 30.0000000  0 10G12G28G17G05G22G18G08G09G27G15
  -7727159.72547  -6008331.70046  24426841.8264   24426841.1804   24426843.6114
      3694.7494
 -14761566.11348 -11463807.89047  22776240.4734   22776239.3964   22776241.9264
     -2551.5894
 -13133231.33748 -10194929.16147  23005737.6304   23005738.2254   23005740.5054
      2043.3114
  -4117458.43547  -3151191.67646  24615689.4704   24615688.9184   24615690.7504
     -3640.1284
  -3157413.24147  -2237486.98246  25317831.8054   25317830.4374   25317830.0714
      2658.5254
 -13279890.75048 -10338491.34546  23150996.7054   23150995.6414   23150996.5384
      1335.8224
  -6626307.78547  -5152838.66646  24684642.8894   24684641.3874   24684645.4684
     -2994.6294
 -23838233.88148 -18568929.39147  21431892.6294   21431892.5844   21431895.0184
      2502.2654
 -18021576.01949 -14002953.20348  21643242.5844   21643242.4424   21643244.9874
      1307.2524
 -26412273.44649 -20558412.16848  20356496.0614   20356496.3444   20356497.5554
      -235.7604
 10  1  5  0 13  0.0000000  0 10G12G28G17G05G22G18G08G09G27G15
  -7837928.24647  -6094644.83046  24405762.4174   24405762.7724   24405763.8664
      3690.7294
 -14684878.13048 -11404051.02547  22790833.6454   22790833.7784   22790834.8824
     -2560.1724
 -13194318.85348 -10242529.82347  22994113.2664   22994114.2834   22994115.7364
      2030.1814
  -4008246.81547  -3066091.72546  24636471.4254   24636472.2404   24636474.9094
     -3639.8534
  -3236999.15746  -2299502.03446  25302686.3854   25302686.7574   25302687.4964
      2648.0514
 -13319695.29748 -10369507.88246  23143422.2774   23143422.2194   23143422.7164
      1318.4924
  -6536442.60947  -5082813.87946  24701743.4534   24701743.3824   24701747.6234
     -2995.7174
 -23913167.92648 -18627319.54647  21417633.1454   21417633.1314   21417635.2194
      2494.0484
 -18060699.66749 -14033439.16448  21635797.4934   21635797.4034   21635800.1294
      1301.7754
 -26404943.02149 -20552700.15748  20357890.9694   20357891.2374   20357892.6714
      -252.1074
 10  1  5  0 13 30.0000000  0 10G12G28G17G05G22G18G08G09G27G15
  -7948567.84747  -6180857.47146  24384708.6534   24384708.2744   24384711.5014
      3685.9254
 -14607933.09548 -11344093.85647  22805475.6824   22805475.6854   22805477.6734
     -2569.0754
 -13255011.64348 -10289822.90547  22982564.1064   22982564.4884   22982566.1134
      2016.3324
  -3899054.90747  -2981007.14646  24657249.9964   24657250.5234   24657252.7834
     -3639.5144
  -3316258.17146  -2361262.26546  25287606.6504   25287606.6924   25287604.1204
      2635.8244
 -13358974.55948 -10400115.11846  23135947.9994   23135947.6304   23135947.0674
      1300.4574
  -6446539.08647  -5012759.21946  24718851.1944   24718850.8444   24718854.2034
     -2997.6734
 -23987852.69648 -18685515.46547  21403421.0624   21403420.7844   21403423.1714
      2485.3044
 -18099653.50249 -14063792.79848  21628385.1244   21628384.6124   21628387.5524
      1295.4664
 -26397117.63449 -20546602.45948  20359380.0944   20359380.2934   20359381.8244
      -269.2074
 10  1  5  0 14  0.0000000  0 10G12G28G17G05G22G18G08G09G27G15
  -8059075.73047  -6266967.49346  24363679.9434   24363679.9504   24363681.7754
      3681.6004
 -14530732.29148 -11283937.39547  22820166.4754   22820166.7724   22820167.8854
     -2577.4174
 -13315306.70348 -10336806.07047  22971089.7464   22971090.5574   22971092.2444
      2003.3014
  -3789884.76947  -2895939.52046  24678024.7394   24678025.1004   24678025.9874
     -3638.5734
  -3395187.17046  -2422765.41546  25272585.4544   25272585.4754   25272584.5954
      2625.3894
 -13397726.30048 -10430311.28846  23128572.8744   23128573.2794   23128573.8644
      1282.9604
  -6356596.61947  -4942674.21146  24735966.7364   24735966.5904   24735969.8854
     -2998.4874
 -24062286.72648 -18743516.00347  21389256.6994   21389256.9744   21389258.8654
      2477.1314
 -18138436.96849 -14094013.68048  21621004.5264   21621004.2654   21621007.3434
      1290.0524
 -26388795.80049 -20540117.91848  20360963.7764   20360964.0904   20360965.3464
      -285.4734
 10  1  5  0 14 30.0000000  0 10G12G28G17G05G22G18G08G09G27G15
  -8169449.71847  -6352973.17746  24342676.0754   24342676.4294   24342679.2624
      3677.0434
 -14453277.29748 -11223582.86347  22834905.8024   22834905.1064   22834906.3934
     -2585.9544
 -13375201.13148 -10383477.04947  22959692.6814   22959692.0324   22959694.2034
      1990.0004
  -3680738.77747  -2810890.73546  24698793.8504   24698793.6354   24698797.1124
     -3637.7104
  -3473783.37346  -2484009.17846  25257629.7024   25257630.1094   25257626.3124
      2614.4014
 -13435948.73948 -10460095.01446  23121300.5694   23121301.2384   23121300.9634
      1265.4654
  -6266615.72347  -4872559.26246  24753089.8854   24753089.3034   24753092.5074
     -2999.9064
 -24136468.06548 -18801319.63947  21375140.5284   21375140.3584   21375142.2974
      2468.7214
 -18177049.54449 -14124101.40048  21613657.0454   21613656.8384   21613659.5304
      1284.4594
 -26379976.56649 -20533245.79648  20362641.8204   20362642.2164   20362643.5484
      -302.1344
 10  1  5  0 15  0.0000000  0 10G12G28G17G05G22G18G08G09G27G15
  -8279689.77747  -6438874.48746  24321698.3744   24321698.9554   24321701.2964
      3672.4694
 -14375572.13648 -11163033.39847  22849692.6314   22849692.5574   22849694.6204
     -2594.3644
 -13434693.93648 -10429835.07447  22948371.1934   22948371.4464   22948373.7304
      1976.3074
  -3571621.45147  -2725864.27146  24719558.2304   24719558.6924   24719560.8454
     -3636.8004
  -3552046.00246  -2544993.06546  25242735.7714   25242732.9674   25242735.1164
      2603.4414
 -13473642.66248 -10489466.90846  23114127.4034   23114126.2484   23114127.7494
      1247.5784
  -6176598.16747  -4802415.72846  24770219.8014   24770219.2104   24770223.6574
     -3001.1404
 -24210397.67048 -18858927.11947  21361072.3854   21361072.0214   21361074.4214
      2460.1524
 -18215493.08649 -14154057.40648  21606341.4294   21606340.9814   21606343.9894
      1278.6644
 -26370661.10749 -20525987.00448  20364414.6764   20364414.7694   20364416.1144
      -318.8224
 10  1  5  0 15 30.0000000  0 10G12G28G17G05G22G18G08G09G27G15
  -8389791.68147  -6524668.17646  24300746.4934   24300746.8754   24300748.9014
      3667.6624
 -14297616.81548 -11102288.99847  22864527.0554   22864526.6534   22864529.1334
     -2602.4904
 -13493780.79648 -10475876.78147  22937127.6844   22937127.9154   22937129.5974
      1962.7384
  -3462533.24847  -2640860.48446  24740317.6414   24740318.4514   24740321.1364
     -3635.6894
  -3629971.26246  -2605714.07746  25227907.0894   25227904.3574   25227907.2454
      2592.0454
 -13510804.72448 -10518424.37446  23107055.5074   23107054.0574   23107056.9884
      1229.9954
  -6086542.34647  -4732242.42046  24787356.5254   24787356.5254   24787361.2204
     -3002.5364
 -24284072.88748 -18916336.36947  21347052.4424   21347052.4304   21347054.3924
      2451.5484
 -18253765.52949 -14183880.08548  21599058.2834   21599058.2944   21599060.7404
      1272.8974
 -26360847.03849 -20518339.68448  20366282.2044   20366282.5874   20366283.9364
      -335.5674
 10  1  5  0 16  0.0000000  0 10G12G28G17G05G22G18G08G09G27G15
  -8499754.15647  -6610353.19546  24279821.9694   24279822.0094   24279824.3294
      3662.9584
 -14219413.93648 -11041351.69747  22879408.5704   22879407.8674   22879410.9004
     -2610.8244
 -13552459.03148 -10521600.08347  22925961.7154   22925961.4294   22925963.4474
      1949.1264
  -3353477.08947  -2555881.68246  24761070.1834   24761070.7654   24761073.1154
     -3634.7704
  -3707557.19546  -2666170.63046  25213143.4224   25213141.9474   25213141.8084
      2580.5614
 -13547434.33348 -10546966.94146  23100084.4314   23100083.8834   23100087.0304
      1212.1164
  -5996449.53247  -4662040.25546  24804500.7164   24804500.7994   24804503.5694
     -3003.5674
 -24357493.19348 -18973546.99947  21333080.9864   21333080.8554   21333083.7414
      2443.0214
 -18291867.23749 -14213569.72348  21591807.9764   21591807.4284   21591810.3884
      1267.2204
 -26350534.54849 -20510303.98548  20368244.8114   20368244.8984   20368246.1864
      -352.1114
 10  1  5  0 16 30.0000000  0 10G12G28G17G05G22G18G08G09G27G15
  -8609577.38947  -6695929.72546  24258922.8194   24258922.7644   24258925.2974
      3658.1514
 -14140967.59248 -10980224.67647  22894336.5734   22894336.9804   22894337.8224
     -2619.1604
 -13610728.68248 -10567005.00047  22914873.3864   22914873.1184   22914875.4094
      1935.2874
  -3244458.05347  -2470931.77946  24781816.0564   24781815.4204   24781817.9744
     -3633.8414
  -3784803.48746  -2726362.57746  25198443.7334   25198442.2854   25198443.5434
      2569.1894
 -13583532.43248 -10575095.34146  23093215.8344   23093215.8624   23093218.0694
      1194.0964
  -5906322.32047  -4591811.28446  24821651.6514   24821651.3544   24821653.9444
     -3004.9394
 -24430659.62648 -19030559.79847  21319157.8294   21319157.7014   21319159.7154
      2434.3894
 -18329800.49649 -14243128.10148  21584589.3144   21584589.1494   21584591.6254
      1261.4334
 -26339724.69749 -20501880.73248  20370301.7914   20370301.8964   20370303.3054
      -368.7944
 10  1  5  0 17  0.0000000  0 10G12G28G17G05G22G18G08G09G27G15
  -8719257.21147  -6781394.50046  24238051.4194   24238052.0324   24238053.4244
      3653.4554
 -14062277.81548 -10918907.97347  22909310.7744   22909310.1854   22909312.1424
     -2626.9674
 -13668585.36448 -10612088.13447  22903863.7714   22903863.2834   22903866.0564
      1921.6764
  -3135476.68147  -2386011.23746  24802554.5974   24802554.1114   24802556.6424
     -3631.8814
  -3861705.84746  -2786286.50146  25183811.1524   25183810.3764   25183808.2634
      2557.5354
 -13619096.15648 -10602807.34346  23086448.3824   23086447.4074   23086447.9794
      1176.5224
  -5816158.96747  -4521554.14546  24838809.0394   24838809.5384   24838811.2044
     -3006.0814
 -24503569.32748 -19087372.55947  21305283.5124   21305283.6744   21305285.3954
      2426.1224
 -18367563.13649 -14272553.53348  21577403.4484   21577403.0734   21577406.0054
      1255.8594
 -26328415.35549 -20493068.26448  20372453.7194   20372454.0814   20372455.3764
      -385.3554
 10  1  5  0 17 30.0000000  0 10G12G28G17G05G22G18G08G09G27G15
  -8828793.26947  -6866747.24546  24217207.0034   24217207.5454   24217208.9244
      3648.6644
 -13983347.98048 -10857404.21547  22924330.6604   22924330.3374   22924332.8204
     -2635.0144
 -13726027.31248 -10656848.09147  22892932.5144   22892932.6484   22892935.2534
      1907.6324
  -3026536.85847  -2301123.06546  24823284.3554   24823286.0554   24823287.2954
     -3630.7304
  -3938263.30646  -2845941.66346  25169241.2664   25169242.1744   25169240.9834
      2546.1604
 -13654125.27448 -10630102.76646  23079782.5224   23079782.8324   23079782.3684
      1158.6724
  -5725961.00047  -4451270.05946  24855973.4564   24855973.6134   24855975.0734
     -3007.5244
 -24576222.17548 -19143985.16647  21291458.1764   21291458.0804   21291460.3824
      2417.3144
 -18405156.08549 -14301846.73248  21570249.6074   21570249.5334   21570252.4064
      1250.0604
 -26316607.02649 -20483866.97548  20374700.7134   20374701.0994   20374702.5364
      -402.1294
 10  1  5  0 18  0.0000000  0 10G12G28G17G05G22G18G08G09G27G15
  -8938181.29447  -6951984.65446  24196391.9334   24196391.6074   24196393.9374
      3643.8594
 -13904177.92248 -10795713.27147  22939396.2364   22939395.8684   22939397.8834
     -2642.7694
 -13783050.00248 -10701281.34247  22882081.6204   22882081.6864   22882084.1424
      1894.0784
  -2917639.02847  -2216267.60746  24844007.9144   24844007.1654   24844009.9734
     -3629.2144
  -4014471.13246  -2905324.41946  25154738.4694   25154738.5754   25154738.5594
      2534.7754
 -13688616.24648 -10656978.86446  23073219.3604   23073217.4994   23073218.6604
      1140.6814
  -5635726.79347  -4380957.73146  24873144.3674   24873144.6294   24873147.9134
     -3008.1934
 -24648615.11748 -19200395.24547  21277682.1284   21277682.3644   21277683.9104
      2408.8784
 -18442576.97349 -14331005.86048  21563128.7254   21563128.4334   21563131.1354
      1244.6814
 -26304297.16349 -20474274.88048  20377043.3694   20377043.7064   20377044.9514
      -418.4854
 10  1  5  0 18 30.0000000  0 10G12G28G17G05G22G18G08G09G27G15
  -9047422.09347  -7037107.32846  24175603.3194   24175604.2584   24175605.2604
      3637.8274
 -13824772.52948 -10733838.94247  22954506.3504   22954505.7124   22954508.4444
     -2651.8594
 -13839653.72248 -10745388.12847  22871310.3534   22871310.3504   22871312.4044
      1878.6244
  -2808788.09147  -2131448.71646  24864721.3584   24864721.1204   24864723.5294
     -3628.9534
  -4090329.83247  -2964435.08046  25140306.3404   25140306.8594   25140305.0934
      2521.4904
 -13722571.07048 -10683437.16646  23066757.7704   23066757.5974   23066759.3864
      1121.8994
  -5545459.62247  -4310619.70146  24890321.1034   24890321.3654   24890325.3194
     -3010.5154
 -24720750.13848 -19256604.35047  21263955.4634   21263955.0404   21263958.0564
      2399.1484
 -18479828.66349 -14360033.14648  21556039.9624   21556039.8924   21556042.5394
      1237.8034
 -26291488.18649 -20464293.86648  20379480.8914   20379481.1184   20379482.4594
      -436.4494
 10  1  5  0 19  0.0000000  0 10G12G28G17G05G22G18G08G09G27G15
  -9156514.33447  -7122114.27746  24154844.0904   24154843.7314   24154846.1884
      3633.4834
 -13745134.49048 -10671783.33147  22969661.1134   22969662.4494   22969663.0054
     -2659.0974
 -13895836.74348 -10789167.09947  22860618.7224   22860618.8324   22860621.4044
      1864.8744
  -2699987.53847  -2046669.06346  24885424.8764   24885425.4944   24885427.7964
     -3626.5554
  -4165837.92746  -3023272.59845  25125933.4884   25125931.8904   25125932.9714
      2510.6114
 -13755989.41548 -10709477.43646  23060398.0084   23060398.4724   23060399.3524
      1104.4004
  -5455160.24747  -4240256.58046  24907504.8004   24907504.5944   24907508.8804
     -3011.1934
 -24792627.03348 -19312612.31247  21250277.4714   21250277.0594   21250280.4124
      2390.9294
 -18516912.10449 -14388929.32548  21548983.4474   21548982.7684   21548985.8864
      1232.7004
 -26278180.18149 -20453923.99848  20382013.3164   20382013.5044   20382014.8144
      -452.5504
 10  1  5  0 19 30.0000000  0 10G12G28G17G05G22G18G08G09G27G15
  -9265452.94247  -7207001.48146  24134114.0384   24134113.3454   24134115.5694
      3628.9104
 -13665262.56048 -10609545.46547  22984860.1254   22984860.1974   22984861.3914
     -2666.0584
 -13951593.34548 -10832613.79147  22850008.8674   22850008.6254   22850010.6934
      1851.4464
  -2591236.90147  -1961928.32246  24906118.9974   24906120.9084   24906121.1974
     -3624.2444
  -4240989.56147  -3081832.27245  25111634.3074   25111636.1584   25111634.7054
      2499.3444
 -13788867.00448 -10735096.35746  23054142.4254   23054141.4474   23054143.6964
      1087.0884
  -5364825.95347  -4169866.25545  24924694.8464   24924695.0734   24924696.8674
     -3011.3964
 -24864241.32149 -19368415.64547  21236649.8004   21236649.5624   21236652.0744
      2382.9764
 -18553823.99149 -14417691.83148  21541959.0764   21541959.0514   21541961.5194
      1227.7254
 -26264369.74149 -20443162.61948  20384641.2484   20384641.5194   20384642.8644
      -468.5204
 10  1  5  0 20  0.0000000  0 10G12G28G17G05G22G18G08G09G27G15
  -9374236.75047  -7291768.09946  24113412.9934   24113413.1454   24113414.8374
      3623.5734
 -13585160.18248 -10547128.03947  23000103.1904   23000103.4174   23000104.9614
     -2673.6014
 -14006922.04048 -10875727.05747  22839479.8754   22839480.3364   22839482.0804
      1837.5194
  -2482539.72147  -1877229.24346  24926804.4624   24926804.5984   24926806.3764
     -3622.1594
  -4315783.84646  -3140113.55846  25097400.0604   25097395.9044   25097399.2194
      2487.6164
 -13821203.53248 -10760293.66246  23047988.5604   23047987.3754   23047989.8084
      1069.0364
  -5274458.40046  -4099450.00545  24941891.3494   24941890.6694   24941894.6454
     -3012.8584
 -24935592.95149 -19424014.31047  21223072.1074   21223072.3194   21223074.0934
      2374.2054
 -18590564.86949 -14446321.08048  21534967.7334   21534967.6774   21534970.0744
      1222.0814
 -26250057.19749 -20432009.99348  20387364.8344   20387365.0504   20387366.5064
      -485.2214
 10  1  5  0 20 30.0000000  0 10G12G28G17G05G22G18G08G09G27G15
  -9482867.03847  -7376415.07346  24092741.1904   24092741.8484   24092743.8144
      3619.0364
 -13504831.67848 -10484534.40147  23015388.9434   23015390.4434   23015391.2604
     -2680.9344
 -14061822.91848 -10918506.94947  22829032.6804   22829033.0814   22829034.9234
      1823.2804
  -2373901.15647  -1792575.80846  24947477.4234   24947477.3294   24947479.4324
     -3619.7214
  -4390221.51847  -3198116.91246  25083238.8994   25083240.7934   25083241.0264
      2475.4214
 -13853001.13748 -10785071.02846  23041937.7764   23041937.2374   23041939.1504
      1051.4134
  -5184060.78447  -4029010.33245  24959094.1824   24959090.3724   24959095.3034
     -3013.3764
 -25006683.59649 -19479409.60547  21209544.1164   21209544.0754   21209546.6974
      2365.8014
 -18627137.30449 -14474819.08048  21528008.1354   21528008.1814   21528010.5984
      1216.7584
 -26235244.94549 -20420467.98548  20390183.6454   20390183.8664   20390185.0954
      -501.5844
 10  1  5  0 21  0.0000000  0 10G12G28G17G05G22G18G08G09G27G15
  -9591337.81647  -7460937.75946  24072099.8844   24072099.8454   24072102.0134
      3613.3304
 -13424274.90048 -10421762.88947  23030718.4414   23030718.0624   23030720.1734
     -2688.5384
 -14116289.77748 -10960948.64547  22818668.3894   22818667.9314   22818669.9684
      1808.6294
  -2265319.86647  -1707967.02346  24968139.9024   24968140.6644   24968143.0614
     -3618.2004
  -4464296.27347  -3255837.51546  25069139.4764   25069139.3034   25069143.7984
      2463.5404
 -13884254.67748 -10809424.45346  23035990.1114   23035990.1964   23035990.7964
      1033.2124
  -5093628.61546  -3958543.69445  24976302.0514   24976300.5364   24976306.1704
     -3014.7904
 -25077508.67349 -19534597.96947  21196066.4194   21196066.3174   21196068.9904
      2356.8234
 -18663537.58749 -14503182.93048  21521081.3724   21521080.9404   21521083.7654
      1210.8404
 -26219928.50049 -20408533.09848  20393098.1574   20393098.3514   20393099.8464
      -518.6304
 10  1  5  0 21 30.0000000  0 10G12G28G17G05G22G18G08G09G27G15
  -9699650.19747  -7545337.03046  24051488.9744   24051489.2914   24051490.2424
      3607.6884
 -13343495.42248 -10358817.85347  23046090.3664   23046090.7964   23046091.9854
     -2696.4344
 -14170323.22948 -11003052.62647  22808385.8824   22808386.1914   22808388.5484
      1793.9064
  -2156801.69347  -1623407.42846  24988789.4364   24988790.4104   24988791.9804
     -3616.1594
  -4538008.72047  -3313275.78346  25055113.7544   25055115.7524   25055118.5044
      2451.4594
 -13914966.32348 -10833355.61646  23030146.4574   23030146.0344   23030145.8494
      1014.5984
  -5003166.04846  -3888053.41845  24993516.9844   24993513.5524   24993520.7624
     -3015.7134
 -25148070.08249 -19589580.87347  21182639.3384   21182639.0924   21182640.7454
      2347.8034
 -18699768.42049 -14531414.73848  21514186.8204   21514186.6164   21514188.9934
      1204.9934
 -26204111.10749 -20396207.86048  20396108.0874   20396108.3194   20396109.7664
      -535.5394
 10  1  5  0 22  0.0000000  0 10G12G28G17G05G22G18G08G09G27G15
  -9807799.41447  -7629609.15546  24030908.8324   24030908.6434   24030910.0614
      3602.1174
 -13262492.35548 -10295698.57447  23061504.8964   23061504.7774   23061507.4644
     -2703.8554
 -14223918.10248 -11044814.85447  22798186.8794   22798187.8404   22798189.1654
      1779.2344
  -2048346.30047  -1538896.73046  25009428.6894   25009429.0324   25009430.6334
     -3613.6644
  -4611353.89847  -3370427.86246  25041157.3034   25041158.9214   25041161.8674
      2438.5874
 -13945132.37048 -10856861.64446  23024405.6804   23024405.9664   23024407.2244
       996.4194
  -4912670.74346  -3817537.63245  25010738.1334   25010738.2914   25010742.4164
     -3017.0884
 -25218363.92549 -19644355.29647  21169262.4874   21169262.4744   21169264.9804
      2338.6754
 -18735826.72349 -14559512.11048  21507325.1134   21507324.9194   21507327.6434
      1199.0974
 -26187789.21849 -20383489.51548  20399214.0234   20399214.2704   20399215.7714
      -552.4694
 10  1  5  0 22 30.0000000  0 10G12G28G17G05G22G18G08G09G27G15
  -9915786.51947  -7713754.97446  24010359.7404   24010359.3454   24010360.9464
      3596.9064
 -13181270.68248 -10232408.96547  23076960.8384   23076958.9914   23076962.0994
     -2710.8514
 -14277074.81848 -11086235.65347  22788071.2324   22788071.4674   22788073.6404
      1764.7814
  -1939959.10947  -1454439.17546  25030053.7324   25030054.6904   25030057.6824
     -3611.5794
  -4684332.33747  -3427294.19046  25027269.9554   25027270.3164   25027267.3964
      2426.5354
 -13974754.84248 -10879944.10946  23018768.4654   23018768.7954   23018769.8014
       978.2984
  -4822145.93246  -3746998.86045  25027964.5374   25027965.1564   25027966.5274
     -3017.6404
 -25288392.07849 -19698922.68347  21155936.6144   21155936.4214   21155938.8154
      2329.9244
 -18771715.55749 -14587477.42448  21500495.7424   21500495.7694   21500497.9834
      1193.5784
 -26170965.22949 -20370379.91948  20402415.6094   20402415.8304   20402417.1404
      -569.0584
 10  1  5  0 23  0.0000000  0 10G12G28G17G05G22G18G08G09G27G15
 -10023608.50947  -7797772.10646  23989841.6984   23989842.5784   23989844.6414
      3590.9294
 -13099831.44048 -10168949.81147  23092458.3184   23092458.3754   23092458.8554
     -2718.7374
 -14329790.21848 -11127312.58747  22778040.2304   22778039.7424   22778042.4724
      1749.1984
  -1831641.56247  -1370035.90546  25050665.6034   25050666.6004   25050667.6844
     -3609.8294
  -4756941.01447  -3483872.36246  25013453.1864   25013454.4094   25013455.1534
      2413.6444
 -14003831.74548 -10902601.45046  23013235.8094   23013235.9594   23013237.1034
       959.4254
  -4731590.61646  -3676436.29045  25045195.7494   25045195.9754   25045197.7874
     -3019.7244
 -25358152.69849 -19753281.59847  21142661.6354   21142661.7474   21142664.1964
      2320.3744
 -18807433.93349 -14615309.92348  21493698.7764   21493698.5244   21493701.0244
      1187.2324
 -26153638.47049 -20356878.55248  20405712.7524   20405713.2154   20405714.4454
      -586.4824
 10  1  5  0 23 30.0000000  0 10G12G28G17G05G22G18G08G09G27G15
 -10131263.13847  -7881658.85546  23969355.1764   23969354.8264   23969358.6814
      3585.5084
 -13018176.14848 -10105322.31347  23107996.6624   23107996.5424   23107997.5594
     -2725.3434
 -14382061.22848 -11168043.23647  22768093.1444   22768093.1284   22768095.8434
      1734.8574
  -1723395.51947  -1285688.36846  25071264.3684   25071265.6994   25071266.8454
     -3606.8554
  -4829177.29547  -3540160.41746  24999705.6354   24999705.0364   24999704.5344
      2401.6904
 -14032361.69748 -10924832.59246  23007806.5574   23007806.0214   23007807.0534
       941.7764
  -4641004.99146  -3605850.11845  25062433.8604   25062435.3184   25062437.3554
     -3019.9394
 -25427644.09649 -19807430.73347  21129437.7964   21129437.7724   21129439.7284
      2311.8454
 -18842981.13749 -14643009.03748  21486934.3454   21486933.9604   21486937.0834
      1182.0954
 -26135807.42749 -20342984.24148  20409105.9704   20409106.2554   20409107.5214
      -602.8174
 10  1  5  0 24  0.0000000  0 10G12G28G17G05G22G18G08G09G27G15
 -10238749.47947  -7965414.44546  23948902.1774   23948902.5404   23948903.7954
      3580.3574
 -12936307.55648 -10041528.61847  23123575.8474   23123575.2944   23123577.6014
     -2732.3974
 -14433886.19448 -11208426.32047  22758231.5454   22758231.9394   22758233.8444
      1720.3584
  -1615224.43547  -1201399.20346  25091849.1144   25091850.1754   25091853.9054
     -3604.1674
  -4901039.78847  -3596157.14946  24986031.1444   24986030.3244   24986031.0994
      2389.6134
 -14060344.74548 -10946637.57746  23002481.3724   23002481.4804   23002481.7694
       923.8934
  -4550390.44946  -3535241.36145  25079676.7164   25079678.4724   25079680.8014
     -3020.5904
 -25496866.09649 -19861369.94347  21116265.5354   21116265.2404   21116267.9214
      2303.1924
 -18878357.95349 -14670575.37848  21480202.2944   21480201.9244   21480205.1784
      1176.6354
 -26117473.15849 -20328697.80248  20412594.7734   20412595.0284   20412596.4894
      -619.3134
 10  1  5  0 24 30.0000000  0 10G12G28G17G05G22G18G08G09G27G15
 -10346065.98147  -8049037.70146  23928479.9624   23928479.7164   23928482.6744
      3574.3224
 -12854228.46448  -9977570.89147  23139194.9884   23139193.6214   23139196.5914
     -2739.5294
 -14485263.91348 -11248460.89847  22748454.6594   22748454.7374   22748456.8454
      1704.7694
  -1507131.60847  -1117170.98746  25112417.9104   25112416.9014   25112420.5784
     -3602.1484
  -4972526.42447  -3651861.02746  24972426.7844   24972424.7804   24972428.3284
      2376.7174
 -14087780.81748 -10968016.35046  22997260.2594   22997260.3554   22997261.1044
       905.4154
  -4459747.58246  -3464610.56145  25096925.8004   25096924.9574   25096929.6984
     -3021.8624
 -25565818.58349 -19915099.14148  21103144.1854   21103144.0804   21103146.5014
      2293.7834
 -18913564.89449 -14698009.35448  21473502.7304   21473502.4554   21473504.8854
      1170.6564
 -26098636.05949 -20314019.54848  20416179.4394   20416179.5314   20416180.9704
      -636.4444
 10  1  5  0 25  0.0000000  0 10G12G28G17G05G22G18G08G09G27G15
 -10453210.51447  -8132526.94446  23908091.1464   23908090.9064   23908092.8604
      3568.0584
 -12771940.36948  -9913450.30047  23154853.6524   23154852.8954   23154854.8524
     -2746.4354
 -14536191.33748 -11288144.59547  22738763.3164   22738763.0214   22738766.2374
      1689.7034
  -1399119.07347  -1033005.42046  25132972.3964   25132973.3154   25132974.8524
     -3599.3914
  -5043635.15647  -3707270.41446  24958895.5364   24958894.5794   24958897.0974
      2363.6954
 -14114668.40248 -10988967.71946  22992144.1454   22992143.1024   22992145.4894
       886.8044
  -5944496.83816  -4621558.04355  25114180.072                    25114185.7064
     -3023.309
 -25634500.06549 -19968617.16648  21090074.5524   21090074.4444   21090076.7094
      2284.6054
 -18948601.09349 -14725310.28548  21466835.6034   21466835.1224   21466837.9604
      1164.7884
 -26079295.08149 -20298948.65948  20419859.8774   20419860.0394   20419861.5764
      -653.4684
 10  1  5  0 25 30.0000000  0 10G12G28G17G05G22G18G08G09G27G15
 -10560176.53247  -8215877.08646  23887736.0844   23887736.7464   23887738.3244
      3562.5364
 -12689440.60748  -9849164.77447  23170553.0134   23170552.5874   23170553.9724
     -2753.6874
 -14586661.49948 -11327471.98747  22729159.0544   22729159.4244   22729161.8344
      1674.4454
  -1291184.93046   -948900.88146  25153511.1804   25153513.8824   25153513.6414
     -3596.0524
  -5114359.23447  -3762380.10846  24945437.7394   24945437.2374   24945439.2294
      2350.8874
 -14141002.53648 -11009487.85247  22987132.5564   22987132.6454   22987134.2724
       868.3874
  -5853793.79816  -4550880.35745  25131440.196                    25131443.6654
     -3024.124
 -25702904.98449 -20021919.69248  21077057.6004   21077057.4764   21077059.6024
      2275.4794
 -18983462.38249 -14752474.92248  21460201.5094   21460201.2794   21460204.0464
      1159.0304
 -26059445.73949 -20283481.64848  20423637.0494   20423637.2504   20423638.6174
      -670.2624
 10  1  5  0 26  0.0000000  0  9G12G28G17G05G22G18G09G27G15
 -10666970.82147  -8299093.39746  23867413.9504   23867413.9374   23867415.9304
      3556.7314
 -12606740.03648  -9784722.77147  23186290.3164   23186290.8934   23186292.0074
     -2760.4904
 -14636680.76048 -11366448.02647  22719640.9144   22719641.4344   22719642.7984
      1659.3174
  -1183340.55446   -864866.29046  25174033.8064   25174033.7074   25174035.8164
     -3593.8224
  -5184705.11347  -3817195.06546  24932051.9284   24932053.3414   24932053.5064
      2338.4944
 -14166790.88548 -11029582.68046  22982226.0154   22982225.3224   22982227.1074
       850.1274
 -25771040.67249 -20075012.42248  21064091.6374   21064091.5354   21064093.8574
      2266.2464
 -19018157.05549 -14779509.73548  21453599.3764   21453599.2804   21453601.6694
      1153.3354
 -26039096.31249 -20267624.96048  20427509.4774   20427509.6924   20427511.1374
      -686.9964
 10  1  5  0 26 30.0000000  0  9G12G28G17G05G22G18G09G27G15
 -10773584.91147  -8382169.30546  23847125.7784   23847125.2574   23847127.6744
      3550.6844
 -12523834.15648  -9720120.78847  23202066.7074   23202066.8104   23202066.6724
     -2766.6694
 -14686240.43248 -11405065.93947  22710209.8004   22710210.1214   22710212.1604
      1644.2804
  -1075581.32046   -780898.07145  25194538.8544   25194540.3474   25194545.5134
     -3590.4754
  -5254663.87747  -3871708.42546  24918739.3814   24918740.4244   24918738.5474
      2325.2474
 -14192026.19548 -11049246.56446  22977423.8224   22977423.4054   22977423.7064
       831.7424
 -25838899.76049 -20127889.61748  21051178.4614   21051178.4554   21051180.7774
      2257.3604
 -19052678.34849 -14806409.44148  21447030.2524   21447029.9584   21447032.8364
      1147.7854
 -26018240.10049 -20251373.37048  20431478.3214   20431478.5194   20431479.7444
      -703.7314
 10  1  5  0 27  0.0000000  0  9G12G28G17G05G22G18G09G27G15
 -10880019.61247  -8465105.41746  23826872.0734   23826871.3314   23826873.6134
      3544.9404
 -12440727.68948  -9655362.50147  23217881.7084   23217881.8384   23217883.5554
     -2773.5954
 -14735341.16248 -11443326.23247  22700866.6974   22700867.1414   22700868.4714
      1629.0904
   -967912.24146   -697000.13945  25215028.1804   25215029.0804   25215032.1034
     -3587.4734
  -5324236.35447  -3925920.73246  24905499.8954   24905499.2424   24905499.5854
      2312.6644
 -14216710.62248 -11068481.19847  22972726.3804   22972726.7934   22972728.6404
       813.8874
 -25906483.96849 -20180552.62948  21038317.8564   21038317.5254   21038319.8114
      2248.2844
 -19087029.16549 -14833176.31248  21440493.4464   21440493.2684   21440496.0724
      1142.2574
 -25996879.88849 -20234729.05748  20435543.0134   20435543.3024   20435544.6574
      -720.2134
 10  1  5  0 27 30.0000000  0  9G12G28G17G05G22G18G09G27G15
 -10986274.83247  -8547901.67546  23806652.5044   23806652.1234   23806654.0044
      3538.4884
 -12357423.83848  -9590450.41247  23233733.8474   23233732.8124   23233734.4984
     -2780.1234
 -14783981.87248 -11481228.07747  22691610.6754   22691610.8284   22691611.9744
      1613.2874
   -860337.53346   -613175.69745  25235499.3874   25235498.3524   25235501.9614
     -3584.2874
  -5393421.71947  -3979831.43646  24892334.9744   24892335.0544   24892335.7274
      2299.1534
 -14240844.46348 -11087286.79747  22968133.3124   22968134.1684   22968134.3074
       794.8954
 -25973793.66249 -20233001.72448  21025509.0374   21025508.9164   21025511.5464
      2238.6394
 -19121210.51249 -14859811.12548  21433989.0664   21433988.6284   21433991.5994
      1136.1634
 -25975016.67449 -20217692.79048  20439703.2764   20439703.7144   20439705.0634
      -737.6074
 10  1  5  0 28  0.0000000  0  9G12G28G17G05G22G18G09G27G15
 -11092345.16447  -8630553.85946  23786467.9294   23786468.2084   23786469.6364
      3532.8984
 -12273921.47148  -9525383.64247  23249623.7944   23249623.0064   23249624.9974
     -2786.6474
 -14832157.10448 -11518767.21147  22682443.2524   22682443.6524   22682445.2324
      1598.3154
   -752856.32846   -529424.14045  25255951.6204   25255953.3724   25255954.7534
     -3580.7174
  -5462214.79747  -4033436.41646  24879242.8774   24879242.2424   24879242.7544
      2286.7104
