     2.11           OBSERVATION DATA    G (GPS)             RINEX VERSION / TYPE
teqc  2009Oct19     administrateur ccgps20100104 16:57:20UTCPGM / RUN BY / DATE
Solaris 5.9|UltraSparc IIe|cc -xarch=v9 SC5.8|=+-|*Sparc    COMMENT
teqc  2009Oct19     administrateur ccgps20100104 13:28:15UTCCOMMENT
teqc  2009Oct19     CNES                20100104 10:02:06UTCCOMMENT
MSXP|IAx86-PII|bcc32 5.0|MSWin95->XP|486/DX+                COMMENT
teqc  2009Oct19                         20100104 10:02:05UTCCOMMENT
BIT 2 OF LLI FLAGS DATA COLLECTED UNDER A/S CONDITION       COMMENT
GRAS                                                        MARKER NAME
10002M006                                                   MARKER NUMBER
CARDALIAGUET        CNES                                    OBSERVER / AGENCY
48002               ASHTECH UZ-12       CN00-1A01           REC # / TYPE / VERS
24222               ASH701945E_M    NONE                    ANT # / TYPE
  4581696.3100   556116.1100  4389366.5900                  APPROX POSITION XYZ
        0.0350        0.0000        0.0000                  ANTENNA: DELTA H/E/N
     1     1                                                WAVELENGTH FACT L1/2
     7    L1    L2    C1    P1    P2    D1    D2            # / TYPES OF OBSERV
    30.0000                                                 INTERVAL
Version: Version:                                           COMMENT
Project: A002_______CNE_____________                        COMMENT
 SNR is mapped to RINEX snr flag value [0-9]                COMMENT
  L1 & L2: min(max(int(snr_dBHz/6), 0), 9)                  COMMENT
pseudorange smoothing corrections not applied               COMMENT
Forced Modulo Decimation to 30 seconds                      COMMENT
  2010     1     2     0     0    0.0000000     GPS         TIME OF FIRST OBS
                                                            END OF HEADER
 10  1  2  0  0  0.0000000  0  9G05G08G28G09G27G18G10G15G17
  -6814484.19448  -5300680.32647  23588297.0434   23588297.1604   23588299.2674
     -3554.1314
 -11736220.26847  -9131203.58446  23857004.2164   23857002.1194   23857007.6394
     -2909.0774
 -18265421.69548 -14197132.83947  22122001.9324   22122001.9054   22122003.6464
     -2035.9134
 -16675788.72748 -12974773.76847  22200759.7174   22200758.0324   22200761.3684
      2879.1164
 -16390854.59848 -12732948.09747  22052319.4484   22052319.0224   22052321.8034
      1590.1114
  -9717743.89247  -7376043.47346  23647003.4704   23647003.0984   23647003.6784
      2141.4854
   -978582.80347   -704353.91346  24819144.0844   24819142.7194   24819146.4484
     -3710.0814
 -26562975.23949 -20689286.58448  20401761.7214   20401761.9254   20401763.3594
       545.4234
  -8263008.79147  -6395207.55347  23661298.3954   23661298.1934   23661300.2544
      2574.0104
 10  1  2  0  0 30.0000000  0  9G05G08G28G09G27G18G10G15G17
  -6707793.33947  -5217544.59247  23608599.9864   23608600.0484   23608601.6264
     -3558.7734
 -11648900.11147  -9063161.91346  23873620.5274   23873621.1814   23873623.0474
     -2912.1284
 -18204152.62848 -14149390.70247  22133661.4664   22133661.1224   22133662.7914
     -2048.7064
 -16762049.94348 -13041990.28347  22184344.4504   22184343.9474   22184346.3284
      2871.7254
 -16438457.91348 -12770041.57847  22043261.0334   22043260.3194   22043263.5194
      1583.4224
  -9781759.98847  -7425926.16246  23634821.9194   23634822.0354   23634822.6384
      2126.0244
   -867289.57247   -617631.93746  24840323.1904   24840322.0744   24840325.0424
     -3709.5754
 -26579102.54449 -20701853.32148  20398692.7294   20398692.9974   20398694.5054
       529.6754
  -8340088.71147  -6455269.81547  23646629.8874   23646630.2954   23646632.4864
      2565.1674
 10  1  2  0  1  0.0000000  0  9G05G08G28G09G27G18G10G15G17
  -6600982.40747  -5134315.29847  23628924.7994   23628925.5044   23628927.7454
     -3562.2224
 -11561513.25747  -8995068.27746  23890249.6394   23890250.2094   23890252.5054
     -2914.0124
 -18142521.96548 -14101366.80547  22145389.2154   22145389.0804   22145390.4024
     -2060.2894
 -16848106.62848 -13109047.41947  22167968.4554   22167967.4854   22167970.4684
      2865.2104
 -16485888.19348 -12807000.23247  22034235.2804   22034235.3854   22034237.5494
      1578.2364
  -9845332.55847  -7475463.21546  23622723.9104   23622722.4104   23622725.6984
      2111.6654
   -756027.52347   -530934.24846  24861494.9214   24861494.3094   24861497.5024
     -3707.9514
 -26594778.84649 -20714068.62748  20395709.6474   20395709.8124   20395711.4504
       515.1144
  -8416911.60248  -6515131.80447  23632011.3764   23632011.8824   23632012.8694
      2556.6514
 10  1  2  0  1 30.0000000  0 10G05G08G28G12G09G27G18G10G15G17
  -6494053.94747  -5050994.42647  23649272.9144   23649272.9374   23649275.7254
     -3566.5714
 -11474059.79447  -8926922.74546  23906891.0524   23906890.8634   23906894.5234
     -2916.6324
 -18080531.25248 -14053062.34947  22157185.9424   22157185.1024   22157187.4014
     -2072.9774
  -2070867.55646  -1557789.69046  25414007.5284   25414007.2634   25414010.0394
      3821.2504
 -16933957.64448 -13175944.29047  22151631.8064   22151631.4054   22151633.1124
      2857.6584
 -16533144.97648 -12843823.69247  22025242.6704   22025241.9554   22025245.3644
      1571.6274
  -9908458.69747  -7524652.43546  23610713.0924   23610711.8634   23610713.0324
      2096.1774
   -644799.54247   -444263.12546  24882661.4574   24882660.8174   24882664.1714
     -3707.5754
 -26610002.45049 -20725931.18148  20392812.7224   20392812.9774   20392814.5634
       499.2434
  -8493473.97148  -6574790.79547  23617442.1324   23617442.4324   23617443.5964
      2547.0764
 10  1  2  0  2  0.0000000  0 10G05G08G28G12G09G27G18G10G15G17
  -6387008.13947  -4967582.12047  23669642.5454   23669643.1214   23669645.5034
     -3570.3524
 -11386537.49347  -8858723.57346  23923546.4544   23923545.9194   23923548.8804
     -2918.7044
 -18018179.75348 -14004476.77047  22169050.9524   22169050.4044   22169052.6814
     -2084.5384
  -2185499.78246  -1647113.46745  25392193.7394   25392193.6134   25392196.0824
      3820.3854
 -17019599.41748 -13242678.11947  22135334.1664   22135334.4094   22135336.8234
      2850.9784
 -16580225.91048 -12880510.13347  22016283.1644   22016283.2284   22016286.0454
      1566.3824
  -9971134.03447  -7573490.36646  23598786.2144   23598785.6254   23598786.3484
      2081.5404
   -533604.98447   -357618.03746  24903820.7924   24903819.5694   24903824.1294
     -3706.2524
 -26624769.86949 -20737438.26848  20390002.6804   20390002.8604   20390004.1954
       484.5224
  -8569769.98548  -6634242.22347  23602923.3864   23602924.0214   23602925.7264
      2538.6754
 10  1  2  0  2 30.0000000  0 10G05G08G28G12G09G27G18G10G15G17
  -6279852.66547  -4884084.35247  23690033.9924   23690034.3154   23690035.3764
     -3573.7834
 -11298952.24947  -8790475.34146  23940213.1204   23940212.2354   23940216.6204
     -2920.5664
 -17955474.85348 -13955615.81047  22180983.3544   22180983.0504   22180984.5854
     -2096.1294
  -2300094.65255  -1736408.10655  25370386.6374   25370387.5874   25370389.2824
      3819.0474
 -17105036.09548 -13309252.14347  22119076.3424   22119075.9134   22119078.0624
      2844.5924
 -16627136.16848 -12917063.57847  22007356.3484   22007356.1024   22007359.1204
      1560.8814
 -10033361.24347  -7621979.11646  23586942.8884   23586942.8664   23586945.0364
      2066.7534
   -422451.33846   -271004.81046  24924972.4294   24924972.8984   24924976.2754
     -3704.5534
 -26639084.45049 -20748592.49748  20387278.7304   20387278.8414   20387280.3504
       469.5974
  -8645801.75048  -6693487.74347  23588454.7874   23588455.6204   23588456.8294
      2529.5984
 10  1  2  0  3  0.0000000  0 10G05G08G28G12G09G27G18G10G15G17
  -6172589.40747  -4800502.59746  23710445.6934   23710445.8194   23710447.3254
     -3576.9044
 -11211303.91347  -8722177.95846  23956892.3504   23956892.4114   23956894.8054
     -2922.7254
 -17892417.51848 -13906480.22247  22192982.7674   22192982.3224   22192983.7434
     -2107.5254
  -2414649.14146  -1825671.21145  25348588.0864   25348589.8564   25348591.9524
      3817.6314
 -17190265.83948 -13375664.91147  22102857.9704   22102857.3314   22102860.5164
      2837.7104
 -16673874.76048 -12953483.25447  21998462.5104   21998461.9024   21998465.3384
      1555.2864
 -10095137.42347  -7670116.40046  23575188.7474   23575188.8474   23575189.6324
      2051.7514
   -311340.12646   -184424.66946  24946116.0264   24946115.1044   24946120.1964
     -3702.6284
 -26652944.24149 -20759392.33548  20384641.1404   20384641.5194   20384642.6734
       454.5954
  -8721565.39348  -6752524.34047  23574037.5864   23574038.2224   23574038.5724
      2521.2194
 10  1  2  0  3 30.0000000  0 10G05G08G28G12G09G27G18G10G15G17
  -6065216.31247  -4716835.24546  23730877.4414   23730877.4214   23730879.1874
     -3580.8464
 -11123587.59647  -8653827.59746  23973584.1674   23973583.0564   23973586.5364
     -2925.0644
 -17829004.17948 -13857067.23247  22205049.7424   22205049.4724   22205051.0934
     -2119.7564
  -2529156.01446  -1914897.33845  25326797.4104   25326797.5494   25326799.6364
      3816.5524
 -17275282.17048 -13441911.38447  22086679.6654   22086679.8164   22086681.9544
      2830.2374
 -16720436.38848 -12989765.03947  21989602.0194   21989602.0684   21989604.5274
      1549.0364
 -10156455.83747  -7717896.99646  23563519.7644   23563519.5204   23563520.3354
      2036.1144
   -200268.32347    -97875.26146  24967252.8384   24967251.4384   24967254.6174
     -3701.8784
 -26666342.97449 -20769832.91248  20382091.4874   20382091.5554   20382093.0794
       438.8544
  -8797052.57248  -6811345.51547  23559672.8964   23559672.9394   23559675.9894
      2511.4144
 10  1  2  0  4  0.0000000  0 10G05G08G28G12G09G27G18G10G15G17
  -5957744.20947  -4633090.74846  23751328.7484   23751329.5744   23751330.4004
     -3583.4984
 -11035812.21147  -8585431.22446  23990286.6704   23990286.8284   23990290.3294
     -2926.3624
 -17765245.35348 -13807385.02147  22217182.6404   22217182.1334   22217183.9914
     -2130.8114
  -2643621.56546  -2004091.22845  25305015.2564   25305016.7044   25305019.1614
      3815.3194
 -17360092.69048 -13507997.47147  22070540.2984   22070539.6454   22070543.2394
      2823.9174
 -16766829.30648 -13025915.36147  21980773.7864   21980773.8014   21980777.1434
      1543.9794
 -10217322.29247  -7765325.40546  23551937.1354   23551937.2484   23551938.1864
      2021.5814
    -89246.67347    -11364.90146  24988379.4654   24988377.5974   24988382.3494
     -3699.0854
 -26679287.41049 -20779919.49048  20379628.3684   20379628.4214   20379629.9324
       424.2424
  -8872268.73748  -6869955.50747  23545359.7264   23545360.0974   23545362.2684
      2503.0034
 10  1  2  0  4 30.0000000  0 10G05G08G28G12G09G27G18G10G15G17
  -5850169.08847  -4549265.98546  23771799.7524   23771799.8824   23771802.5384
     -3587.4994
 -10947971.42747  -8516983.88646  24007002.2724   24007002.6094   24007006.8824
     -2929.2134
 -17701136.33148 -13757429.94047  22229382.0174   22229381.6874   22229383.5854
     -2142.7424
  -2758037.02946  -2093246.16845  25283242.5254   25283240.6194   25283244.0084
      3813.6754
 -17444689.55148 -13573917.08447  22054442.5734   22054442.0974   22054445.5054
      2816.4504
 -16813046.74348 -13061928.94647  21971978.8954   21971978.7884   21971981.3804
      1537.7294
 -10277728.03947  -7812394.80946  23540442.1534   23540441.4604   23540442.6744
      2005.9424
     21728.95847     75109.58246  25009497.5594   25009497.1374   25009500.1954
     -3697.9844
 -26691769.58749 -20789645.87348  20377253.1204   20377253.2044   20377254.5144
       408.4664
  -8947204.05548  -6928346.66347  23531100.1224   23531100.1484   23531101.8584
      2493.2624
 10  1  2  0  5  0.0000000  0 10G05G08G28G12G09G27G18G10G15G17
  -5742500.94047  -4465368.73346  23792288.0414   23792288.6304   23792291.3984
     -3590.6774
 -10860072.98247  -8448491.59946  24023729.3194   24023728.3304   24023732.1154
     -2931.1424
 -17636685.96148 -13707208.86147  22241646.6564   22241646.1644   22241647.7434
     -2154.1164
  -2872407.51346  -2182366.04045  25261479.9264   25261480.3074   25261479.1694
      3811.0384
 -17529078.92348 -13639675.01047  22038383.2074   22038383.0784   22038386.3224
      2809.3694
 -16859095.82448 -13097811.33947  21963216.1184   21963215.8584   21963218.3144
      1532.1004
 -10337677.83947  -7859108.96146  23529035.3204   23529033.6864   23529033.7754
      1990.6674
    132649.35847    161541.04146  25030605.3354   25030604.3314   25030606.9294
     -3696.7184
 -26703795.48549 -20799016.71048  20374964.4884   20374964.6904   20374966.2024
       393.0634
  -9021862.63648  -6986522.17247  23516892.9864   23516893.1004   23516895.0334
      2483.9054
 10  1  2  0  5 30.0000000  0 10G05G08G28G12G09G27G18G10G15G17
  -5634736.91247  -4381396.76546  23812795.1474   23812795.7304   23812797.0724
     -3594.0174
 -10772111.91247  -8379950.52046  24040467.6224   24040467.0524   24040471.2534
     -2933.2094
 -17571890.59548 -13656718.96447  22253976.9524   22253976.5874   22253977.8924
     -2165.8964
  -2986725.01446  -2271444.53945  25239725.2854   25239727.8824   25239727.5344
      3809.7084
 -17613254.35648 -13705266.23347  22022365.6414   22022365.2004   22022367.6274
      2801.8314
 -16904970.80048 -13133558.07347  21954486.4804   21954486.1694   21954488.7784
      1526.0154
 -10397164.52347  -7905462.21146  23517714.2754   23517715.9024   23517715.9874
      1975.0054
    243518.07647    247932.25946  25051702.5124   25051701.0844   25051704.5474
     -3695.2914
 -26715358.15749 -20808026.59448  20372764.2364   20372764.5284   20372765.9184
       377.3964
  -9096235.67948  -7044475.19247  23502740.4184   23502740.5934   23502743.2074
      2473.9154
 10  1  2  0  6  0.0000000  0 10G05G08G28G12G09G27G18G10G15G17
  -5526880.70647  -4297352.96346  23833319.7864   23833320.2084   23833321.4944
     -3596.9364
 -10684089.63847  -8311361.76546  24057218.0514   24057216.6764   24057220.7884
     -2935.4504
 -17506753.24148 -13605962.58747  22266372.0164   22266371.8434   22266372.8714
     -2176.9394
  -3100988.41146  -2360480.92446  25217982.3014   25217982.3674   25217986.8644
      3808.0504
 -17697215.65148 -13770690.60847  22006388.0784   22006387.9344   22006390.5184
      2795.0414
 -16950672.69448 -13169169.93747  21945789.2264   21945788.8414   21945791.4944
      1520.3344
 -10456186.79147  -7951453.59146  23506482.2574   23506483.0944   23506485.6774
      1959.5764
    354332.12247    334280.83146  25072789.4624   25072789.2634   25072792.3634
     -3693.2324
 -26726457.48949 -20816675.43048  20370652.1564   20370652.3064   20370653.8664
       362.0824
  -9170320.93448  -7102203.95947  23488642.5164   23488641.9734   23488644.5004
      2464.5074
 10  1  2  0  6 30.0000000  0 10G05G08G28G12G09G27G18G10G15G17
  -5418936.66947  -4213240.73046  23853860.7164   23853860.9524   23853863.5154
     -3599.7624
 -10596008.23947  -8242726.93046  24073978.8564   24073978.7534   24073981.2284
     -2937.5754
 -17441277.57848 -13554942.58847  22278831.8834   22278831.4764   22278832.4134
     -2188.3934
  -3215197.62247  -2449475.07346  25196248.4234   25196248.6184   25196250.0964
      3805.3984
 -17780963.36948 -13835948.55047  21990451.3574   21990451.4124   21990454.2034
      2787.9034
 -16996203.19648 -13204648.24247  21937125.3774   21937125.4054   21937128.2794
      1514.4524
 -10514744.49547  -7997082.96646  23495339.4714   23495338.4424   23495340.5634
      1943.7904
    465086.93947    420583.27546  25093865.6804   25093865.0374   25093868.7114
     -3691.4404
 -26737093.75449 -20824963.43348  20368628.0314   20368628.3734   20368629.8984
       346.4434
  -9244117.12248  -7159707.47547  23474599.3784   23474599.5344   23474602.4004
      2454.5464
 10  1  2  0  7  0.0000000  0 10G05G08G28G12G09G27G18G10G15G17
  -5310908.73447  -4129063.12046  23874417.7104   23874417.9444   23874420.3744
     -3602.5174
 -10507869.95847  -8174047.76646  24090751.5084   24090751.0784   24090754.7704
     -2938.8904
 -17375466.67748 -13503661.37147  22291355.0404   22291354.7074   22291355.7434
     -2199.4624
  -3329351.75947  -2538426.37645  25174525.9824   25174526.3984   25174525.9804
      3803.5804
 -17864498.03448 -13901040.48247  21974555.7254   21974554.7914   21974558.2684
      2780.7414
 -17041563.61448 -13239994.01447  21928493.3674   21928493.0214   21928496.3534
      1509.0544
 -10572836.76147  -8042349.66746  23484285.0884   23484284.8784   23484285.4144
      1928.4484
    575778.65547    506836.55346  25114929.3674   25114928.5014   25114932.4934
     -3688.5684
 -26747267.37649 -20832890.93548  20366692.1524   20366692.2944   20366693.8944
       331.1504
  -9317622.93248  -7216984.72647  23460611.4064   23460610.9534   23460614.3134
      2445.2954
 10  1  2  0  7 30.0000000  0 10G05G08G28G12G09G27G18G10G15G17
  -5202795.75847  -4044819.23946  23894990.6924   23894991.3164   23894993.0504
     -3605.5574
 -10419670.92247  -8105321.26046  24107534.8974   24107534.6804   24107537.7274
     -2941.4474
 -17309319.13948 -13452117.82647  22303942.4724   22303941.1404   22303943.9644
     -2211.0044
  -3443444.94447  -2627330.15145  25152814.8394   25152813.4984   25152817.2684
      3801.3964
 -17947814.82248 -13965962.64147  21958700.8794   21958700.7364   21958703.2284
      2773.1594
 -17086750.32848 -13275204.43547  21919894.8934   21919894.2154   21919897.0124
      1502.8154
 -10630457.99747  -8087249.33746  23473320.2784   23473320.3074   23473322.2454
      1912.3284
    686409.16947    593042.14746  25135981.8594   25135980.8904   25135984.5314
     -3687.2464
 -26756973.19749 -20840453.92248  20364845.2824   20364845.4294   20364846.7844
       315.2264
  -9390831.57348  -7274030.41847  23446680.6454   23446681.3594   23446682.7044
      2434.8364
 10  1  2  0  8  0.0000000  0 10G05G08G28G12G09G27G18G10G15G17
  -5094603.44747  -3960513.54446  23915579.4084   23915580.1354   23915582.1014
     -3608.3814
 -10331414.80047  -8036550.28346  24124329.5084   24124328.9884   24124332.8594
     -2943.2864
 -17242839.24248 -13400315.30647  22316593.2404   22316592.6184   22316594.6314
     -2222.1704
  -3557477.34447  -2716186.71145  25131114.6184   25131114.2524   25131117.1484
      3799.5534
 -18030914.85448 -14030715.89447  21942887.1714   21942886.7004   21942890.0824
      2765.8724
 -17131765.52748 -13310281.20847  21911328.5154   21911328.3894   21911331.1504
      1497.0914
 -10687608.83147  -8131782.44546  23462445.3354   23462444.7914   23462446.5544
      1896.5054
    796973.99247    679196.55646  25157021.9554   25157020.8694   25157025.1434
     -3685.2524
 -26766212.81449 -20847653.62948  20363086.9794   20363087.1374   20363088.7424
       299.6054
  -9463742.39848  -7330844.04747  23432805.9084   23432806.5474   23432807.8224
      2424.8024
 10  1  2  0  8 30.0000000  0 10G05G08G28G12G09G27G18G10G15G17
  -4986333.01847  -3876146.96346  23936182.9334   23936183.2094   23936185.2434
     -3610.4054
 -10243100.22747  -7967733.75646  24141135.4174   24141134.8174   24141139.3604
     -2944.9454
 -17176027.19548 -13348253.97047  22329307.0594   22329306.8414   22329308.3084
     -2232.8314
  -3671445.73847  -2804993.24146  25109427.6454   25109428.1094   25109430.4184
      3797.4334
 -18113795.59448 -14095298.27647  21927115.7164   21927114.9404   21927118.8064
      2758.7244
 -17176607.62248 -13345223.09047  21902795.4594   21902795.3774   21902798.0944
      1491.6904
 -10744285.55847  -8175946.13346  23451658.7244   23451658.4794   23451660.4234
      1881.0094
    907471.79247    765298.73046  25178049.3564   25178047.4554   25178052.6204
     -3682.4094
 -26774983.13449 -20854487.65348  20361418.0394   20361418.3054   20361419.6584
       284.2394
  -9536350.58048  -7387421.84447  23418989.3004   23418989.2964   23418991.4894
      2415.0634
 10  1  2  0  9  0.0000000  0 10G05G08G28G12G09G27G18G10G15G17
  -4877989.88447  -3791723.73746  23956799.4334   23956800.7214   23956801.7354
     -3612.7524
 -10154730.64047  -7898874.35846  24157951.6514   24157951.9534   24157954.3174
     -2946.7004
 -17108888.06848 -13295937.76547  22342083.5464   22342083.0044   22342084.9624
     -2243.5304
  -3785350.78647  -2893750.40146  25087751.9444   25087751.9374   25087753.8824
      3795.6234
 -18196459.18448 -14159711.44847  21911385.0054   21911384.9394   21911387.7194
      2751.6974
 -17221279.56548 -13380032.38747  21894294.7684   21894294.4064   21894297.0944
      1486.0724
 -10800489.24347  -8219741.20446  23440965.0414   23440964.3844   23440964.5604
      1865.4004
   1017897.51747    851344.74446  25199061.9614   25199062.2174   25199064.5514
     -3679.4724
 -26783286.13949 -20860957.53348  20359837.9934   20359838.1944   20359839.6664
       268.8114
  -9608656.49048  -7443764.10447  23405229.6084   23405228.8934   23405232.5734
      2405.0044
 10  1  2  0  9 30.0000000  0 10G05G08G28G12G09G27G18G10G15G17
  -4769575.03147  -3707244.62946  23977430.0874   23977430.8864   23977431.7114
     -3615.6384
 -10066304.85647  -7829971.18246  24174778.6884   24174778.0834   24174781.7544
     -2948.9984
 -17041422.09948 -13243366.87247  22354921.5414   22354921.4644   22354923.1974
     -2254.9024
  -3899188.52847  -2982455.14646  25066089.7494   25066090.1184   25066091.2524
      3792.8964
 -18278903.05548 -14223953.41147  21895696.6854   21895696.6614   21895698.7564
      2743.8894
 -17265779.74748 -13414707.84447  21885826.5274   21885826.0974   21885828.9444
      1479.7624
 -10856216.14047  -8263164.76346  23430359.3424   23430358.7884   23430360.9774
      1848.8994
   1128250.73047    937334.28446  25220062.0774   25220060.3734   25220065.5854
     -3678.0594
 -26791119.02849 -20867061.08848  20358347.4424   20358347.6414   20358349.0774
       252.6104
  -9680655.20047  -7499866.98847  23391528.7854   23391528.2844   23391530.7894
      2394.0424
 10  1  2  0 10  0.0000000  0 10G05G08G28G12G09G27G18G10G15G17
  -4661091.78247  -3622712.23146  23998074.3594   23998074.9144   23998076.5414
     -3617.2434
  -9977823.51447  -7761024.71446  24191615.8264   24191615.1024   24191618.6274
     -2950.1664
 -16973631.75148 -13190543.21847  22367821.8754   22367821.7934   22367823.2014
     -2265.2014
  -4012957.56147  -3071106.33746  25044440.1224   25044439.8394   25044442.5324
      3791.0944
 -18361126.83448 -14288023.88347  21880049.7974   21880050.0234   21880053.2664
      2737.1044
 -17310108.73548 -13449249.90047  21877391.0544   21877390.6754   21877394.0514
      1474.8074
 -10911465.11147  -8306215.90546  23419846.1444   23419845.7864   23419848.5334
      1833.6284
   1238528.52647   1023265.01545  25241047.2114   25241046.9874   25241048.9014
     -3674.7154
 -26798481.34549 -20872797.96348  20356946.5254   20356946.8314   20356948.0774
       237.6044
  -9752344.36648  -7555728.66647  23377886.8044   23377887.2744   23377889.2384
      2384.3794
 10  1  2  0 10 30.0000000  0 10G05G08G28G12G09G27G18G10G15G17
  -4552543.02947  -3538128.78846  24018730.2244   24018730.7934   24018732.7544
     -3619.2064
  -9889287.87547  -7692035.92346  24208463.9834   24208463.1644   24208467.1914
     -2952.2814
 -16905519.38048 -13137468.64247  22380783.0014   22380782.5334   22380784.4524
     -2275.7714
  -4126656.20547  -3159702.68346  25022804.0004   25022803.0914   25022805.6204
      3788.9024
 -18443129.65848 -14351922.18547  21864445.5064   21864445.0434   21864448.1144
      2730.1314
 -17354266.48548 -13483658.52147  21868988.0904   21868987.6244   21868990.9914
      1469.2384
 -10966234.64947  -8348893.45946  23409423.6564   23409423.8204   23409424.6544
      1817.6944
   1348728.17547   1109134.90345  25262017.8194   25262015.4764   25262020.9524
     -3672.1424
 -26805372.07649 -20878167.37348  20355635.1164   20355635.4734   20355636.8264
       221.8554
  -9823721.18748  -7611346.96647  23364304.4184   23364304.6994   23364305.9474
      2374.0234
 10  1  2  0 11  0.0000000  0 10G05G08G28G12G09G27G18G10G15G17
  -4443929.43547  -3453494.81846  24039398.3564   24039398.8814   24039401.8384
     -3621.6414
  -9800696.12947  -7623003.42746  24225322.1704   24225322.0284   24225325.3374
     -2953.9774
 -16837085.08348 -13084143.21347  22393806.0184   22393805.3784   22393807.3854
     -2286.4054
  -4240280.02147  -3248240.72246  25001182.2314   25001182.2334   25001184.5474
      3786.4364
 -18524908.26548 -14415645.76447  21848883.3494   21848882.8734   21848885.0514
      2722.4934
 -17398251.02348 -13517932.17747  21860618.0384   21860618.0044   21860620.6634
      1463.3994
 -11020520.50447  -8391194.13946  23399093.9314   23399093.9504   23399095.3814
      1801.4514
   1458849.69647   1194943.89745  25282972.1214   25282972.9534   25282974.9894
     -3669.4684
 -26811788.02449 -20883166.82248  20354414.3844   20354414.6414   20354415.9784
       206.0594
  -9894780.44148  -7666717.80747  23350782.0884   23350781.9944   23350784.1674
      2363.5624
 10  1  2  0 11 30.0000000  0 10G05G08G28G12G09G27G18G10G15G17
  -4335256.90647  -3368814.94347  24060078.7074   24060079.1174   24060080.3234
     -3623.4124
  -9712051.82847  -7553929.98646  24242190.9334   24242189.3734   24242193.8394
     -2955.8594
 -16768333.80548 -13030570.78647  22406888.6504   22406887.9514   22406889.9364
     -2297.0624
  -4353830.29147  -3336721.43246  24979573.8034   24979574.1304   24979575.9084
      3783.5164
 -18606464.59448 -14479196.13847  21833363.6074   21833363.3734   21833366.4644
      2714.9234
 -17442065.39048 -13552073.23047  21852280.4144   21852279.9674   21852283.7354
      1457.5374
 -11074323.96447  -8433118.92446  23388855.9924   23388854.8554   23388856.2754
      1785.3604
   1568887.91147   1280687.98945  25303912.3604   25303912.6024   25303915.4414
     -3666.6344
 -26817731.27949 -20887797.93648  20353283.3574   20353283.6334   20353284.9394
       190.1174
  -9965522.53148  -7721841.51247  23337320.4994   23337320.9564   23337323.5394
      2352.6744
 10  1  2  0 12  0.0000000  0 10G05G08G28G12G09G27G18G10G15G17
  -4226528.14147  -3284091.23447  24080769.1324   24080769.2064   24080771.0644
     -3625.4354
  -9623355.89047  -7484816.30646  24259069.0324   24259068.9354   24259071.7244
     -2957.7424
 -16699267.53748 -12976752.91447  22420031.6194   22420031.0394   22420032.9834
     -2307.8764
  -4467304.72847  -3425143.02646  24957980.4964   24957980.9144   24957983.9104
      3780.7924
 -18687797.52348 -14542572.43347  21817886.4724   21817886.0084   21817888.5604
      2706.8864
 -17485709.67048 -13586081.74847  21843975.1264   21843974.7434   21843977.9244
      1451.5614
 -11127643.21647  -8474666.37546  23378708.7004   23378707.5554   23378711.8064
      1768.8134
   1678840.44746   1366365.25945  25324835.9224   25324834.6184   25324835.4264
     -3663.7294
 -26823200.70649 -20892059.83348  20352242.5464   20352242.8804   20352244.2654
       174.0434
 -10035944.32148  -7776715.62647  23323919.6084   23323919.3304   23323921.6004
      2341.7664
 10  1  2  0 12 30.0000000  0 10G05G08G28G12G09G27G18G10G15G17
  -4117745.29147  -3199325.38347  24101469.4734   24101470.0784   24101472.6454
     -3626.8614
  -9534607.87047  -7415662.01246  24275957.1654   24275957.6534   24275959.4094
     -2959.1874
 -16629887.69848 -12922690.69247  22433234.0834   22433233.4014   22433235.0314
     -2317.9124
  -4580700.82547  -3513503.60146  24936402.3374   24936402.2874   24936403.7754
      3778.6514
 -18768905.97548 -14605773.81447  21802451.9624   21802452.0194   21802453.9794
      2699.8674
 -17529183.51148 -13619957.45447  21835702.6114   21835702.4144   21835704.9314
      1446.3374
 -11180476.08047  -8515834.83546  23368654.5734   23368654.2744   23368656.1304
      1752.8604
   1788705.42946   1451974.43345  25345741.3944   25345740.3664   25345746.5314
     -3660.6754
 -26828195.05949 -20895951.54248  20351292.1854   20351292.3504   20351293.7744
       158.6154
 -10106042.82448  -7831337.82647  23310580.4274   23310579.5174   23310582.7564
      2331.1744
 10  1  2  0 13  0.0000000  0 10G05G08G28G12G09G27G18G10G15G17
  -4008907.45747  -3114516.69246  24122180.8134   24122180.9094   24122183.4204
     -3628.6564
  -9445804.74647  -7346464.78846  24292855.9064   24292855.5624   24292859.6104
     -2960.7304
 -16560192.64848 -12868382.86147  22446496.4634   22446496.3804   22446497.5674
     -2328.3264
  -4694012.39447  -3601798.33546  24914840.0434   24914840.0974   24914841.8664
      3775.5264
 -18849785.07948 -14668796.48447  21787061.5524   21787060.8434   21787063.9454
      2692.4064
 -17572483.03148 -13653697.33347  21827462.9354   21827462.5914   21827465.2904
      1440.6554
 -11232817.13347  -8556620.05946  23358695.1794   23358694.0994   23358696.0404
      1736.6804
   1898484.38746   1537516.44145  25366631.4734   25366631.6054   25366636.7994
     -3657.7424
 -26832709.19349 -20899469.05648  20350433.2174   20350433.5194   20350434.6464
       142.5904
 -10175810.88148  -7885702.53547  23297304.1074   23297305.0214   23297306.0294
      2320.4444
 10  1  2  0 13 30.0000000  0 10G05G08G28G12G09G27G18G10G15G17
  -3900025.76047  -3029673.81946  24142900.6694   24142901.6284   24142902.5284
     -3630.4194
  -9356954.82547  -7277231.08746  24309763.1654   24309762.7544   24309767.1604
     -2962.5214
 -16490192.78248 -12813837.51547  22459816.9384   22459816.2654   22459819.1094
     -2338.5634
  -4807246.57546  -3690032.69746  24893290.8174   24893291.0794   24893293.8634
      3772.4474
 -18930442.19948 -14731646.17947  21771712.8064   21771712.1094   21771715.2494
      2684.5914
 -17615616.47648 -13687307.79947  21819254.8814   21819254.5154   21819257.5444
      1434.7704
 -11284672.79947  -8597027.06546  23348827.4644   23348827.1244   23348827.8404
      1720.1174
   2008166.31545   1622982.85745  25387502.5574   25387502.5344   25387506.7134
     -3654.3714
 -26836750.76949 -20902618.34648  20349664.1014   20349664.3804   20349665.8344
       126.5794
 -10245254.14348  -7939814.17047  23284089.0674   23284088.0124   23284091.9034
      2309.0584
 10  1  2  0 14  0.0000000  0 10G05G08G28G12G09G27G18G10G15G17
  -3791093.32147  -2944791.41846  24163629.3044   24163629.9034   24163631.6274
     -3631.5934
  -9268049.40047  -7207954.15946  24326681.2114   24326680.7334   24326684.3434
     -2963.9574
 -16419880.34448 -12759048.60947  22473196.7134   22473196.4474   22473198.2534
     -2348.6714
  -4920391.26546  -3778197.29146  24871761.2124   24871760.7654   24871763.1814
      3770.5554
 -19010866.78348 -14794314.67947  21756408.6674   21756407.8354   21756410.6374
      2677.0984
 -17658574.21348 -13720781.35547  21811079.9834   21811079.9464   21811082.9464
      1429.3554
 -11336031.46247  -8637046.81146  23339054.2224   23339053.4814   23339055.4314
      1703.9604
   3693179.37346   2935980.03445  25408359.5694   25408357.2094   25408364.5534
     -3651.3054
 -26840309.12549 -20905391.10348  20348987.1004   20348987.2154   20348988.6434
       110.8724
 -10314360.10848  -7993662.96347  23270938.9574   23270937.8724   23270941.1664
      2297.9864
 10  1  2  0 14 30.0000000  0 10G05G08G28G12G09G27G18G10G15G17
  -3682121.40547  -2859878.26046  24184365.4364   24184365.5384   24184368.2924
     -3632.8564
  -9179097.87047  -7138641.29846  24343608.3904   24343606.6994   24343611.1234
     -2965.6724
 -16349266.41648 -12704024.77347  22486634.3004   22486634.1504   22486635.3874
     -2358.5994
  -5033452.93046  -3866297.27246  24850246.6244   24850245.5784   24850248.8674
      3767.2934
 -19091066.98148 -14856808.32747  21741146.8104   21741146.2314   21741148.7884
      2669.6584
 -17701364.96048 -13754124.78547  21802937.2864   21802937.0934   21802939.6744
      1423.6664
 -11386900.59547  -8676685.09446  23329373.8514   23329372.8904   23329374.5874
      1687.6184
   3802671.86156   3021298.85155  25429195.5554   25429191.7224   25429198.7614
     -3647.6254
 -26843391.91149 -20907793.28148  20348400.4394   20348400.4204   20348402.1294
        94.8714
 -10383134.78248  -8047253.60847  23257851.4014   23257851.7034   23257852.9814
      2286.8954
 10  1  2  0 15  0.0000000  0 10G05G08G28G12G09G27G18G10G15G17
  -3573108.20047  -2774932.91846  24205110.4164   24205110.5554   24205113.6124
     -3634.5844
  -9090095.65647  -7069288.95046  24360545.1784   24360545.2044   24360547.0654
     -2967.7934
 -16278348.07248 -12648763.73047  22500129.7714   22500129.3084   22500131.4094
     -2369.1534
  -5146425.03246  -3954327.45046  24828748.5434   24828748.3734   24828751.5694
      3763.4974
 -19171036.43448 -14919122.16947  21725929.0864   21725928.5764   21725932.3344
      2661.7194
 -17743983.87148 -13787334.32247  21794827.3354   21794827.2214   21794829.9714
      1417.7304
 -11437273.33447  -8715936.58546  23319788.8354   23319787.7974   23319789.9774
      1670.7324
   3912066.55846   3106541.40545  25450011.2894   25450011.0994   25450016.0244
     -3644.6574
 -26845993.29049 -20909820.34048  20347905.4004   20347905.6124   20347907.0034
        78.5294
 -10451570.30348  -8100579.99547  23244828.6384   23244829.0854   23244831.2954
      2275.3344
 10  1  2  0 15 30.0000000  0 10G05G08G28G12G09G27G18G10G15G17
  -3464056.21647  -2689957.35646  24225861.6414   24225861.8204   24225864.6514
     -3636.4164
  -9001043.52147  -6999897.68346  24377491.0794   24377491.0744   24377495.2494
     -2969.6124
 -16207127.22048 -12593266.96147  22513682.5584   22513682.0404   22513683.7544
     -2379.3484
  -5259305.27946  -4042286.01646  24807267.9994   24807267.5464   24807269.6794
      3760.5914
 -19250774.05848 -14981255.37447  21710755.3974   21710755.4824   21710757.6554
      2653.5394
 -17786430.88148 -13820409.90247  21786749.8944   21786749.5194   21786752.8214
      1411.4694
 -11487148.19447  -8754800.09246  23310297.2454   23310297.1704   23310297.9554
      1653.6474
   4021361.48345   3191706.26245  25470809.6044   25470807.5274   25470811.3834
     -3641.4684
 -26848112.40049 -20911471.60148  20347502.1584   20347502.2674   20347503.6444
        62.0514
 -10519663.58348  -8153639.68247  23231870.8454   23231871.4734   23231872.6484
      2263.4114
 10  1  2  0 16  0.0000000  0 10G05G08G28G12G09G27G18G10G15G17
  -3354969.72047  -2604954.93246  24246620.8694   24246620.5024   24246624.1334
     -3637.1794
  -8911943.27647  -6930468.94246  24394446.4704   24394445.9864   24394449.7024
     -2970.9694
 -16135607.85348 -12537537.58847  22527292.1584   22527291.7784   22527293.1284
     -2389.2424
  -5372093.25147  -4130172.72546  24785805.1164   24785804.6864   24785807.1164
      3757.6454
 -19330280.88448 -15043208.72747  21695625.7914   21695625.5084   21695628.6104
      2646.0694
 -17828707.80048 -13853352.95047  21778704.7494   21778704.6644   21778707.5174
      1406.1754
 -11536525.15947  -8793275.65246  23300901.1504   23300900.8554   23300902.0304
      1637.1804
   4130552.53646   3276790.14545  25491588.5104   25491587.2684   25491590.1254
     -3638.1904
 -26849750.24849 -20912747.85348  20347190.2624   20347190.5744   20347191.9234
        46.3284
 -10587413.98448  -8206432.20647  23218978.4024   23218978.6914   23218980.7034
      2252.3964
 10  1  2  0 16 30.0000000  0 10G05G08G28G12G09G27G18G10G15G17
  -3245851.83547  -2519928.03446  24267385.8884   24267385.4934   24267387.8394
     -3637.9504
  -8822795.84747  -6861003.44346  24411410.9934   24411409.9924   24411413.9814
     -2972.4144
 -16063791.73648 -12481576.98547  22540958.4284   22540958.3084   22540959.6474
     -2399.0384
  -5484787.56247  -4217986.42646  24764358.6044   24764359.4984   24764361.6654
      3754.5574
 -19409556.39648 -15104981.84247  21680540.1744   21680540.2344   21680542.7314
      2638.5564
 -17870814.84548 -13886163.63747  21770692.2674   21770691.8334   21770694.2064
      1400.5264
 -11585402.59247  -8831361.96746  23291600.4764   23291598.7414   23291600.7224
      1620.5954
   4239637.17856   3361791.24355  25512346.4744   25512340.4384   25512348.8634
     -3635.7204
 -26850905.87049 -20913648.34348  20346970.4484   20346970.7314   20346972.2064
        30.3484
 -10654818.81148  -8258955.44347  23206151.7064   23206153.4154   23206153.1974
      2240.7974
 10  1  2  0 17  0.0000000  0 10G05G08G28G12G09G27G18G10G15G17
  -3136707.04547  -2434880.16246  24288155.0344   24288155.5824   24288156.6834
     -3638.1074
  -8733603.34747  -6791502.80146  24428383.7584   24428382.2524   24428388.0974
     -2973.8314
 -15991683.20148 -12425388.51847  22554680.5194   22554680.0484   22554682.3214
     -2408.1494
  -5597388.00647  -4305727.03046  24742933.1674   24742933.7464   24742935.3704
      3752.0424
 -19488601.12048 -15166575.13447  21665498.7704   21665498.4644   21665501.0704
      2631.2944
 -17912753.60048 -13918843.18548  21762711.2174   21762711.5614   21762713.6884
      1395.4454
 -11633780.69247  -8869059.19246  23282393.9764   23282392.8244   23282394.9494
      1604.4544
   4348611.49146   3446706.20745  25533084.3064   25533081.0524   25533085.1784
     -3630.3044
 -26851580.27649 -20914173.86148  20346842.2194   20346842.4284   20346843.8924
        14.7064
 -10721876.42848  -8311208.12347  23193391.3144   23193391.5764   23193391.8944
      2229.5784
 10  1  2  0 17 30.0000000  0 10G05G08G28G12G09G27G18G10G15G17
  -3027521.27547  -2349800.34246  24308931.9094   24308932.5984   24308934.7904
     -3639.7804
  -8644349.18947  -6721954.10046  24445368.3074   24445367.1984   24445370.1934
     -2975.5424
 -15919267.34048 -12368960.58647  22568460.4414   22568460.1104   22568461.9904
     -2418.5054
  -5709875.23247  -4393379.41746  24721527.6654   24721527.4774   24721529.5694
      3748.3264
 -19567397.13848 -15227974.61647  21650504.1484   21650504.1034   21650506.3504
      2622.9364
 -17954507.12048 -13951378.39348  21754765.9894   21754765.7304   21754767.9544
      1389.2894
 -11681641.38847  -8906353.24946  23273286.4324   23273286.3164   23273287.8764
      1587.3644
   4457490.09846   3531546.65746  25553802.4894   25553801.3504   25553804.6484
     -3627.4724
 -26851755.78349 -20914310.62848  20346808.7724   20346808.9664   20346810.5234
        -1.9194
 -10788567.73548  -8363175.37847  23180699.8954   23180701.3144   23180701.3524
      2217.3794
 10  1  2  0 18  0.0000000  0 11G05G08G28G12G22G09G27G18G10G15G17
  -2918325.19647  -2264712.50146  24329711.5584   24329711.7194   24329713.3194
     -3639.9174
  -8555061.82947  -6652379.51146  24462359.0104   24462358.0244   24462360.3114
     -2976.6594
 -15846573.99948 -12312316.41447  22582293.7614   22582293.0844   22582295.1024
     -2427.7954
  -5822275.15447  -4480963.73546  24700138.3844   24700138.3404   24700139.4824
      3745.1604
  -1682847.29647  -1052229.08646  25530266.6154   25530266.6154   25530266.6044
      2799.1744
 -19645971.26948 -15289201.19847  21635551.9754   21635551.7304   21635554.0604
      2615.3604
 -17996103.27049 -13983790.97348  21746850.7744   21746850.5464   21746852.9994
      1383.9224
 -11729010.56647  -8943264.27846  23264272.7884   23264272.8654   23264273.9864
      1570.7484
   4566243.35146   3616289.50145  25574496.6934   25574497.6224   25574499.0574
     -3623.5174
 -26851459.25949 -20914079.57448  20346865.2144   20346865.4894   20346867.1274
       -17.8534
 -10854917.64948  -8414876.60247  23168073.9354   23168075.1034   23168075.4724
      2205.8314
 10  1  2  0 18 30.0000000  0 11G05G08G28G12G22G09G27G18G10G15G17
  -2809109.19347  -2179609.12546  24350494.8294   24350494.6044   24350496.4564
     -3641.2374
  -8465730.13047  -6582770.39046  24479358.0264   24479357.2764   24479361.6714
     -2978.8564
 -15773593.12848 -12255448.21047  22596181.3474   22596181.3434   22596183.0534
     -2437.8544
  -5934573.83547  -4568469.21946  24678768.9624   24678767.9564   24678769.9854
      3741.1614
  -1766676.72446  -1117550.73646  25514314.3944   25514314.5474   25514315.2704
      2789.0844
 -19724310.60548 -15350244.82647  21620644.5994   21620644.4644   21620646.5024
      2606.8344
 -18037530.14249 -14016071.64848  21738967.3154   21738967.0764   21738969.8984
      1377.5624
 -11775874.95447  -8979781.99546  23255354.1664   23255354.0284   23255355.0574
      1553.1724
   4674880.41947   3700941.70846  25595171.0464   25595168.7554   25595173.6574
     -3619.7484
 -26850677.86149 -20913470.69648  20347014.0014   20347014.1704   20347015.6694
       -34.6404
 -10920911.30848  -8466300.22247  23155515.9984   23155515.8274   23155517.8504
      2193.3404
 10  1  2  0 19  0.0000000  0 11G05G08G28G12G22G09G27G18G10G15G17
  -2699878.23947  -2094494.09846  24371280.9654   24371281.1794   24371283.7384
     -3641.8964
  -8376356.39147  -6513128.50946  24496365.5024   24496365.6214   24496367.5744
     -2980.4444
 -15700329.19948 -12198359.43447  22610123.2014   22610122.5464   22610123.7944
     -2447.4844
  -6046771.51647  -4655896.02346  24657418.1794   24657417.1954   24657419.3004
      3737.4634
  -1850214.02747  -1182644.73046  25498417.7244   25498417.8474   25498416.8144
      2778.7174
 -19802416.31048 -15411106.40147  21605781.9574   21605781.8604   21605783.9444
      2599.0374
 -18078789.78049 -14048222.01048  21731115.8474   21731115.6294   21731118.1844
      1371.8454
 -11822234.88848  -9015906.60346  23246532.7964   23246533.1174   23246534.1394
      1536.4644
   4783397.01746   3785500.11746  25615820.2664   25615820.4104   25615823.6274
     -3615.5374
 -26849413.00349 -20912485.09748  20347254.6324   20347254.7854   20347256.3304
       -50.8144
 -10986547.87648  -8517445.59847  23143025.7794   23143026.4104   23143027.9834
      2181.3154
 10  1  2  0 19 30.0000000  0 11G05G08G28G12G22G09G27G18G10G15G17
  -2590625.92347  -2009362.44646  24392070.4664   24392071.0414   24392073.3154
     -3641.9544
  -8286931.82647  -6443447.02346  24513382.0934   24513381.6674   24513385.0304
     -2981.5984
 -15626775.04248 -12141044.51147  22624119.8324   22624119.4294   22624120.9944
     -2456.3964
  -6158856.61047  -4743235.00246  24636088.4464   24636088.6994   24636091.4354
      3734.5204
  -1933447.41546  -1247501.90546  25482578.7694   25482578.2024   25482578.9604
      2769.5114
 -19880278.18248 -15471777.97547  21590964.9234   21590964.6344   21590967.0374
      2591.5164
 -18119873.11949 -14080235.00248  21723297.9824   21723297.5614   21723300.6414
      1366.7764
 -11868079.45847  -9051629.65446  23237807.7064   23237808.3644   23237810.2194
      1519.8034
   4891800.38247   3869970.24646  25636449.1754   25636448.0964   25636450.5854
     -3611.7654
 -26847654.62749 -20911114.94248  20347589.2944   20347589.5374   20347591.0004
       -66.6564
 -11051815.89248  -8568303.78747  23130605.7244   23130606.0624   23130607.7534
      2169.6784
 10  1  2  0 20  0.0000000  0 11G05G08G28G12G22G09G27G18G10G15G17
  -2481362.06647  -1924221.76946  24412862.5414   24412863.1974   24412865.8174
     -3642.7434
  -8197463.76047  -6373731.65446  24530407.2914   24530406.6274   24530411.1044
     -2983.4874
 -15552939.39948 -12083510.24747  22638170.4264   22638170.1784   22638171.6194
     -2466.3054
  -6270834.67247  -4830490.67446  24614780.7084   24614780.1404   24614782.3154
      3730.1454
  -2016381.13146  -1312125.51746  25466796.3604   25466797.5144   25466796.5654
      2758.8154
 -19957902.30848 -15532264.28947  21576193.5524   21576193.0484   21576196.0434
      2582.8264
 -18160786.96049 -14112115.91048  21715512.2924   21715511.8994   21715515.0254
      1360.3564
 -11913414.36547  -9086955.56646  23229181.3024   23229181.5874   23229182.6074
      1502.2474
   5000081.33747   3954345.02646  25657054.5604   25657053.3644   25657057.1504
     -3607.5494
 -26845408.94349 -20909365.06448  20348016.6254   20348016.8134   20348018.2974
       -83.6354
 -11116719.16148  -8618877.76647  23118254.8284   23118255.8984   23118256.5504
      2156.7364
 10  1  2  0 20 30.0000000  0 11G05G08G28G12G22G09G27G18G10G15G17
  -2372088.14847  -1839073.27046  24433657.0424   24433656.9854   24433659.0884
     -3643.1544
  -8107952.28347  -6303982.47846  24547440.8404   24547440.8534   24547445.1044
     -2984.4684
 -15478823.84448 -12025757.87747  22652274.0174   22652274.3184   22652276.0834
     -2475.1544
  -6382702.31847  -4917660.30946  24593492.5054   24593493.1064   24593494.7144
      3726.8344
  -2099012.11446  -1376513.33346  25451073.0414   25451071.2704   25451072.7894
      2748.8964
 -20035286.53148 -15592563.66847  21561467.8804   21561467.4004   21561470.3124
      2575.3274
 -18201530.59449 -14143864.19848  21707759.0474   21707758.5484   21707761.8184
      1355.2464
 -11958237.27247  -9121882.50446  23220651.3004   23220651.4334   23220652.8464
      1485.3934
   5108238.29747   4038623.18346  25677634.7814   25677635.5664   25677638.6264
     -3603.1724
 -26842674.39549 -20907234.25048  20348537.0074   20348537.1984   20348538.5854
       -99.4294
 -11181253.89748  -8669164.56047  23105974.2614   23105974.5404   23105976.3384
      2144.9864
 10  1  2  0 21  0.0000000  0 11G05G08G28G12G22G09G27G18G10G15G17
  -2262806.54047  -1753918.75746  24454452.6914   24454452.5254   24454455.7524
     -3642.4754
  -8018396.88046  -6234199.04746  24564482.6634   24564481.4154   24564486.0804
     -2985.5664
 -15404429.61848 -11967788.36247  22666430.9004   22666430.2124   22666431.8664
     -2484.1944
  -6494457.57847  -5004742.28946  24572225.6604   24572226.6404   24572228.8154
      3723.3434
  -2181337.53847  -1440662.95546  25435407.1884   25435407.3154   25435407.6634
      2739.2384
 -20112429.66548 -15652675.17947  21546787.9994   21546787.5714   21546790.6524
      2567.7054
 -18242103.40049 -14175479.36548  21700038.3184   21700038.0144   21700040.5794
      1349.8124
 -12002546.30847  -9156409.02946  23212220.1664   23212220.4354   23212221.4914
      1468.6844
   5216269.73347   4122803.51046  25698192.3004   25698191.9604   25698197.3734
     -3598.9714
 -26839449.65449 -20904721.47248  20349150.6714   20349150.9014   20349152.2344
      -115.4404
 -11245417.31448  -8719162.03047  23093764.3534   23093765.1004   23093766.9844
      2132.6204
 10  1  2  0 21 30.0000000  0 10G05G08G28G12G22G09G27G18G15G17
  -2153520.71347  -1668760.98446  24475248.7584   24475248.6074   24475251.5904
     -3643.3654
  -7928799.43846  -6164382.86346  24581532.3174   24581531.4944   24581535.3214
     -2987.6904
 -15329759.80848 -11909604.10947  22680640.3634   22680640.0024   22680642.1284
     -2493.8014
  -6606099.04147  -5091735.66046  24550981.7864   24550980.7934   24550983.3304
      3719.1384
  -2263355.90247  -1504573.37446  25419799.5224   25419798.6234   25419799.3334
      2728.5904
 -20189331.71148 -15712598.84347  21532154.1344   21532153.9504   21532157.3354
      2558.9964
 -18282506.20849 -14206962.06848  21692349.6794   21692349.5034   21692352.1414
      1343.6704
 -12046340.71148  -9190534.55246  23203886.1284   23203886.1264   23203887.0664
      1450.6904
 -26835734.96049 -20901826.91048  20349857.6184   20349857.6704   20349859.2674
      -132.3254
 -11309207.55348  -8768868.70747  23081625.3284   23081625.9094   23081627.4574
      2119.8254
 10  1  2  0 22  0.0000000  0 10G05G08G28G12G22G09G27G18G15G17
  -2044235.69747  -1583603.83746  24496045.5714   24496045.9854   24496047.3374
     -3643.0364
  -7839162.17446  -6094535.65546  24598590.0594   24598589.5054   24598591.8064
     -2988.9244
 -15254818.88548 -11851208.59247  22694901.1244   22694901.0444   22694902.8884
     -2502.9994
  -6717626.93247  -5178640.49446  24529758.7264   24529758.2954   24529761.1714
      3715.4964
  -2345066.69446  -1568244.16846  25404250.3944   25404248.6704   25404248.7164
      2718.3884
 -20265993.98848 -15772335.66847  21517565.4434   21517565.2394   21517567.4034
      2551.0654
 -18322741.27349 -14238314.06848  21684693.2724   21684693.3364   21684696.0964
      1338.0314
 -12089621.47247  -9224259.82346  23195650.8904   23195650.2524   23195649.8944
      1433.7234
 -26831531.74549 -20898551.67948  20350657.4234   20350657.7274   20350659.0154
      -148.5604
 -11372624.19448  -8818284.26347  23069557.9004   23069557.7824   23069560.4434
      2107.3044
 10  1  2  0 22 30.0000000  0 10G05G08G28G12G22G09G27G18G15G17
  -1934950.49147  -1498446.55546  24516841.3414   24516842.2124   24516843.7204
     -3642.6644
  -7749481.79146  -6024654.85546  24615655.4834   24615654.7884   24615659.6374
     -2990.0224
 -15179604.99448 -11792600.37147  22709213.9434   22709213.2404   22709214.6024
     -2511.5664
  -6829035.17547  -5265452.07446  24508558.2344   24508558.7754   24508560.0454
      3711.7584
  -2426464.36447  -1631670.92246  25388761.0974   25388760.7764   25388760.0004
      2708.1164
 -20342411.71548 -15831881.93647  21503024.0824   21503024.0274   21503026.1794
      2543.2664
 -18362804.82649 -14269532.42148  21677069.6934   21677069.3134   21677072.0314
      1332.6094
 -12132383.39048  -9257580.79646  23187514.1114   23187513.2704   23187514.3154
      1416.8524
 -26826835.55749 -20894892.31948  20351550.9414   20351551.2524   20351552.6594
      -164.7054
 -11435660.51748  -8867403.46647  23057562.3954   23057562.5224   23057564.2104
      2095.0094
 10  1  2  0 23  0.0000000  0 10G05G08G28G12G22G09G27G18G15G17
  -1825668.44547  -1413291.71246  24537636.6794   24537636.5784   24537639.1034
     -3643.1264
  -7659759.88746  -5954741.70946  24632729.1214   24632729.8534   24632733.3414
     -2992.0774
 -15104120.97648 -11733781.65847  22723577.8814   22723577.4724   22723579.7304
     -2521.0524
  -6940322.71647  -5352169.61046  24487380.8324   24487380.5964   24487381.8484
      3707.2834
  -2507547.06447  -1694852.29846  25373331.7454   25373331.9534   25373332.0874
      2697.0334
 -20418584.26148 -15891237.15847  21488528.6744   21488528.0254   21488531.0244
      2534.6394
 -18402697.51849 -14300617.63548  21669478.0814   21669477.9404   21669480.9584
      1326.4784
 -12174625.61848  -9290496.83546  23179475.0824   23179473.3684   23179475.0334
      1398.9534
 -26821646.51949 -20890848.92148  20352538.4924   20352538.7364   20352540.0954
      -181.6114
 -11498314.77748  -8916224.95947  23045639.8044   23045639.3534   23045641.3534
      2081.7374
 10  1  2  0 23 30.0000000  0 10G05G08G28G12G22G09G27G18G15G17
  -1716391.25747  -1328140.68346  24558431.6274   24558431.5864   24558434.0844
     -3642.3964
  -7569995.51146  -5884795.43946  24649811.1034   24649809.5654   24649814.2704
     -2992.5414
 -15028367.86948 -11674753.26547  22737992.9534   22737992.2704   22737994.9114
     -2529.5414
  -7051487.24647  -5438791.30646  24466226.7354   24466227.3054   24466228.7454
      3703.2004
  -2588311.08047  -1757785.31446  25357962.4124   25357963.8244   25357963.2354
      2686.9914
 -20494509.72848 -15950399.84547  21474080.3434   21474079.9134   21474082.7704
      2526.7844
 -18442418.36949 -14331568.94448  21661919.7184   21661919.1254   21661922.1184
      1321.3624
 -12216345.78647  -9323006.04846  23171534.9514   23171534.8374   23171536.0404
      1381.8984
 -26815962.56749 -20886419.87348  20353620.0824   20353620.2474   20353621.7734
      -197.5994
 -11560582.90348  -8964745.57147  23033790.3934   23033790.1754   23033792.9684
      2069.2194
 10  1  2  0 24  0.0000000  0 10G05G08G28G12G22G09G27G18G15G17
  -1607128.72547  -1243001.03646  24579223.9994   24579224.1524   24579226.1484
     -3642.1414
  -7480196.57446  -5814822.28846  24666898.6854   24666897.8814   24666903.1164
     -2993.6744
 -14952354.94048 -11615522.41547  22752458.0504   22752457.5814   22752459.2734
     -2538.1954
  -7162533.68947  -5525320.99446  24445095.1134   24445096.3254   24445097.1064
      3699.3484
  -2668761.76847  -1820474.17146  25342653.1984   25342652.9734   25342652.0084
      2676.1534
 -20570194.56548 -16009375.02847  21459677.9104   21459677.6734   21459680.7704
      2518.6454
 -18481974.66049 -14362392.02448  21654392.2424   21654392.0214   21654394.4594
      1315.5524
 -12257549.88948  -9355113.16646  23163695.5504   23163695.4684   23163696.9274
      1364.6674
 -26809790.46249 -20881610.44548  20354794.6614   20354794.8904   20354796.2434
      -213.9904
 -11622469.78148  -9012969.10247  23022013.4084   23022013.6824   23022016.1294
      2056.3604
 10  1  2  0 24 30.0000000  0 10G05G08G28G12G22G09G27G18G15G17
  -1497872.52547  -1157866.35046  24600015.2004   24600015.2744   24600017.8754
     -3640.3414
  -7390352.45246  -5744813.88546  24683995.7834   24683995.3734   24683998.3194
     -2994.4794
 -14876073.43248 -11556082.28947  22766973.6814   22766973.2424   22766975.2344
     -2546.2174
  -7273448.85547  -5611748.33646  24423989.4954   24423990.3624   24423990.3644
      3695.9254
  -2748885.37546  -1882908.17645  25327406.6374   25327401.7044   25327401.5574
      2665.8704
 -20645626.86248 -16068153.42747  21445323.8024   21445323.3434   21445325.9984
      2511.0064
 -18521355.23949 -14393078.18448  21646898.2754   21646898.0664   21646900.9784
      1310.5914
 -12298225.44748  -9386808.40846  23155954.2954   23155954.2364   23155955.2924
      1347.8114
 -26803118.88649 -20876411.81848  20356064.1294   20356064.4264   20356065.8304
      -229.9384
 -11683961.70648  -9060884.87747  23010311.9984   23010311.9904   23010314.5624
      2043.9604
 10  1  2  0 25  0.0000000  0 10G05G08G28G12G22G09G27G18G15G17
  -1388633.92147  -1072745.36546  24620801.9924   24620802.7494   24620805.6844
     -3641.2064
  -7300472.22646  -5674777.36146  24701098.4974   24701099.1564   24701102.3444
     -2997.0694
 -14799533.92048 -11496441.11647  22781538.9404   22781538.3334   22781540.3354
     -2556.0964
  -7384239.33847  -5698078.61246  24402905.7414   24402906.1504   24402907.8534
      3690.3884
  -2828688.36746  -1945092.30645  25312220.0774   25312218.2054   25312223.0554
      2654.7954
 -20720814.58448 -16126741.24947  21431016.0274   21431015.7894   21431018.4304
      2501.6884
 -18560568.79349 -14423634.19748  21639436.1444   21639435.9804   21639438.5454
      1303.8994
 -12338379.99048  -9418097.67646  23148314.4244   23148312.8764   23148314.7704
      1329.4264
 -26795955.49149 -20870829.96048  20357427.3594   20357427.4794   20357428.9914
      -247.4364
 -11745064.94748  -9108497.78947  22998684.7154   22998684.8334   22998686.5214
      2029.6634
 10  1  2  0 25 30.0000000  0  9G05G08G28G12G09G27G18G15G17
  -1279411.46647   -987636.97046  24641586.2794   24641587.0664   24641589.0744
     -3641.3734
  -7210551.69046  -5604709.41446  24718210.3484   24718210.3214   24718213.9524
     -2999.0974
 -14722733.80548 -11436596.87047  22796153.4724   22796153.0734   22796155.1864
     -2564.8454
  -7494898.91447  -5784306.78846  24381848.8034   24381849.0204   24381849.9094
      3685.8794
 -20795751.68648 -16185133.79247  21416755.9404   21416755.5834   21416758.4024
      2493.0924
 -18599610.75149 -14454056.49748  21632007.0254   21632006.5124   21632009.3534
      1298.0184
 -12378007.71748  -9448976.43546  23140772.6314   23140771.7314   23140772.1644
      1311.7044
 -26788295.38949 -20864861.05448  20358885.0094   20358885.2154   20358886.6704
      -264.1454
 -11805771.97048  -9155801.95647  22987132.4924   22987132.7564   22987134.7824
      2016.3814
 10  1  2  0 26  0.0000000  0  9G05G08G28G12G09G27G18G15G17
  -1170211.75347   -902546.30246  24662366.0394   24662366.6384   24662368.2884
     -3640.0374
  -7120595.57947  -5534613.76546  24735328.9404   24735328.1304   24735331.3564
     -2999.6484
 -14645679.61548 -11376554.65047  22810816.2314   22810815.2824   22810817.9174
     -2573.3034
  -7605429.53847  -5870434.56246  24360815.9984   24360815.6754   24360816.0564
      3681.4774
 -20870441.73948 -16243333.81947  21402542.9504   21402542.2944   21402544.7064
      2484.9634
 -18638485.24849 -14484348.30648  21624609.4154   21624608.8674   21624611.6034
      1292.4474
 -12417111.47248  -9479446.90846  23133332.0554   23133331.3904   23133330.6484
      1294.0494
 -26780142.16749 -20858507.89848  20360436.6684   20360436.7294   20360438.1814
      -280.5394
 -11866084.47648  -9202798.69547  22975655.5414   22975656.3034   22975657.5464
      2003.4064
 10  1  2  0 26 30.0000000  0  9G05G08G28G12G09G27G18G15G17
  -1061034.01847   -817472.73846  24683143.1264   24683143.2364   24683144.9764
     -3639.0294
  -7030601.31947  -5464488.37446  24752454.0734   24752453.1164   24752456.8644
     -3000.4754
 -14568370.38848 -11316313.69147  22825527.9074   22825526.7124   22825529.4324
     -2581.1904
  -7715826.31447  -5956457.99646  24339806.7874   24339806.6474   24339809.1884
      3677.8724
 -20944880.24748 -16301337.83847  21388377.6654   21388377.0884   21388379.5334
      2477.0154
 -18677189.06349 -14514507.11748  21617244.2854   21617243.6824   21617246.5854
      1287.1724
 -12455686.69548  -9509505.52546  23125990.4104   23125991.4164   23125991.6414
      1277.0244
 -26771491.82549 -20851767.37748  20362082.4904   20362082.8594   20362084.4214
      -296.7104
 -11925996.78248  -9249483.59347  22964254.5224   22964254.7364   22964256.5614
      1990.3534
 10  1  2  0 27  0.0000000  0  9G05G08G28G12G09G27G18G15G17
   -951880.21547   -732417.84846  24703913.5024   24703914.0644   24703916.8704
     -3637.8234
  -6940568.50847  -5394332.90146  24769586.8124   24769586.8454   24769589.6634
     -3001.6314
 -14490807.10748 -11255874.77447  22840287.6634   22840287.2194   22840290.1624
     -2589.2894
  -7826086.42547  -6042374.96246  24318825.7084   24318825.7664   24318827.4314
      3673.0394
 -21019065.62748 -16359144.61047  21374260.6644   21374260.4524   21374263.0764
      2468.9604
 -18715721.26549 -14544532.20448  21609911.8264   21609911.5814   21609914.4414
      1281.9524
 -12493731.55648  -9539150.87246  23118750.7084   23118751.0634   23118751.9934
      1259.5064
 -26762343.18249 -20844638.57048  20363823.4564   20363823.6144   20363825.2464
      -312.9744
 -11985505.34248  -9295853.89747  22952930.3134   22952930.1584   22952933.1274
      1977.3864
 10  1  2  0 27 30.0000000  0  9G05G08G28G12G09G27G18G15G17
   -842757.16447   -647386.90546  24724678.5544   24724679.0314   24724681.2884
     -3637.1684
  -6850501.51447  -5324150.81746  24786725.7864   24786724.3974   24786728.5994
     -3002.6204
 -14412995.70248 -11195242.50747  22855094.5074   22855094.3004   22855096.2804
     -2597.9194
  -7936211.69447  -6128186.85746  24297869.3304   24297868.8704   24297871.6504
      3668.8864
 -21093000.81648 -16416756.43947  21360191.3444   21360191.1764   21360193.4174
      2460.2904
 -18754085.65449 -14574426.52648  21602611.2044   21602611.2384   21602613.9024
      1275.9604
 -12531248.89648  -9568385.17946  23111612.0814   23111611.7054   23111612.5154
      1241.5594
 -26752699.60949 -20837124.10348  20365658.4834   20365658.8564   20365660.2684
      -329.8794
 -12044611.51048  -9341910.64647  22941682.7864   22941683.3254   22941685.2694
      1963.3794
 10  1  2  0 28  0.0000000  0  9G05G08G28G12G09G27G18G15G17
   -733661.52847   -562377.32746  24745438.9324   24745438.3004   24745442.4024
     -3635.7354
  -6760394.63947  -5253937.71046  24803873.0274   24803874.1864   24803875.7184
     -3003.7614
 -14334932.84448 -11134414.30747  22869949.3514   22869948.8244   22869951.0314
     -2605.7974
  -8046194.82347  -6213887.99046  24276940.2904   24276938.9514   24276942.8744
      3664.0854
 -21166679.18348 -16474168.14747  21346170.8074   21346170.2074   21346173.1284
      2452.1934
 -18792276.51849 -14604185.63848  21595343.6274   21595343.6764   21595346.1614
      1270.6534
 -12568231.90248  -9597203.11346  23104574.3234   23104574.0814   23104575.6274
      1224.3724
 -26742554.50449 -20829218.83448  20367589.1274   20367589.5154   20367590.7844
      -346.0084
 -12103307.21248  -9387647.54947  22930513.4424   22930513.7734   22930515.2054
