     2.11           OBSERVATION DATA    G (GPS)             RINEX VERSION / TYPE
teqc  2009Oct19     administrateur ccgps20100104 10:29:15UTCPGM / RUN BY / DATE
Solaris 5.9|UltraSparc IIe|cc -xarch=v9 SC5.8|=+-|*Sparc    COMMENT
teqc  2009Oct19     administrateur ccgps20100104 10:26:57UTCCOMMENT
teqc  2009Oct19     CNES                20100104 10:05:23UTCCOMMENT
MSXP|IAx86-PII|bcc32 5.0|MSWin95->XP|486/DX+                COMMENT
teqc  2009Oct19                         20100104 10:05:22UTCCOMMENT
BIT 2 OF LLI FLAGS DATA COLLECTED UNDER A/S CONDITION       COMMENT
GRAS                                                        MARKER NAME
10002M006                                                   MARKER NUMBER
CARDALIAGUET        CNES                                    OBSERVER / AGENCY
48002               ASHTECH UZ-12       CN00-1A01           REC # / TYPE / VERS
24222               ASH701945E_M    NONE                    ANT # / TYPE
  4581697.3100   556114.1400  4389365.5000                  APPROX POSITION XYZ
        0.0350        0.0000        0.0000                  ANTENNA: DELTA H/E/N
     1     1                                                WAVELENGTH FACT L1/2
     7    L1    L2    C1    P1    P2    D1    D2            # / TYPES OF OBSERV
    30.0000                                                 INTERVAL
Version: Version:                                           COMMENT
Project: A002_______CNE_____________                        COMMENT
 SNR is mapped to RINEX snr flag value [0-9]                COMMENT
  L1 & L2: min(max(int(snr_dBHz/6), 0), 9)                  COMMENT
pseudorange smoothing corrections not applied               COMMENT
Forced Modulo Decimation to 30 seconds                      COMMENT
  2010     1     3     0     0    0.0000000     GPS         TIME OF FIRST OBS
                                                            END OF HEADER
 10  1  3  0  0  0.0000000  0  9G18G05G08G10G28G09G27G15G17
  -9570360.22447  -7224398.14046  23549515.3054   23549513.9884   23549516.3664
      2018.8404
  -4617768.35047  -3586053.25946  23756303.4444   23756303.3954   23756305.4634
     -3584.1694
 -11037475.07547  -8587820.81246  23990476.7934   23990476.5904   23990480.6694
     -2925.8564
    -88348.19747    -23436.64046  25000810.7614   25000809.5714   25000812.8604
     -3698.3184
 -18094251.07948 -14058521.58947  22219771.6554   22219771.4954   22219773.3384
     -2132.7044
 -16993008.32348 -13149245.21647  22065514.4854   22065515.0594   22065517.8764
      2821.8144
 -17752519.30848 -13793010.51547  21979326.4444   21979326.2274   21979328.9534
      1543.2364
 -25514598.39249 -19868370.19148  20379385.6934   20379385.8284   20379387.2844
       422.8774
  -8471876.09948  -6564801.46647  23543773.4134   23543773.8514   23543775.0484
      2503.4974
 10  1  3  0  0 30.0000000  0 10G12G18G05G08G10G28G09G27G15G17
   -758933.77946   -572958.45545  25284334.6174   25284333.7444   25284335.5464
      3813.3124
  -9630668.88847  -7271391.89546  23538038.1584   23538037.9284   23538039.8274
      2002.4554
  -4510176.38747  -3502215.38646  23776777.4554   23776777.8684   23776780.2714
     -3588.9414
 -10949642.15347  -8519379.58046  24007190.7144   24007189.8354   24007194.5774
     -2928.8704
     22604.69047     63020.16346  25021923.5194   25021921.3284   25021927.7894
     -3697.7304
 -18030079.21948 -14008517.55247  22231983.0614   22231982.3944   22231984.2494
     -2144.9574
 -17077538.84548 -13215113.14547  22049429.2594   22049429.1534   22049431.3154
      2814.0864
 -17798710.29548 -13829003.48447  21970536.9034   21970536.7144   21970538.9674
      1536.7184
 -25527033.74849 -19878060.08548  20377019.3194   20377019.5894   20377021.0224
       406.7154
  -8546817.16748  -6623197.10047  23529512.6764   23529512.8654   23529514.4714
      2493.1794
 10  1  3  0  1  0.0000000  0 10G12G18G05G08G10G28G09G27G15G17
   -873294.70046   -662070.90545  25262571.6714   25262570.8784   25262571.2904
      3811.0974
  -9690516.73447  -7318026.59246  23526649.7894   23526649.5544   23526651.1684
      1987.6054
  -4402487.16447  -3418301.70846  23797270.0034   23797269.2524   23797273.3484
     -3591.3174
 -10861746.71647  -8450889.66146  24023917.4864   24023916.8974   24023920.8814
     -2930.3864
    133506.05847    149436.77946  25043027.4314   25043027.1714   25043029.3704
     -3695.4434
 -17965561.50948 -13958244.00847  22244260.2904   22244260.5264   22244261.4974
     -2156.1424
 -17161856.63048 -13280815.30447  22033384.1584   22033383.7844   22033386.6324
      2807.1914
 -17844727.80348 -13864861.27247  21961779.8784   21961779.9834   21961782.9784
      1531.2004
 -25539007.43249 -19887390.23348  20374740.9074   20374741.2154   20374742.5224
       391.6894
  -8621476.19948  -6681372.95847  23515305.4854   23515306.1934   23515308.2474
      2484.2784
 10  1  3  0  1 30.0000000  0 10G12G18G05G08G10G28G09G27G15G17
   -987605.76146   -751144.38345  25240819.1104   25240817.9544   25240821.2314
      3809.3954
  -9749904.09247  -7364302.45446  23515349.0654   23515347.8284   23515350.3664
      1971.5524
  -4294705.68547  -3334316.14646  23817780.4204   23817781.0404   23817782.4404
     -3594.5654
 -10773791.55347  -8382353.20746  24040654.3094   24040653.0824   24040658.7744
     -2932.9134
    244351.26647    235809.68046  25064120.2484   25064119.2374   25064124.0654
     -3694.2274
 -17900702.35648 -13907704.41147  22256602.7564   22256602.1974   22256604.1804
     -2167.9974
 -17245963.21548 -13346352.88747  22017378.7124   22017378.7064   22017380.8904
      2799.7904
 -17890574.26848 -13900585.78347  21953055.6284   21953055.8364   21953058.2564
      1525.0384
 -25550521.09849 -19896361.92748  20372549.9344   20372550.0994   20372551.6364
       375.8064
  -8695852.74348  -6739328.70547  23501152.5444   23501152.2644   23501155.0824
      2474.2854
 10  1  3  0  2  0.0000000  0 10G12G18G05G08G10G28G09G27G15G17
  -1101862.31446   -840175.44446  25219077.0604   25219076.5124   25219079.1444
      3808.0494
  -9808826.02247  -7410215.64346  23504136.2514   23504135.6674   23504138.1644
      1956.7074
  -4186831.75547  -3250258.54446  23838308.2494   23838308.2144   23838310.4094
     -3597.0224
 -10685773.97547  -8313768.10446  24057404.3044   24057403.1854   24057407.6884
     -2934.2794
    355140.97647    322139.29746  25085202.8454   25085201.1914   25085206.7854
     -3691.8404
 -17835500.81548 -13856898.02347  22269010.2204   22269009.8484   22269011.3544
     -2178.6554
 -17329854.54948 -13411722.74947  22001415.2834   22001414.0164   22001417.4534
      2793.1404
 -17936246.84348 -13936174.79247  21944364.4034   21944363.8414   21944366.9344
      1519.9724
 -25561570.49449 -19904971.85048  20370447.1344   20370447.6844   20370448.9804
       360.9754
  -8769940.71548  -6797059.58847  23487053.7424   23487054.5684   23487055.7194
      2465.1104
 10  1  3  0  2 30.0000000  0 10G12G18G05G08G10G28G09G27G15G17
  -1216063.04647   -929162.98546  25197345.2844   25197345.9714   25197347.6634
      3806.2294
  -9867281.64747  -7455765.46746  23493012.1374   23493012.3334   23493013.1894
      1941.0014
  -4078869.59547  -3166132.19746  23858852.8874   23858852.8244   23858854.9924
     -3600.0754
 -10597696.19447  -8245136.08046  24074164.1454   24074164.7444   24074168.3774
     -2937.0364
    465871.27947    408422.67246  25106274.7184   25106272.3194   25106277.6674
     -3689.8024
 -17769960.07848 -13805827.32247  22281482.1374   22281482.4114   22281483.7654
     -2190.2144
 -17413530.85648 -13476925.05947  21985491.8384   21985491.7824   21985494.2184
      2785.8184
 -17981746.85948 -13971629.34047  21935705.9874   21935706.0924   21935708.6314
      1513.9694
 -25572155.67549 -19913220.04248  20368433.0214   20368433.2454   20368434.5854
       345.2044
  -8843738.37748  -6854564.25847  23473010.4574   23473010.8684   23473012.8734
      2455.2254
 10  1  3  0  3  0.0000000  0 10G12G18G05G08G10G28G09G27G15G17
  -1330209.14647  -1018108.02846  25175624.6284   25175623.9674   25175622.3264
      3804.2374
  -9925271.98947  -7500952.75646  23481977.8414   23481977.5454   23481977.6594
      1925.5464
  -3970825.14947  -3081941.73146  23879412.8274   23879413.0264   23879415.5154
     -3603.1194
 -10509561.71047  -8176459.87546  24090935.8404   24090935.5334   24090938.2064
     -2938.8094
    576537.03447    494655.71546  25127333.7764   25127332.8364   25127335.8064
     -3687.7824
 -17704085.12648 -13754496.19447  22294017.7744   22294017.3354   22294018.8104
     -2201.2174
 -17496993.95748 -13541961.22547  21969609.3824   21969609.5474   21969611.4744
      2778.6864
 -18027077.14048 -14006951.62747  21927079.9044   21927079.6544   21927082.6614
      1508.2984
 -25582278.22049 -19921107.74248  20366506.6804   20366507.0584   20366508.3264
       329.8814
  -8917245.82248  -6911842.77947  23459022.2324   23459022.7654   23459024.1714
      2445.6184
 10  1  3  0  3 30.0000000  0 10G12G18G05G08G10G28G09G27G15G17
  -1444294.43247  -1107005.66745  25153914.0354   25153914.4194   25153917.4864
      3801.2524
  -9982790.93947  -7545772.70146  23471032.0004   23471032.1784   23471032.0094
      1909.2104
  -3862696.15347  -2997685.36746  23899988.9184   23899989.0804   23899990.4414
     -3605.7224
 -10421367.08647  -8107736.80746  24107718.6634   24107718.6684   24107722.2764
     -2941.0954
    687139.96447    580839.82446  25148380.2824   25148379.7534   25148385.0464
     -3686.5494
 -17637873.75648 -13702902.92047  22306617.1164   22306617.2804   22306619.0544
     -2212.8914
 -17580238.70948 -13606827.25747  21953768.7614   21953768.5994   21953770.6984
      2770.7244
 -18072233.65348 -14042138.51747  21918486.9364   21918486.6514   21918489.5204
      1502.0224
 -25591932.91249 -19928630.88248  20364669.4844   20364669.9194   20364671.1324
       313.7744
  -8990455.58148  -6968889.35047  23445091.1304   23445091.4044   23445093.3184
      2435.0944
 10  1  3  0  4  0.0000000  0 10G12G18G05G08G10G28G09G27G15G17
  -1558320.84947  -1195857.52145  25132215.7254   25132217.8724   25132220.4684
      3799.2764
 -10039840.27447  -7590226.72046  23460175.5764   23460176.8064   23460176.8754
      1893.2014
  -3754489.72247  -2913368.66446  23920580.2794   23920580.6704   23920582.6594
     -3608.4894
 -10333116.36147  -8038970.02546  24124512.0344   24124512.3274   24124516.1694
     -2943.3344
    797674.15047    666970.36346  25169414.2254   25169414.1224   25169417.6144
     -3683.5514
 -17571331.67848 -13651051.94847  22319280.1164   22319279.6194   22319280.9684
     -2224.1454
 -17663268.15448 -13671525.50247  21937968.4924   21937968.5224   21937970.8124
      2763.5574
 -18117220.29648 -14077193.03647  21909926.2254   21909925.7914   21909928.6694
      1496.0554
 -25601122.74149 -19935791.79048  20362920.7264   20362921.0194   20362922.4534
       297.9734
  -9063368.77548  -7025704.81547  23431216.0884   23431216.6484   23431218.4634
      2424.9454
 10  1  3  0  4 30.0000000  0 10G12G18G05G08G10G28G09G27G15G17
  -1672284.28047  -1284660.21046  25110529.2344   25110528.5054   25110530.1034
      3797.9854
 -10096416.49947  -7634312.08846  23449409.5644   23449407.7574   23449410.9564
      1878.2304
  -3646206.88447  -2828992.42846  23941186.0104   23941186.0714   23941187.6534
     -3610.4524
 -10244808.41347  -7970158.65446  24141316.8124   24141316.0494   24141320.1164
     -2943.9984
    908139.24947    753047.00546  25190435.6224   25190434.5064   25190439.2954
     -3680.7064
 -17504459.09748 -13598943.45147  22332005.0394   22332004.9744   22332006.1554
     -2234.1444
 -17746079.39748 -13736053.71747  21922209.9324   21922209.3414   21922212.9714
      2756.9074
 -18162035.24648 -14112113.77147  21901398.4144   21901398.2144   21901401.0644
      1491.1904
 -25609844.33249 -19942587.83948  20361261.0754   20361261.4664   20361262.6984
       283.1744
  -9135980.49948  -7082285.37647  23417398.7134   23417398.2834   23417400.7074
      2415.5744
 10  1  3  0  5  0.0000000  0 10G12G18G05G08G10G28G09G27G15G17
  -1786181.21047  -1373411.06046  25088855.7014   25088855.6634   25088857.1914
      3795.3424
 -10152516.01147  -7678025.99446  23438734.7604   23438734.4344   23438735.2134
      1861.9544
  -3537849.12147  -2744557.79546  23961805.5184   23961804.6494   23961806.7064
     -3613.3494
 -10156441.78247  -7901301.54546  24158132.9194   24158131.6184   24158135.6874
     -2946.6364
   1018533.94647    839068.89546  25211443.2344   25211440.7794   25211446.5154
     -3678.4794
 -17437256.58148 -13546577.85247  22344793.6954   22344793.1294   22344794.8554
     -2245.7314
 -17828670.07948 -13800410.06347  21906493.2674   21906492.7794   21906496.4684
      2749.3784
 -18206676.82548 -14146899.40647  21892903.2354   21892902.7114   21892906.1364
      1484.9484
 -25618095.24549 -19949017.12448  20359690.9744   20359691.3234   20359692.6624
       267.0394
  -9208286.54748  -7138627.73947  23403639.0324   23403639.5644   23403640.9694
      2404.8074
 10  1  3  0  5 30.0000000  0 10G12G18G05G08G10G28G09G27G15G17
  -1900011.33447  -1462109.86846  25067194.2134   25067194.6514   25067195.8334
      3793.2654
 -10208139.44947  -7721368.93046  23428149.7064   23428149.5974   23428153.0404
      1846.3124
  -3429421.08447  -2660068.42446  23982438.7534   23982438.8774   23982441.3324
     -3615.0934
 -10068019.81447  -7832401.33446  24174958.8634   24174957.1804   24174961.7834
     -2948.1874
   1128854.39547    925032.87746  25232435.8384   25232434.8424   25232438.7814
     -3676.0054
 -17369728.66148 -13493958.69647  22357643.7744   22357642.9184   22357644.8574
     -2256.3344
 -17911041.43448 -13864595.52547  21890819.1084   21890818.5604   21890821.2174
      2742.3534
 -18251147.38048 -14181551.78147  21884440.5304   21884440.6234   21884443.1404
      1479.6744
 -25625876.72049 -19955080.61348  20358210.2204   20358210.6084   20358211.8874
       251.6584
  -9280285.83748  -7194731.07647  23389937.8784   23389938.7014   23389940.0074
      2395.0754
 10  1  3  0  6  0.0000000  0 10G12G18G05G08G10G28G09G27G15G17
  -2013773.25547  -1550755.52146  25045546.1864   25045545.9834   25045548.1784
      3790.9894
 -10263285.23847  -7764339.66446  23417655.7654   23417655.6594   23417657.5034
      1830.0474
  -3320926.06747  -2575526.86346  24003084.9384   24003085.0054   24003087.2874
     -3617.5044
  -9979543.23647  -7763458.57046  24191795.3454   24191794.9704   24191797.9544
     -2950.1764
   1239097.51447   1010936.58745  25253414.5674   25253414.3484   25253416.0674
     -3673.6024
 -17301877.78148 -13441087.88447  22370555.1874   22370555.0594   22370556.4214
     -2267.1674
 -17993192.96848 -13928609.68647  21875185.7544   21875185.9364   21875187.7464
      2734.7604
 -18295447.51748 -14216071.37347  21876010.8844   21876010.4304   21876013.6514
      1473.8854
 -25633187.94249 -19960777.66648  20356818.9594   20356819.0694   20356820.6324
       235.8554
  -9351976.23048  -7250593.72247  23376295.4754   23376295.7804   23376298.2804
      2384.3374
 10  1  3  0  6 30.0000000  0 10G12G18G05G08G10G28G09G27G15G17
  -2127463.39447  -1639345.23546  25023911.7774   25023911.8254   25023913.5514
      3788.4184
 -10317949.52347  -7806935.20946  23407253.4244   23407252.1954   23407254.5624
      1814.3254
  -3212364.86347  -2490933.71946  24023743.0994   24023743.1894   24023746.3614
     -3619.7694
  -9891010.49747  -7694472.03046  24208642.8524   24208642.8014   24208646.2874
     -2951.9534
   1349262.90447   1096779.78245  25274377.6134   25274376.1514   25274378.0054
     -3670.7344
 -17233703.62548 -13387965.17147  22383528.3304   22383527.7314   22383529.9064
     -2277.7314
 -18075121.49448 -13992450.08947  21859595.2854   21859595.0684   21859597.3564
      2727.5014
 -18339574.94248 -14250456.38247  21867613.6514   21867613.3954   21867616.0874
      1468.1794
 -25640026.05649 -19966106.06948  20355517.5664   20355517.8434   20355519.4444
       220.1934
  -9423352.64148  -7306211.70447  23362713.4674   23362712.9964   23362714.9084
      2374.0734
 10  1  3  0  7  0.0000000  0 10G12G18G05G08G10G28G09G27G15G17
  -2241082.13347  -1727879.31146  25002290.6854   25002290.3834   25002293.3984
      3785.7744
 -10372133.16347  -7849156.24446  23396942.4874   23396941.8964   23396943.8404
      1797.9264
  -3103742.78447  -2406293.13647  24044412.9364   24044413.5024   24044416.4824
     -3621.8704
  -9802425.08247  -7625444.44046  24225499.8294   24225498.9344   24225502.7664
     -2953.6004
   1459345.52847   1182558.44545  25295326.6294   25295326.1874   25295329.0474
     -3668.0224
 -17165210.95648 -13334594.25947  22396562.4254   22396562.2994   22396563.3124
     -2288.4364
 -18156828.74848 -14056118.06147  21844046.6774   21844046.5344   21844048.7284
      2719.5924
 -18383532.41748 -14284708.95347  21859248.5424   21859248.4934   21859251.6974
      1462.1494
 -25646392.45949 -19971066.90548  20354306.1194   20354306.3724   20354307.9524
       204.1114
  -9494414.88748  -7361584.87847  23349190.4324   23349190.0184   23349193.1244
      2363.2494
 10  1  3  0  7 30.0000000  0 10G12G18G05G08G10G28G09G27G15G17
  -2354625.85247  -1816354.90146  24980683.4684   24980685.5014   24980686.8394
      3783.6314
 -10425833.31147  -7891000.51546  23386723.8084   23386722.4764   23386724.4304
      1781.7844
  -2995061.41047  -2321606.37047  24065094.7874   24065094.7734   24065096.8554
     -3623.4134
  -9713786.12047  -7556375.14146  24242367.0924   24242366.5544   24242371.5614
     -2955.6214
   1569344.11146   1268271.66245  25316258.6104   25316256.1934   25316262.6084
     -3665.3024
 -17096400.86948 -13280976.00947  22409656.5094   22409655.2444   22409657.6044
     -2298.9764
 -18238312.77248 -14119612.09147  21828540.4114   21828540.4404   21828543.1494
      2712.2294
 -18427318.87048 -14318828.27047  21850916.2884   21850916.0974   21850919.1674
      1456.7194
 -25652285.08149 -19975658.55848  20353184.8074   20353185.1004   20353186.4284
       188.4414
  -9565158.61648  -7416709.86247  23335728.5594   23335729.5454   23335729.9454
      2352.7554
 10  1  3  0  8  0.0000000  0 10G12G18G05G08G10G28G09G27G15G17
  -2468092.21747  -1904770.18046  24959091.8114   24959090.5634   24959094.7914
      3780.7814
 -10479046.95347  -7932465.68546  23376597.7504   23376598.0574   23376598.9104
      1765.4254
  -2886322.56647  -2236874.81047  24085786.8824   24085787.6804   24085789.9534
     -3625.6164
  -9625093.12147  -7487263.73146  24259245.0884   24259244.5904   24259248.3004
     -2957.6244
   1679257.872 6   1353918.73545  25337174.495                    25337180.5274
     -3662.536
 -17027274.04048 -13227110.95147  22422810.9074   22422809.8664   22422812.5174
     -2309.6564
 -18319571.40348 -14182930.49547  21813077.9914   21813077.7224   21813080.2164
      2704.6244
 -18470933.04348 -14352813.33747  21842616.8704   21842616.9354   21842619.4024
      1450.7414
 -25657701.80949 -19979879.38448  20352154.0404   20352154.4274   20352155.7584
       172.4414
  -9635579.84248  -7471583.54347  23322327.8044   23322327.1384   23322329.9524
      2341.8724
 10  1  3  0  8 30.0000000  0 10G12G18G05G08G10G28G09G27G15G17
  -2581479.40347  -1993123.78646  24937515.1284   24937515.1874   24937518.2244
      3778.1114
 -10531772.68047  -7973550.66346  23366564.0374   23366563.2224   23366565.2344
      1748.8184
  -2777529.47447  -2152100.98547  24106489.3994   24106488.8434   24106491.9034
     -3627.5864
  -9536347.12947  -7418111.02246  24276132.5864   24276133.6904   24276137.3154
     -2959.2124
   1789083.72046   1439497.33345  25358072.5694   25358071.9014   25358076.6464
     -3659.4664
 -16957833.22048 -13173001.22647  22436024.8604   22436024.3324   22436026.3534
     -2320.0784
 -18400604.46348 -14246073.13047  21797657.7634   21797658.0674   21797660.2754
      2697.2084
 -18514375.82448 -14386664.84847  21834350.1934   21834350.1484   21834352.4284
      1444.9864
 -25662642.29849 -19983729.11948  20351213.8714   20351214.2564   20351215.5764
       156.5014
  -9705676.64248  -7526204.42647  23308989.1364   23308988.5444   23308990.7584
      2330.9334
 10  1  3  0  9  0.0000000  0 10G12G18G05G08G10G28G09G27G15G17
  -2694786.02346  -2081414.64346  24915953.3224   24915953.3704   24915955.7094
      3775.4324
 -10584009.71347  -8014254.83546  23356623.5914   23356622.6594   23356625.3634
      1732.7614
  -2668685.46647  -2067287.47847  24127201.4974   24127202.0244   24127203.8414
     -3629.0864
  -9447548.84547  -7348917.55446  24293030.8174   24293029.7034   24293034.0464
     -2961.0374
   1898818.78246   1525005.12745  25378955.4714   25378953.6954   25378958.3714
     -3656.3554
 -16888081.04748 -13118648.88547  22449298.0954   22449297.3774   22449300.0974
     -2330.5424
 -18481411.46848 -14309039.60847  21782281.0364   21782281.0104   21782283.7334
      2689.4584
 -18557647.75948 -14420383.24248  21826115.7104   21826115.2704   21826118.4804
      1439.3714
 -25667106.04449 -19987207.37148  20350364.5584   20350364.8334   20350366.2364
       140.5684
  -9775446.33148  -7580570.41847  23295712.0984   23295711.3494   23295713.8014
      2320.0414
 10  1  3  0  9 30.0000000  0 10G12G18G05G08G10G28G09G27G15G17
  -2808011.74446  -2169642.39446  24894407.1584   24894407.8594   24894410.3734
      3772.7014
 -10635758.00747  -8054578.20046  23346776.8034   23346776.2394   23346776.0594
      1716.9964
  -2559795.35147  -1982438.05046  24147923.2444   24147922.9274   24147924.3794
     -3630.2254
  -9358701.36847  -7279685.75246  24309937.5594   24309937.0824   24309941.5114
     -2962.3284
   5159299.07146   4065639.08545  25399819.6704   25399817.2474   25399822.0144
     -3652.7494
 -16818021.42448 -13064056.97247  22462630.1544   22462630.0584   22462630.8404
     -2340.2884
 -18561993.12348 -14371830.49647  21766946.9524   21766946.3534   21766949.0064
      2682.3794
 -18600750.67948 -14453969.93548  21817913.4624   21817913.1844   21817916.1994
      1434.1034
 -25671094.13149 -19990314.97748  20349605.6564   20349605.9364   20349607.2934
       125.0984
  -9844888.07748  -7634680.87147  23282497.8024   23282497.4654   23282499.7094
      2309.4164
 10  1  3  0 10  0.0000000  0 10G12G18G05G08G10G28G09G27G15G17
  -2921151.31646  -2257802.98046  24872876.9444   24872877.2264   24872879.1014
      3769.8344
 -10687012.76547  -8094516.98046  23337022.2484   23337023.2924   23337024.4624
      1700.2964
  -2450858.40447  -1897552.14246  24168653.0954   24168653.4214   24168654.9424
     -3632.1754
  -9269801.76447  -7210413.33546  24326854.1744   24326853.9524   24326857.0324
     -2964.5484
   5268845.39046   4150999.88345  25420665.7004   25420665.9304   25420665.1364
     -3650.0484
 -16747653.34348 -13009224.71147  22476020.2434   22476021.0474   22476021.8724
     -2350.9934
 -18642345.42948 -14434442.66347  21751656.0524   21751655.6854   21751658.4334
      2674.2414
 -18643681.24848 -14487422.32848  21809743.9734   21809743.6344   21809746.4524
      1427.8894
 -25674602.13349 -19993048.49248  20348938.1694   20348938.2854   20348939.7544
       108.6774
  -9913995.88448  -7688531.10947  23269347.1074   23269346.9884   23269348.6834
      2297.7274
 10  1  3  0 10 30.0000000  0 10G12G18G05G08G10G28G09G27G15G17
  -3034205.70746  -2345897.28946  24851364.5524   24851364.4404   24851365.7694
      3766.9134
 -10737774.80647  -8134071.81646  23327364.0474   23327362.6354   23327364.4244
      1683.3734
  -2341880.51347  -1812634.32746  24189390.9334   24189390.8664   24189392.7814
     -3633.1414
  -9180853.74947  -7141103.20146  24343780.7664   24343779.7534   24343785.1344
     -2965.9224
   5378292.40045   4236283.22245  25441489.9074   25441490.3034   25441494.5704
     -3646.7544
 -16676981.53348 -12954155.77247  22489468.9974   22489469.1004   22489470.4524
     -2361.1384
 -18722470.02548 -14496877.39447  21736408.8394   21736408.9584   21736411.6434
      2666.6584
 -18686442.36148 -14520742.66948  21801606.8324   21801606.5854   21801609.3214
      1422.3124
 -25677631.91249 -19995409.35748  20348361.8334   20348361.7894   20348363.2964
        92.7284
  -9982769.60848  -7742121.01447  23256259.9874   23256260.2274   23256262.2344
      2286.6094
 10  1  3  0 11  0.0000000  0 10G12G18G05G08G10G28G09G27G15G17
  -3147169.83846  -2433921.24046  24829866.7034   24829866.7974   24829868.8644
      3763.8244
 -10788039.82647  -8173239.38546  23317797.5864   23317797.3914   23317798.8154
      1667.2194
  -2232861.01247  -1727684.07846  24210136.4664   24210136.4444   24210139.3154
     -3634.9764
  -9091854.10847  -7071752.82346  24360716.9884   24360716.9224   24360720.3054
     -2967.3044
   5487641.13046   4321489.95745  25462301.3384   25462300.3774   25462303.1674
     -3643.3924
 -16606004.91948 -12898849.32547  22502975.5214   22502975.1174   22502976.5124
     -2371.0234
 -18802363.14748 -14559131.74947  21721205.8644   21721205.3684   21721208.4034
      2659.2704
 -18729030.90448 -14553928.54348  21793502.6254   21793502.1574   21793505.3744
      1416.6994
 -25680179.86649 -19997394.77848  20347876.8224   20347877.0584   20347878.4014
        76.6924
 -10051203.48548  -7795446.11347  23243237.5094   23243238.3394   23243239.9024
      2275.3114
 10  1  3  0 11 30.0000000  0 10G12G18G05G08G10G28G09G27G15G17
  -3260044.72946  -2521875.61846  24808388.6304   24808388.7324   24808390.8704
      3760.5424
 -10837808.87047  -8212020.45346  23308327.4024   23308327.0304   23308329.2384
      1650.4944
  -2123806.21147  -1642706.33046  24230888.3284   24230888.3374   24230891.2314
     -3636.1214
  -9002805.84347  -7002364.53946  24377661.6404   24377661.7894   24377663.9184
     -2969.5064
   5596886.45646   4406616.13145  25483089.0244   25483089.2034   25483094.5804
     -3639.8254
 -16534728.82748 -12843309.52447  22516538.7684   22516538.6524   22516539.8434
     -2381.1084
 -18882026.85648 -14621207.34947  21706046.1604   21706046.4134   21706049.0074
      2651.2104
 -18771449.83848 -14586982.25548  21785430.5104   21785430.2514   21785433.0814
      1410.7654
 -25682247.71549 -19999006.09848  20347483.1754   20347483.4934   20347484.9204
        60.5454
 -10119297.68748  -7848506.52847  23230279.5144   23230280.4484   23230282.0594
      2263.8174
 10  1  3  0 12  0.0000000  0 10G12G18G05G08G10G28G09G27G15G17
  -3372824.86846  -2609756.22446  24786926.4834   24786926.5334   24786928.9204
      3757.3014
 -10887077.34247  -8250411.48146  23298952.5374   23298952.3004   23298953.1894
      1633.3384
  -2014714.70347  -1557699.98946  24251648.2754   24251648.4224   24251651.2874
     -3636.9744
  -8913707.16747  -6932936.98646  24394617.0284   24394617.1814   24394619.8424
     -2971.1264
   5706029.11546   4491662.38545  25503858.1434   25503855.0854   25503858.1314
     -3636.7614
 -16463151.96348 -12787535.34847  22530159.4784   22530159.2654   22530160.8394
     -2391.1734
 -18961456.76848 -14683100.77347  21690931.1614   21690930.4474   21690933.4494
      2643.5254
 -18813695.99348 -14619901.32748  21777391.4914   21777390.7974   21777393.8664
      1405.0934
 -25683831.35549 -20000240.11148  20347181.8604   20347182.1474   20347183.4634
        44.3904
 -10187045.74948  -7901297.21647  23217387.3004   23217387.2044   23217389.0144
      2252.3124
 10  1  3  0 12 30.0000000  0 10G12G18G05G08G10G28G09G27G15G17
  -3485513.59647  -2697565.57946  24765481.8904   24765483.0274   24765485.5814
      3754.2324
 -10935848.44447  -8288414.94046  23289671.1464   23289670.6364   23289670.8984
      1617.1604
  -1905595.06047  -1472671.72046  24272413.1054   24272413.0044   24272415.8374
     -3637.7384
  -8824564.08847  -6863474.83246  24411580.8154   24411580.5044   24411583.5794
     -2972.3924
   5815062.21746   4576623.21745  25524606.4674   25524604.9174   25524609.3184
     -3632.1664
 -16391281.61048 -12731532.48547  22543835.9874   22543835.1374   22543838.2124
     -2400.8714
 -19040657.31848 -14744815.47047  21675859.6244   21675859.4324   21675862.1204
      2635.9454
 -18855774.81549 -14652690.01348  21769383.9814   21769383.6654   21769386.9894
      1399.6624
 -25684935.24649 -20001100.29248  20346971.6804   20346971.9094   20346973.4374
        28.6234
 -10254450.20948  -7953820.17647  23204560.5984   23204560.8914   23204562.7804
      2240.8404
 10  1  3  0 13  0.0000000  0 10G12G18G05G08G10G28G09G27G15G17
  -3598105.42947  -2785299.47746  24744057.5864   24744057.5634   24744059.7184
      3751.0634
 -10984117.29847  -8326027.04146  23280485.6684   23280484.9814   23280486.8524
      1600.1234
  -1796446.50547  -1387620.91046  24293183.6314   24293184.1334   24293185.6584
     -3638.9484
  -8735373.12247  -6793975.36746  24428553.3884   24428551.2554   24428555.1234
     -2974.1914
   5923986.54746   4661499.20946  25545334.1654   25545332.5164   25545338.2174
     -3629.1634
 -16319116.18948 -12675299.68747  22557568.7434   22557567.9414   22557570.1954
     -2410.7214
 -19119623.81248 -14806347.79547  21660832.7314   21660832.7084   21660835.6214
      2627.9264
 -18897682.50448 -14685345.35248  21761408.8314   21761408.7504   21761411.5434
      1393.6934
 -25685554.84049 -20001583.09948  20346853.8724   20346854.0454   20346855.5044
        12.1894
 -10321504.80048  -8006070.48847  23191800.9504   23191800.9804   23191802.9374
      2228.8814
 10  1  3  0 13 30.0000000  0 10G12G18G05G08G10G28G09G27G15G17
  -3710590.85947  -2872950.47746  24722652.8384   24722652.8544   24722654.5134
      3748.1234
 -11031874.82447  -8363240.71146  23271398.4664   23271396.8794   23271399.0164
      1583.6034
  -1687264.01147  -1302543.65046  24313960.0464   24313961.0064   24313962.5634
     -3639.2314
  -8646126.80147  -6724432.74646  24445536.0634   24445535.1844   24445539.6684
     -2975.5444
   6032807.16946   4746294.57945  25566042.2644   25566042.7164   25566047.5994
     -3625.6754
 -16246650.46048 -12618832.89547  22571358.3034   22571358.2084   22571360.1994
     -2420.0534
 -19198347.94948 -14867691.26047  21645852.3614   21645851.9844   21645854.8734
      2620.3924
 -18939411.73049 -14717861.63048  21753468.6044   21753468.2624   21753470.6624
      1388.3504
 -25685682.19149 -20001682.33948  20346829.6624   20346829.8734   20346831.2784
        -3.6244
 -10388199.48748  -8058040.37447  23179108.7954   23179109.4024   23179110.9464
      2217.5774
 10  1  3  0 14  0.0000000  0 11G12G18G22G05G08G10G28G09G27G15G17
  -3822983.38347  -2960529.04246  24701264.7514   24701265.0684   24701266.4924
      3744.2674
 -11079135.06347  -8400066.86446  23262405.0514   23262405.4464   23262405.4244
      1566.3564
  -1074231.18647   -826365.85846  25527037.4134   25527037.8064   25527036.0044
      2796.8514
  -1578066.17047  -1217454.42346  24334739.8874   24334739.9284   24334742.2264
     -3640.4654
  -8556841.87547  -6654860.02646  24462526.3044   24462525.4324   24462527.9834
     -2977.0224
   6141506.57946   4830995.32746  25586727.6734   25586727.4344   25586730.2254
     -3622.7124
 -16173902.02248 -12562145.81047  22585202.2374   22585201.6104   22585203.1014
     -2429.9964
 -19276844.42348 -14928857.32747  21630914.7494   21630915.2584   21630917.3454
      2612.2124
 -18980978.18848 -14750251.07448  21745558.5634   21745558.2154   21745560.8314
      1382.3854
 -25685331.90349 -20001409.39748  20346896.3954   20346896.5294   20346898.0334
       -20.1004
 -10454547.08448  -8109739.79447  23166483.6004   23166483.7874   23166485.8054
      2205.1824
 10  1  3  0 14 30.0000000  0 11G12G18G22G05G08G10G28G09G27G15G17
  -3935273.52647  -3048027.88946  24679896.9434   24679897.2874   24679897.6144
      3741.3344
 -11125888.52747  -8436498.13846  23253508.1254   23253507.1104   23253509.1904
      1550.0984
  -1157995.63846   -891636.85046  25511097.0124   25511097.1184   25511097.5144
      2787.4974
  -1468847.84147  -1132349.23946  24355523.5214   24355524.0844   24355525.7224
     -3640.6874
  -8467511.19847  -6585251.68546  24479525.1024   24479524.3114   24479528.1604
     -2978.5484
   6250089.97346   4915605.78346  25607389.7454   25607391.5024   25607392.7584
     -3617.5504
 -16100865.32048 -12505234.10047  22599100.4694   22599099.9174   22599101.6954
     -2439.1994
 -19355104.38248 -14989839.09247  21616022.1414   21616022.5014   21616024.5894
      2604.8104
 -19022374.27949 -14782507.77148  21737681.1964   21737680.9724   21737683.5944
      1377.2294
 -25684495.52849 -20000757.68248  20347055.5214   20347055.6684   20347057.1484
       -35.8854
 -10520537.14048  -8161160.61247  23153926.1894   23153925.6074   23153927.5494
      2193.6454
 10  1  3  0 15  0.0000000  0 11G12G18G22G05G08G10G28G09G27G15G17
  -4047465.35347  -3135450.14046  24658547.7004   24658547.6764   24658549.3044
      3737.9414
 -11172140.10448  -8472538.33246  23244707.2814   23244705.3564   23244707.7664
      1533.0264
  -1241469.89147   -956681.67246  25495212.5034   25495213.3354   25495214.1954
      2777.2264
  -1359618.64847  -1047235.58746  24376308.7364   24376308.6734   24376311.8344
     -3641.1614
  -8378141.11347  -6515612.61546  24496531.9094   24496531.2184   24496534.7434
     -2980.3624
   6358549.03447   5000119.30446  25628029.2674   25628029.4294   25628031.4214
     -3613.8764
 -16027548.57848 -12448104.18347  22613052.2524   22613051.3124   22613054.7194
     -2448.8324
 -19433133.08648 -15050640.65747  21601173.8224   21601174.1864   21601176.4444
      2596.7994
 -19063605.97049 -14814636.35248  21729834.8764   21729834.6464   21729837.8014
      1371.4244
 -25683178.07449 -19999731.09948  20347306.1224   20347306.4924   20347307.7644
       -52.1564
 -10586172.79048  -8212305.27747  23141436.1614   23141436.2394   23141438.0804
      2181.6614
 10  1  3  0 15 30.0000000  0 11G12G18G22G05G08G10G28G09G27G15G17
  -4159544.64947  -3222784.61046  24637219.1484   24637219.3694   24637221.9404
      3734.0034
 -11217876.32347  -8508176.95446  23236002.3944   23236001.5144   23236004.4304
      1515.9214
  -1324639.63547  -1021489.25046  25479386.5644   25479386.7504   25479386.2714
      2767.3244
  -1250368.17447   -962105.36146  24397098.6194   24397099.3224   24397100.8734
     -3642.0274
  -8288719.92747  -6445933.75146  24513548.0814   24513547.4254   24513552.3074
     -2981.6004
   6466894.04347   5084543.97746  25648646.4104   25648645.7714   25648649.6364
     -3609.2684
 -15953941.64248 -12390748.13747  22627058.8874   22627058.4384   22627060.1564
     -2458.3844
 -19510917.57948 -15111251.93247  21586372.3284   21586372.2834   21586374.8394
      2588.7644
 -19104661.00049 -14846627.28148  21722022.7144   21722022.2474   21722025.1514
      1365.4634
 -25681366.75049 -19998319.67948  20347650.9814   20347651.0014   20347652.5154
       -68.7114
 -10651439.28248  -8263162.27947  23129016.4394   23129016.2314   23129018.9074
      2169.4514
 10  1  3  0 16  0.0000000  0 11G12G18G22G05G08G10G28G09G27G15G17
  -4271515.24447  -3310034.45246  24615912.1974   24615913.1164   24615914.4224
      3730.6554
 -11263101.15547  -8543417.09946  23227397.1264   23227397.5714   23227398.6584
      1499.1224
  -1407507.93646  -1086061.88145  25463616.6174   25463616.4784   25463615.6094
      2757.2464
  -1141105.07647   -876965.26346  24417890.7914   24417891.4484   24417892.7294
     -3642.1074
  -8199254.04747  -6376220.07146  24530572.7884   24530572.7334   24530575.9254
     -2982.8324
   6575116.80347   5168873.38746  25669239.9234   25669240.7164   25669244.1474
     -3605.2334
 -15880052.66148 -12333172.31647  22641119.5344   22641119.9764   22641121.1374
     -2467.6044
 -19588462.68248 -15171676.67047  21571615.7304   21571616.0134   21571618.2604
      2580.9544
 -19145545.18649 -14878485.08048  21714242.6404   21714242.2934   21714245.0364
      1360.0654
 -25679066.59049 -19996527.34948  20348088.5914   20348088.8544   20348090.2164
       -84.7234
 -10716339.47548  -8313733.85447  23116665.9634   23116666.5174   23116668.0424
      2157.1924
 10  1  3  0 16 30.0000000  0 11G12G18G22G05G08G10G28G09G27G15G17
  -4383376.55047  -3397199.15246  24594625.0214   24594626.5684   24594627.6054
      3726.7554
 -11307814.57347  -8578258.72846  23218888.3734   23218887.7534   23218889.4684
      1481.7284
  -1490073.71047  -1150398.87146  25447905.7614   25447907.3814   25447904.6744
      2747.0954
  -1031833.47747   -791818.55646  24438684.5254   24438684.4414   24438686.6254
     -3642.5324
  -8109745.62347  -6306473.23146  24547605.3394   24547604.9644   24547607.5074
     -2984.5514
   6683213.56147   5253104.61146  25689810.9794   25689810.5474   25689814.9734
     -3601.1974
 -15805884.80048 -12275379.18447  22655233.4624   22655232.7314   22655235.4564
     -2476.9904
 -19665768.65248 -15231915.07147  21556904.9644   21556904.3444   21556907.7794
      2572.7794
 -19186259.89849 -14910210.83148  21706494.6944   21706494.2494   21706497.2454
      1354.2414
 -25676278.62949 -19994354.91648  20348619.1844   20348619.4224   20348620.7294
      -101.1594
 -10780872.27448  -8364019.14547  23104386.1674   23104386.4874   23104387.3274
      2144.9534
 10  1  3  0 17  0.0000000  0 10G12G18G22G05G08G28G09G27G15G17
  -4495126.08547  -3484276.64146  24573359.9494   24573359.8224   24573362.1074
      3722.8914
 -11352014.32648  -8612700.10246  23210477.7484   23210476.7944   23210478.1574
      1464.5394
  -1572333.98946  -1214497.76946  25432251.4434   25432250.6784   25432251.8164
      2736.7574
   -922555.58547   -706666.94646  24459479.1134   24459479.2434   24459481.6784
     -3643.0364
  -8020194.02147  -6236692.78746  24564646.4044   24564645.8294   24564650.7304
     -2985.9214
 -15731439.44748 -12217369.82447  22669399.9804   22669399.0334   22669401.8374
     -2486.2854
 -19742834.12248 -15291966.07147  21542239.5814   21542239.9284   21542242.2494
      2564.7504
 -19226804.36749 -14941803.91548  21698779.4354   21698779.2814   21698782.2334
      1348.5094
 -25673000.73449 -19991800.71748  20349242.9854   20349243.1564   20349244.4464
      -117.5494
 -10845034.13848  -8414015.39447  23092176.1644   23092176.3204   23092178.3524
      2132.3814
 10  1  3  0 17 30.0000000  0 10G12G18G22G05G08G28G09G27G15G17
  -4606763.06147  -3571266.50446  24552116.9764   24552116.4254   24552117.0254
      3719.3454
 -11395700.67948  -8646741.43246  23202164.4794   23202163.5484   23202164.6454
      1447.5054
  -1654287.90947  -1278357.95446  25416656.7054   25416655.9044   25416656.4174
      2726.5354
   -813275.93847   -621513.97946  24480274.3444   24480273.9104   24480276.4984
     -3643.0004
  -7930600.98546  -6166880.04246  24581695.2814   24581693.4814   24581699.5974
     -2986.9634
 -15656720.42548 -12159147.21247  22683618.5984   22683618.9894   22683620.1864
     -2495.2444
 -19819659.52348 -15351830.00647  21527620.4994   21527620.0374   21527623.0254
      2556.6984
 -19267180.29649 -14973265.67148  21691096.0134   21691095.5844   21691098.7994
      1342.9294
 -25669234.14749 -19988865.72048  20349959.7124   20349959.9464   20349961.3884
      -133.8344
 -10908823.83948  -8463721.65247  23080037.4134   23080037.6684   23080039.9644
      2120.1304
 10  1  3  0 18  0.0000000  0 10G12G18G22G05G08G28G09G27G15G17
  -4718280.86247  -3658163.46146  24530894.4754   24530896.3864   24530897.7574
      3715.2234
 -11438867.43747  -8680377.87646  23193949.4804   23193949.8124   23193952.0884
      1430.1404
  -1735928.47347  -1341974.00646  25401120.6054   25401120.9524   25401120.6244
      2716.2054
   -703991.84847   -536357.53746  24501070.3214   24501071.9194   24501073.2094
     -3643.0444
  -7840962.42146  -6097031.85446  24598753.1874   24598752.6184   24598755.6784
     -2988.7584
 -15581724.62148 -12100708.93047  22697889.6554   22697889.4204   22697890.6374
     -2504.4244
 -19896238.86748 -15411502.20847  21513047.7454   21513048.0524   21513050.4864
      2548.4614
 -19307382.74649 -15004592.25048  21683445.7524   21683445.6304   21683447.8064
      1337.1864
 -25664973.17949 -19985545.48848  20350770.5134   20350770.5454   20350772.2994
      -150.3234
 -10972233.72548  -8513131.95847  23067970.9224   23067971.3344   23067973.3504
      2107.2984
 10  1  3  0 18 30.0000000  0 10G12G18G22G05G08G28G09G27G15G17
  -4829684.32547  -3744971.30546  24509696.0844   24509695.8074   24509698.7074
      3711.6384
 -11481520.08547  -8713613.71146  23185833.8834   23185833.8704   23185834.7624
      1413.2744
  -1817260.35247  -1405349.51446  25385643.9084   25385642.4804   25385642.5664
      2705.7884
   -594713.08947   -451205.27746  24521865.4924   24521866.7104   24521868.8764
     -3642.5004
  -7751285.85546  -6027154.02346  24615818.8194   24615818.9634   24615822.6814
     -2989.6184
 -15506461.38348 -12042062.25547  22712211.8424   22712211.4854   22712212.8234
     -2513.0094
 -19972578.34748 -15470987.50447  21498520.9714   21498520.6314   21498522.9484
      2540.8154
 -19347418.70549 -15035789.10148  21675827.5974   21675827.1674   21675829.7984
      1331.9934
 -25660224.41949 -19981845.16348  20351674.0614   20351674.4214   20351675.7354
      -166.3244
 -11035268.46048  -8562249.93247  23055976.0294   23055976.3954   23055978.5034
      2095.2994
 10  1  3  0 19  0.0000000  0 10G12G18G22G05G08G28G09G27G15G17
  -4940966.55647  -3831684.69146  24488519.1674   24488518.9634   24488520.8284
      3707.3004
 -11523651.87548  -8746443.69646  23177816.6664   23177816.1004   23177816.0944
      1395.6044
  -1898275.65547  -1468478.34546  25370226.2414   25370226.6014   25370229.2734
      2695.3084
   -485437.65747   -366055.59446  24542659.5254   24542661.0044   24542662.0974
     -3641.8834
  -7661566.57846  -5957242.93846  24632891.3244   24632890.7224   24632894.6104
     -2991.5164
 -15430927.52248 -11983204.70547  22726585.3574   22726585.6384   22726586.2574
     -2522.2734
 -20048671.58848 -15530280.92747  21484040.7014   21484040.4584   21484043.2004
      2532.5104
 -19387282.97049 -15066852.16348  21668241.2444   21668241.2124   21668243.7774
      1326.0204
 -25654981.65549 -19977759.89848  20352671.7684   20352672.1154   20352673.5334
      -182.8584
 -11097919.97748  -8611069.29547  23044053.6034   23044054.6274   23044056.6464
      2082.0914
 10  1  3  0 19 30.0000000  0 10G12G18G22G05G08G28G09G27G15G17
  -5052125.71947  -3918302.18146  24467366.4374   24467367.1764   24467368.5604
      3703.4994
 -11565261.85048  -8778867.05246  23169897.7054   23169897.3194   23169898.2114
      1378.3284
  -1978972.50347  -1531359.01646  25354871.6444   25354871.6154   25354870.2294
      2684.5104
   -376167.95247   -280910.37346  24563453.3494   24563452.7534   24563455.2024
     -3642.3294
  -7571805.04146  -5887298.90046  24649973.0134   24649972.3334   24649976.9504
     -2992.8714
 -15355125.59248 -11924138.27447  22741009.7514   22741009.5004   22741010.9164
     -2531.2094
 -20124518.00848 -15589382.02947  21469607.6754   21469607.2544   21469610.2024
      2524.1334
 -19426975.86649 -15097781.69048  21660687.9804   21660687.9144   21660690.7314
      1320.3594
 -25649244.47749 -19973289.37448  20353763.5914   20353763.8214   20353765.2774
      -199.4184
 -11160185.90548  -8659588.19447  23032204.8704   23032205.0674   23032207.0734
      2069.0564
 10  1  3  0 20  0.0000000  0 10G12G18G22G05G08G28G09G27G15G17
  -5163164.22647  -4004825.67446  24446236.9484   24446236.8054   24446238.6924
      3698.0234
 -11606353.01348  -8810886.15946  23162079.3104   23162078.5894   23162078.7294
      1360.1604
  -2059352.81047  -1593993.07846  25339576.0144   25339575.1004   25339575.0414
      2673.4584
   -266911.12747   -195775.18246  24584243.9064   24584244.7274   24584247.0864
     -3642.3104
  -7482006.44946  -5817326.02746  24667060.6684   24667061.6724   24667065.0634
     -2995.1154
 -15279061.72248 -11864867.72347  22755484.4354   22755483.7264   22755485.6974
     -2540.5914
 -20200121.34948 -15648293.71447  21455220.5924   21455220.5654   21455223.4644
      2515.4554
 -19466501.55349 -15128580.92448  21653166.4954   21653166.5654   21653169.0964
      1314.0904
 -25643016.37149 -19968436.30848  20354948.7114   20354949.0004   20354950.3474
      -216.4044
 -11222067.67548  -8707807.74847  23020428.9344   23020429.2264   23020431.7364
      2055.5894
 10  1  3  0 20 30.0000000  0 10G12G18G22G05G08G28G09G27G15G17
  -5274074.39547  -4091249.11746  24425131.1514   24425131.0504   24425132.1014
      3694.6594
 -11646918.37548  -8842495.53846  23154357.9624   23154357.9474   23154360.3534
      1343.0674
  -2139408.44946  -1656374.11745  25324340.0794   25324340.2614   25324339.6964
      2662.3034
   -157663.81047   -110647.40646  24605033.1614   24605033.0284   24605035.5014
     -3641.1754
  -7392165.65646  -5747320.25946  24684156.8084   24684156.9404   24684159.1044
     -2995.6294
 -15202732.23648 -11805390.20947  22770009.4374   22770008.8494   22770010.5554
     -2548.9814
 -20275474.49648 -15707010.43847  21440881.7064   21440881.4004   21440884.1764
      2507.3804
 -19505854.18349 -15159245.31548  21645677.8494   21645677.9374   21645680.8444
      1308.4754
 -25636291.27949 -19963195.98048  20356228.4624   20356228.8484   20356230.0964
      -232.8114
 -11283557.05848  -8755721.54347  23008728.1944   23008727.6664   23008730.5594
      2042.8094
 10  1  3  0 21  0.0000000  0 10G12G18G22G05G08G28G09G27G15G17
  -5384858.78547  -4177574.64646  24404049.4624   24404049.3094   24404052.0904
      3690.6804
 -11686961.23448  -8873697.77746  23146739.0324   23146738.1734   23146740.7564
      1326.1474
  -2219141.63346  -1718503.83045  25309168.0684   25309167.5994   25309169.2984
      2652.4284
    -48433.74847    -25533.09146  24625819.0724   24625818.6724   24625821.9414
     -3640.9404
  -7302287.68647  -5677285.50546  24701259.6414   24701260.4864   24701263.0094
     -2996.2374
 -15126144.28948 -11745711.29647  22784583.6034   22784583.0924   22784584.9384
     -2557.2724
 -20350581.22848 -15765535.16147  21426589.6944   21426588.9904   21426591.2734
      2499.5804
 -19545038.62649 -15189778.64548  21638221.2934   21638221.3994   21638224.0774
      1303.4804
 -25629073.24849 -19957571.55048  20357602.0204   20357602.4064   20357603.7254
      -248.6954
 -11344656.27748  -8803331.32647  22997101.3704   22997102.0974   22997103.2054
      2030.1284
 10  1  3  0 21 30.0000000  0  9G12G18G05G08G28G09G27G15G17
  -5495512.14847  -4263797.96946  24382993.0724   24382993.0364   24382994.6704
      3686.4234
 -11726476.81748  -8904489.17346  23139219.9534   23139219.9634   23139221.2404
      1308.5384
     60779.69747     59568.29646  24646600.8974   24646602.4284   24646604.0284
     -3640.0014
  -7212368.91847  -5607218.95446  24718371.2064   24718370.0224   24718373.7684
     -2997.7604
 -15049296.18548 -11685829.65947  22799207.5154   22799206.9424   22799208.8304
     -2565.6384
 -20425437.28548 -15823864.54347  21412344.8214   21412344.6944   21412346.6594
      2491.3164
 -19584051.26749 -15220178.10248  21630797.5534   21630797.2434   21630799.9874
      1297.7344
 -25621358.13249 -19951559.77448  20359070.1654   20359070.3924   20359071.8674
      -265.2314
 -11405359.10348  -8850632.22447  22985550.2914   22985550.5194   22985552.0274
      2017.0324
 10  1  3  0 22  0.0000000  0  9G12G18G05G08G28G09G27G15G17
  -5606036.09647  -4349920.54146  24361961.0534   24361960.3774   24361961.5684
      3682.1624
 -11765467.58548  -8934871.57547  23131799.5184   23131800.4074   23131801.3734
      1290.9734
    169970.57847    144652.08346  24667379.9824   24667380.1474   24667382.8164
     -3638.9244
  -7122413.87047  -5537124.13646  24735489.3404   24735488.2654   24735493.5284
     -2998.3114
 -14972193.62748 -11625749.74347  22813879.6824   22813878.8854   22813881.3534
     -2574.1454
 -20500045.25048 -15882000.61247  21398147.2714   21398147.0304   21398149.7734
      2482.8584
 -19622895.99349 -15250446.72048  21623405.6364   21623405.6594   21623408.2314
      1292.1464
 -25613149.25049 -19945163.24448  20360632.3484   20360632.5864   20360633.9364
      -281.6804
 -11465666.44748  -8897624.95547  22974074.1624   22974074.6984   22974076.6054
      2003.8584
 10  1  3  0 22 30.0000000  0  9G12G18G05G08G28G09G27G15G17
  -5716426.04947  -4435938.66246  24340953.9104   24340953.1354   24340957.1564
      3676.8374
 -11803929.62948  -8964842.02846  23124480.8944   23124480.6004   23124482.4444
      1273.1294
    279138.84247    229718.25846  24688154.3024   24688154.2034   24688157.2384
     -3638.7234
  -7032420.19547  -5466999.18846  24752614.3214   24752613.3334   24752616.7224
     -3000.6374
 -14894835.87548 -11565470.97747  22828600.2374   22828599.7004   22828601.2504
     -2582.9564
 -20574401.44548 -15939940.49447  21383997.7634   21383997.7074   21384000.1974
      2474.1824
 -19661569.86449 -15280582.19948  21616046.2034   21616046.0644   21616048.6404
      1286.0884
 -25604443.16349 -19938379.28148  20362288.9754   20362289.1734   20362290.6874
      -298.6364
 -11525573.32248  -8944305.61847  22962674.2114   22962674.6064   22962675.8754
      1989.9804
 10  1  3  0 23  0.0000000  0  9G12G18G05G08G28G09G27G15G17
  -5826682.86247  -4521853.06046  24319973.2494   24319973.8044   24319975.1664
      3672.8354
 -11841864.36748  -8994401.59046  23117262.6844   23117262.1534   23117263.7144
      1255.7074
    388279.02647    314762.53346  24708922.9654   24708923.1484   24708925.1304
     -3637.4474
  -6942391.10647  -5396846.65846  24769746.6104   24769746.3864   24769749.3694
     -3001.4934
 -14817228.33948 -11504997.58247  22843368.2224   22843367.7094   22843369.1474
     -2591.0334
 -20648507.57348 -15997685.50947  21369895.5824   21369895.2914   21369898.1464
      2465.8474
 -19700075.61249 -15310586.67748  21608718.9074   21608718.6814   21608721.3284
      1280.6154
 -25595241.92249 -19931209.49048  20364039.9254   20364040.1014   20364041.5454
      -315.0074
 -11585080.22648  -8990674.62947  22951350.0194   22951350.2644   22951352.2934
      1976.9034
 10  1  3  0 23 30.0000000  0  9G12G18G05G08G28G09G27G15G17
  -5936800.72447  -4607659.18646  24299017.9714   24299019.5374   24299020.0604
      3667.7514
 -11879266.98848  -9023546.50046  23110145.4544   23110143.9124   23110145.1414
      1237.4084
    497392.37547    399785.92046  24729686.2144   24729686.8544   24729688.6344
     -3637.0184
  -6852323.40347  -5326664.02446  24786885.4044   24786884.3344   24786888.2574
     -3003.9424
 -14739368.78448 -11444327.80747  22858184.3464   22858183.6414   22858186.5204
     -2599.9694
 -20722358.59048 -16055231.74747  21355842.3384   21355842.2554   21355844.5344
      2456.9224
 -19738409.14949 -15340456.95848  21601424.2594   21601423.8484   21601426.7924
      1274.4044
 -25585541.24549 -19923650.52448  20365885.8334   20365886.2354   20365887.4714
      -332.2054
 -11644179.87848  -9036726.29847  22940103.7324   22940104.1234   22940105.4944
      1962.6524
 10  1  3  0 24  0.0000000  0 10G12G18G22G05G08G28G09G27G15G17
  -6046778.99647  -4693356.54346  24278090.2944   24278090.2164   24278093.0994
      3663.9104
 -11916137.48848  -9052276.76246  23103128.8404   23103128.2264   23103129.9224
      1220.0464
   -872089.850 7                  25219452.100
      2585.273
    606474.65147    484785.08946  24750443.3644   24750443.4714   24750446.2734
     -3636.0164
  -6762218.74547  -5256452.61246  24804031.7434   24804030.9294   24804034.8744
     -3004.0614
 -14661260.37848 -11383464.12047  22873047.9424   22873046.7214   22873050.0044
     -2607.7664
 -20795955.31048 -16112579.83747  21341837.1674   21341837.6984   21341839.5954
      2448.8384
 -19776571.92949 -15370194.18148  21594162.0434   21594161.9914   21594164.6784
      1269.2364
 -25575341.98949 -19915703.05748  20367826.7414   20367827.0394   20367828.2864
      -348.3744
 -11702871.47448  -9082460.00447  22928935.4624   22928935.4284   22928937.1084
      1949.4494
 10  1  3  0 24 30.0000000  0 10G12G18G22G05G08G28G09G27G15G17
  -6156614.38547  -4778942.54146  24257188.7394   24257190.1614   24257191.1934
      3658.8454
 -11952473.37848  -9080590.44746  23096213.9784   23096213.7904   23096215.0294
      1202.0164
   -949486.920 7                  25204722.279
      2575.749
    715524.85847    569759.25746  24771195.1004   24771195.8254   24771196.9994
     -3634.5414
  -6672076.23847  -5186211.70746  24821185.5044   24821185.1654   24821188.1554
     -3005.4514
 -14582904.40248 -11322407.52147  22887958.8404   22887958.1364   22887960.5824
     -2615.9524
 -20869295.52148 -16169728.04447  21327881.4064   21327880.8044   21327883.9184
      2440.2684
 -19814562.62049 -15399797.31648  21586932.5094   21586932.6114   21586935.0904
      1263.5174
 -25564642.24349 -19907365.60048  20369862.9324   20369863.2454   20369864.5314
      -365.1114
 -11761151.27248  -9127872.83747  22917845.0024   22917845.5594   22917847.3234
      1935.7134
 10  1  3  0 25  0.0000000  0 10G12G18G22G05G08G28G09G27G15G17
  -6266309.27147  -4864419.08746  24236314.7324   24236315.3344   24236317.2604
      3654.6384
 -11988278.03148  -9108490.18746  23089400.9574   23089398.3614   23089401.6124
      1184.8004
  -1026543.87747   -640662.89146  25190060.6664   25190058.8854   25190060.3434
      2562.9024
    824535.88247    654702.89746  24791939.7114   24791940.6154   24791943.2954
     -3632.8454
  -6581900.95147  -5115945.26146  24838345.3864   24838344.9554   24838348.0004
     -3006.2614
 -14504307.67048 -11261163.32247  22902915.2904   22902914.7094   22902916.3154
     -2623.6354
 -20942382.34948 -16226678.81347  21313973.5624   21313973.5044   21313975.7654
      2432.1774
 -19852385.71649 -15429269.85248  21579735.2894   21579734.8464   21579737.8904
      1258.3104
 -25553446.00749 -19898641.26648  20371993.5494   20371993.8384   20371995.1594
      -381.2194
 -11819021.08048  -9172966.19547  22906832.9104   22906832.9974   22906835.0724
      1922.3564
 10  1  3  0 25 30.0000000  0 10G12G18G22G05G08G28G09G27G15G17
  -6375859.61347  -4949782.95446  24215467.8984   24215467.9714   24215470.2214
      3649.2824
 -12023547.46148  -9135972.85346  23082689.4164   23082688.1564   23082690.9934
      1166.9364
  -1103255.82547   -700438.38046  25175463.2494   25175462.9214   25175461.0544
      2551.3404
    933507.80646    739616.07346  24812675.3314   24812675.5634   24812679.0284
     -3631.4864
  -6491690.15447  -5045651.13546  24855511.9934   24855511.4384   24855515.5144
     -3007.4284
 -14425468.83248 -11199730.46747  22917917.8394   22917917.8794   22917919.2254
     -2631.7004
 -21015212.07048 -16283429.24547  21300114.1764   21300113.7964   21300116.2994
      2423.5924
 -19890038.22949 -15458609.46148  21572570.2164   21572569.6104   21572573.0454
      1252.4634
 -25541750.00949 -19889527.51148  20374219.0914   20374219.2304   20374220.7994
      -398.0264
 -11876475.49448  -9217735.85847  22895899.5764   22895899.8764   22895901.9664
      1908.4874
 10  1  3  0 26  0.0000000  0 10G12G18G22G05G08G28G09G27G15G17
  -6485264.26147  -5035033.35946  24194649.4194   24194649.6834   24194650.7964
      3644.5904
 -12058282.19348  -9163038.87847  23076079.3144   23076080.2344   23076080.0664
      1149.0024
  -1179621.66147   -759944.28146  25160929.9804   25160930.1214   25160932.1534
      2540.1054
   1042436.52447    824495.55546  24833404.4714   24833405.3044   24833408.7604
     -3630.1644
  -6401446.11147  -4975331.12446  24872684.6234   24872683.5844   24872687.2634
     -3008.5824
 -14346391.70848 -11138111.93247  22932965.8414   22932965.8354   22932967.7244
     -2639.7044
 -21087785.32948 -16339979.83347  21286304.2744   21286303.8124   21286305.9364
      2414.9524
 -19927521.75249 -15487817.39448  21565437.1464   21565436.9634   21565439.9884
      1246.7314
 -25529555.59249 -19880025.37448  20376539.5364   20376539.9314   20376541.4084
      -414.6634
 -11933513.63048  -9262181.14947  22885045.1644   22885045.8304   22885047.3934
      1894.3634
 10  1  3  0 26 30.0000000  0 10G12G18G22G05G08G28G09G27G15G17
  -6594519.86347  -5120167.56146  24173858.5904   24173858.2284   24173860.2674
      3638.7424
 -12092479.32248  -9189686.00647  23069572.8074   23069571.7974   23069572.6814
      1130.3774
  -1255637.83747   -819177.65246  25146466.4754   25146466.5404   25146463.7564
      2527.3794
   1151321.02346    909340.59846  24854125.1244   24854125.1764   24854127.6064
     -3628.9984
  -6311167.35847  -4904984.04046  24889864.2964   24889864.4754   24889865.9244
     -3010.3044
 -14267076.20048 -11076307.65547  22948058.5914   22948059.5934   22948060.8514
     -2648.3344
 -21160099.20048 -16396328.29547  21272543.2184   21272542.9284   21272545.1064
      2405.5024
 -19964834.19049 -15516892.01348  21558336.8634   21558336.6624   21558339.6264
      1240.2154
 -25516860.46549 -19870133.07748  20378955.5924   20378955.6544   20378957.2084
      -432.1304
 -11990131.21548  -9306298.74247  22874271.6334   22874271.4174   22874273.4864
      1879.5944
 10  1  3  0 27  0.0000000  0 10G12G18G22G05G08G28G09G27G15G17
  -6703625.58747  -5205185.03346  24153096.5374   24153096.4494   24153097.4124
      3633.9124
 -12126139.06648  -9215914.35747  23063166.3074   23063164.7144   23063167.4874
      1112.8464
  -1331303.15046   -878137.66745  25132064.0234   25132061.2694   25132063.6004
      2516.3554
   1260157.85947    994148.50146  24874836.4004   24874836.1884   24874838.6684
     -3627.2294
  -6220855.29047  -4834611.03246  24907050.1064   24907048.9554   24907052.4724
     -3010.7424
 -14187526.08948 -11014320.55747  22963196.9054   22963195.6904   22963199.4834
     -2655.6174
 -21232154.02048 -16452474.90447  21258831.6484   21258831.1854   21258833.5684
      2397.4274
 -20001976.97949 -15545834.43748  21551268.9994   21551268.6754   21551271.5604
      1235.2054
 -25503664.88149 -19859850.81348  20381466.6544   20381466.7694   20381468.1754
      -448.2934
 -12046327.14448  -9350087.76847  22863577.8444   22863578.3614   22863579.8524
      1865.9894
 10  1  3  0 27 30.0000000  0 10G12G18G22G05G08G28G09G27G15G17
  -6812578.78347  -5290083.60846  24132363.4014   24132363.8694   24132365.0774
      3629.5784
 -12159259.72348  -9241722.65446  23056864.1334   23056864.0124   23056865.2734
      1095.3074
  -1406614.82547   -936822.08946  25117736.1154   25117736.3084   25117736.2854
      2504.6954
   1368944.65147   1078917.41446  24895537.4074   24895537.7564   24895541.0864
     -3624.9224
  -6130509.86447  -4764212.00946  24924241.6984   24924239.7954   24924245.3844
     -3012.1604
 -14107742.71348 -10952151.70847  22978378.8704   22978379.1394   22978381.3544
     -2663.1524
 -21303948.21348 -16508418.42147  21245169.4994   21245169.6724   21245172.0904
      2389.0954
 -20038949.60849 -15574644.26948  21544232.9024   21544233.0404   21544235.9484
      1229.9054
 -25489968.22749 -19849178.10248  20384072.7704   20384073.1754   20384074.5264
      -464.6404
 -12102098.24748  -9393545.76647  22852965.0044   22852965.3114   22852966.9624
      1852.2874
 10  1  3  0 28  0.0000000  0 10G12G18G22G05G08G28G09G27G15G17
  -6921379.46347  -5374863.34646  24111659.2324   24111659.6434   24111662.1264
      3624.0994
 -12191842.12748  -9267111.53046  23050663.7704   23050663.1814   23050665.0184
      1077.0354
  -1481572.14547   -995230.41145  25103469.7804   25103469.3904   25103468.1954
      2492.7924
   1477677.37247   1163644.16846  24916228.1864   24916229.4194   24916230.4204
     -3623.6944
  -6040133.10347  -4693788.56046  24941440.6124   24941439.6994   24941441.0384
     -3013.2524
 -14027729.90948 -10889804.06647  22993605.2194   22993603.6924   22993606.2904
     -2671.1594
 -21375482.64048 -16564159.52747  21231557.1264   21231557.0984   21231559.3144
      2380.1594
 -20075753.31149 -15603322.46948  21537229.9524   21537229.4144   21537232.5664
      1224.0154
