     2.11           OBSERVATION DATA    G (GPS)             RINEX VERSION / TYPE
teqc  2009Oct19     administrateur ccgps20100105 00:06:08UTCPGM / RUN BY / DATE
Solaris 5.9|UltraSparc IIe|cc -xarch=v9 SC5.8|=+-|*Sparc    COMMENT
teqc  2009Oct19     administrateur ccgps20100104 10:01:32UTCCOMMENT
teqc  2009Oct19     CNES                20100104 09:48:14UTCCOMMENT
MSXP|IAx86-PII|bcc32 5.0|MSWin95->XP|486/DX+                COMMENT
teqc  2009Oct19                         20100104 09:48:13UTCCOMMENT
BIT 2 OF LLI FLAGS DATA COLLECTED UNDER A/S CONDITION       COMMENT
GRAS                                                        MARKER NAME
10002M006                                                   MARKER NUMBER
CARDALIAGUET        CNES                                    OBSERVER / AGENCY
48002               ASHTECH UZ-12       CN00-1A01           REC # / TYPE / VERS
24222               ASH701945E_M    NONE                    ANT # / TYPE
  4581696.7100   556116.2900  4389366.3900                  APPROX POSITION XYZ
        0.0350        0.0000        0.0000                  ANTENNA: DELTA H/E/N
     1     1                                                WAVELENGTH FACT L1/2
     7    L1    L2    C1    P1    P2    D1    D2            # / TYPES OF OBSERV
    30.0000                                                 INTERVAL
Version: Version:                                           COMMENT
Project: A002_______CNE_____________                        COMMENT
 SNR is mapped to RINEX snr flag value [0-9]                COMMENT
  L1 & L2: min(max(int(snr_dBHz/6), 0), 9)                  COMMENT
pseudorange smoothing corrections not applied               COMMENT
Forced Modulo Decimation to 30 seconds                      COMMENT
  2010     1     4     0     0    0.0000000     GPS         TIME OF FIRST OBS
                                                            END OF HEADER
 10  1  4  0  0  0.0000000  0 10G05G28G08G12G09G18G10G27G17G15
  -5948100.35947  -4620409.38446  23925791.8554   23925791.6074   23925793.9804
     -3607.9594
 -17176877.70648 -13334691.70547  22321996.7964   22321995.8584   22321998.0834
     -2225.0704
  -9026783.58047  -7029085.86546  24124765.3314   24124765.0474   24124768.6364
     -2941.7784
  -2864097.80747  -2217581.73845  25133123.8284   25133125.7094   25133127.8264
      3800.1284
 -17848579.50448 -13689984.05447  21932997.2114   21932997.1374   21933000.1484
      2762.0684
 -10223873.87047  -7926831.09946  23457828.5464   23457828.3614   23457829.9764
      1890.8204
   2242780.34747   1753082.83346  25181993.5344   25181993.5454   25181997.4424
     -3681.4554
 -16822443.83548 -13091922.74647  21908516.2544   21908516.4054   21908519.1854
      1496.3534
  -8965031.51548  -6950786.33647  23429688.9564   23429689.6714   23429690.8534
      2426.0034
 -24823133.08349 -19333485.22748  20362723.7134   20362723.9444   20362725.3804
       297.4664
 10  1  4  0  0 30.0000000  0 10G05G28G08G12G09G18G10G27G17G15
  -5839802.94747  -4536021.78546  23946399.8904   23946400.4504   23946401.0534
     -3610.8084
 -17109941.31948 -13282533.48247  22334734.1014   22334734.2524   22334735.8214
     -2236.5244
  -8938481.95747  -6960279.41046  24141568.2554   24141566.9224   24141571.3094
     -2944.3574
  -2978052.32947  -2306377.48846  25111438.8494   25111438.5004   25111441.3514
      3797.1374
 -17931314.89848 -13754453.17147  21917253.0034   21917252.8434   21917256.8944
      2754.3504
 -10280342.09347  -7970832.31246  23447082.7984   23447081.7474   23447085.6094
      1874.1874
   2353213.08347   1839134.34046  25203007.8504   25203006.7674   25203009.5134
     -3679.7694
 -16867227.78748 -13126819.31047  21899994.2684   21899994.2714   21899997.0744
      1490.0754
  -9037642.10648  -7007366.00447  23415871.5524   23415871.2954   23415872.6334
      2415.4994
 -24831802.33249 -19340240.48948  20361074.0384   20361074.3774   20361075.5934
       281.2544
 10  1  4  0  1  0.0000000  0 10G05G28G08G12G09G18G10G27G17G15
  -5731432.68647  -4451577.42046  23967022.0384   23967021.6384   23967024.8114
     -3613.8404
 -17042677.15248 -13230119.84547  22347534.0924   22347533.7154   22347535.8064
     -2247.7384
  -8850123.68247  -6891428.81146  24158383.0584   24158381.2904   24158385.1794
     -2946.5484
  -3091941.88447  -2395122.57946  25089766.3674   25089766.3824   25089769.0314
      3794.8334
 -18013831.06648 -13818751.47747  21901550.7194   21901551.0514   21901553.4414
      2746.7164
 -10336335.06647  -8014463.21546  23436428.6914   23436427.8624   23436429.3084
      1858.2924
   2463572.72247   1925128.91645  25224008.5254   25224007.9664   25224014.7774
     -3677.2694
 -16911840.27748 -13161582.27247  21891504.7854   21891504.4844   21891507.3584
      1484.0524
  -9109948.43848  -7063708.58747  23402111.9084   23402112.0054   23402114.7174
      2404.9534
 -24840002.37249 -19346630.13548  20359513.4934   20359513.8044   20359515.2294
       265.3004
 10  1  4  0  1 30.0000000  0 10G05G28G08G12G09G18G10G27G17G15
  -5622992.88647  -4367078.88346  23987657.7654   23987659.0704   23987660.4484
     -3616.0394
 -16975087.70748 -13177452.74247  22360396.0584   22360395.5274   22360397.4674
     -2258.7924
  -8761709.73347  -6822534.84346  24175207.2174   24175205.3684   24175210.8114
     -2948.3324
  -3205765.10447  -2483816.00146  25068106.5074   25068106.5684   25068109.7414
      3792.7224
 -18096127.21948 -13882878.35847  21885890.5174   21885890.5344   21885892.9764
      2739.0984
 -10391851.40247  -8057722.67846  23425864.0584   23425863.5504   23425865.3694
      1842.1284
   2573856.68847   2011064.46445  25244994.4014   25244992.3704   25244996.6314
     -3675.1174
 -16956281.51748 -13196211.79847  21883047.7134   21883047.5504   21883051.1384
      1478.0814
  -9181948.08948  -7119812.19747  23388410.6934   23388410.0674   23388413.0594
      2394.5364
 -24847732.51849 -19352653.62848  20358042.4974   20358042.7384   20358044.1784
       249.4604
 10  1  4  0  2  0.0000000  0 10G05G28G08G12G09G18G10G27G17G15
  -5514484.01947  -4282526.52046  24008306.1564   24008306.2584   24008308.7434
     -3618.0964
 -16907172.58448 -13124531.87047  22373319.8234   22373318.9954   22373321.7914
     -2269.3214
  -8673238.43847  -6753596.18046  24192042.5714   24192042.0324   24192045.1694
     -2949.9274
  -3319517.18747  -2572453.98746  25046460.0864   25046461.6884   25046463.0634
      3790.5484
 -18178200.20848 -13946831.32647  21870272.0694   21870271.7504   21870274.7944
      2732.0754
 -10446886.68647  -8100607.32046  23415390.4944   23415389.7774   23415392.0564
      1826.5904
   2684064.85547   2096941.02845  25265967.1244   25265966.7844   25265969.8604
     -3672.3764
 -17000549.13048 -13230706.02447  21874624.1704   21874623.9274   21874627.1114
      1472.7104
  -9253635.58648  -7175672.58047  23374769.0574   23374769.7124   23374771.3734
      2384.4464
 -24854989.49449 -19358308.41548  20356661.5834   20356661.6774   20356663.2024
       233.9694
 10  1  4  0  2 30.0000000  0 10G05G28G08G12G09G18G10G27G17G15
  -5405912.12147  -4197925.04346  24028966.2034   24028966.8964   24028969.9494
     -3619.8254
 -16838937.20948 -13071361.44647  22386304.3824   22386303.8344   22386306.7644
     -2279.5834
  -8584713.76347  -6684615.91946  24208888.1644   24208888.1334   24208891.2784
     -2951.4274
  -3433199.72847  -2661037.78146  25024827.3474   25024826.8264   25024829.7354
      3788.4464
 -18260052.77548 -14010612.53747  21854696.3814   21854696.2094   21854699.3514
      2725.2224
 -10501442.61847  -8143118.42446  23405009.2214   23405008.8634   23405010.6134
      1810.8874
   2794191.78147   2182754.23945  25286924.1244   25286925.8644   25286926.5854
     -3669.2114
 -17044646.82648 -13265067.84647  21866232.6994   21866232.2934   21866235.5154
      1467.3754
  -9325011.29148  -7231289.99147  23361186.9514   23361187.5034   23361188.9824
      2374.1854
 -24861775.53549 -19363596.24348  20355370.1114   20355370.4034   20355371.8864
       218.6544
 10  1  4  0  3  0.0000000  0 10G05G28G08G12G09G18G10G27G17G15
  -5297278.96347  -4113275.83847  24049638.6884   24049639.6694   24049640.6664
     -3621.4354
 -16770382.91848 -13017942.51747  22399350.4014   22399349.6044   22399352.3854
     -2290.1754
  -8496134.82147  -6615593.37446  24225744.5874   24225743.4094   24225748.2804
     -2953.1194
  -3546809.97947  -2749565.27146  25003208.2734   25003207.6624   25003210.1644
      3786.2864
 -18341682.89748 -14074220.39347  21839162.4664   21839162.4414   21839165.2264
      2717.6464
 -10555516.51647  -8185253.95446  23394719.7464   23394719.0964   23394720.0784
      1794.8074
   2904235.67046   2268502.77045  25307863.7414   25307864.5614   25307867.3854
     -3666.6524
 -17088573.59648 -13299296.48547  21857873.6234   21857873.5614   21857876.4684
      1461.7454
  -9396071.35348  -7286661.45647  23347664.2664   23347664.4404   23347666.9794
      2363.6894
 -24868088.82149 -19368515.68848  20354168.8324   20354168.9934   20354170.6204
       202.8564
 10  1  4  0  3 30.0000000  0 10G05G28G08G12G09G18G10G27G17G15
  -5188588.77647  -4028582.19647  24070321.9824   24070321.2624   24070324.2034
     -3623.6504
 -16701512.82848 -12964277.51247  22412455.5904   22412455.3284   22412457.3654
     -2300.7404
  -8407503.05247  -6546529.67346  24242610.5784   24242610.2074   24242612.4884
     -2955.0044
  -3660346.63647  -2838035.37346  24981602.7494   24981603.3034   24981605.6854
      3783.6934
 -18423090.64348 -14137654.98647  21823671.3604   21823671.6304   21823673.6974
      2710.2704
 -10609107.71647  -8227013.33146  23384520.9714   23384519.5474   23384522.1854
      1778.3994
   3014193.54047   2354184.21645  25328788.2304   25328789.5414   25328792.4164
     -3663.1364
 -17132330.48148 -13333392.74247  21849546.7104   21849546.7474   21849549.1714
      1456.0364
  -9466814.38648  -7341785.88147  23334202.6314   23334202.5334   23334204.5414
      2353.1054
 -24873929.32049 -19373066.73148  20353057.4154   20353057.6424   20353059.1344
       187.1344
 10  1  4  0  4  0.0000000  0 10G05G28G08G12G09G18G10G27G17G15
  -5079838.78047  -3943841.95147  24091015.9084   24091016.2144   24091019.8064
     -3626.1844
 -16632323.56348 -12910363.79247  22425622.0544   22425621.5154   22425623.6664
     -2311.5684
  -8318814.47647  -6477421.71046  24259487.1214   24259486.7054   24259489.5944
     -2957.4454
  -3773802.78047  -2926442.72746  24960011.8624   24960012.4524   24960014.5874
      3780.6194
 -18504269.96848 -14200911.58047  21808223.1134   21808223.1784   21808225.8434
      2702.3014
 -10662209.34747  -8268391.21746  23374417.5594   23374417.4184   23374416.5494
      1761.7304
   3124067.90646   2439800.69345  25349697.3594   25349694.6374   25349698.1204
     -3661.4724
 -17175912.43548 -13367352.68847  21841253.3824   21841253.3774   21841255.7524
      1449.7404
  -9537232.16048  -7396656.86347  23320802.3874   23320803.0554   23320804.9984
      2341.7244
 -24879291.07649 -19377244.72648  20352037.1674   20352037.3814   20352038.8314
       170.7414
 10  1  4  0  4 30.0000000  0 10G05G28G08G12G09G18G10G27G17G15
  -4971038.01347  -3859062.13547  24111720.2454   24111720.9374   24111723.7164
     -3627.5234
 -16562823.14248 -12856207.61947  22438847.2964   22438846.9144   22438848.8184
     -2321.9864
  -8230075.24247  -6408274.26246  24276373.8194   24276372.2834   24276376.6724
     -2958.8684
  -3887182.57147  -3014790.62046  24938437.5544   24938438.8414   24938440.7214
      3777.9454
 -18585225.70248 -14263993.94747  21792817.8754   21792817.4034   21792819.9094
      2694.6694
 -10714825.67347  -8309390.93646  23364403.6524   23364403.5094   23364406.6134
      1745.5954
   3233850.24546   2525345.36345  25370588.4914   25370583.5584   25370589.0774
     -3657.9544
 -17219325.32348 -13401180.90047  21832992.2414   21832991.9594   21832994.6824
      1444.1924
  -9607327.79948  -7451276.82847  23307463.3834   23307463.5424   23307466.0694
      2331.1744
 -24884179.13649 -19381053.60548  20351107.0044   20351107.1554   20351108.6054
       154.9864
 10  1  4  0  5  0.0000000  0 10G05G28G08G12G09G18G10G27G17G15
  -4862189.80647  -3774245.35346  24132433.4574   24132433.9894   24132436.4414
     -3629.7674
 -16493014.72748 -12801811.45047  22452131.4624   22452130.8834   22452132.9794
     -2332.7254
  -8141286.93947  -6339088.58946  24293269.3424   24293269.5314   24293271.7544
     -2961.0714
  -4000484.52647  -3103077.88846  24916876.8224   24916877.8734   24916879.2754
      3775.0074
 -18665957.75748 -14326902.02947  21777455.2274   21777455.0124   21777457.7774
      2686.6504
 -10766955.44247  -8350011.53346  23354483.8994   23354483.4024   23354485.0384
      1728.7844
   3343537.93956   2610816.31955  25391460.0744   25391459.9874   25391464.9584
     -3654.8184
 -17262569.90448 -13434877.96347  21824762.9294   21824762.7254   21824766.0674
      1437.9514
  -9677099.14148  -7505644.11247  23294186.6244   23294187.1004   23294188.7494
      2319.6394
 -24888593.01349 -19384492.99448  20350266.9984   20350267.3464   20350268.7624
       138.5334
 10  1  4  0  5 30.0000000  0 10G05G28G08G12G09G18G10G27G17G15
  -4753289.55847  -3689388.03346  24153156.2164   24153157.1614   24153160.0044
     -3630.8244
 -16422892.84248 -12747171.02447  22465475.1624   22465474.8824   22465476.6354
     -2342.5124
  -8052443.11447  -6269859.64546  24310175.8444   24310176.4304   24310179.1374
     -2961.9594
  -4113699.04946  -3191296.95646  24895332.0194   24895332.4844   24895334.3654
      3772.5334
 -18746457.79648 -14389629.31147  21762136.3914   21762136.0624   21762138.9384
      2679.5704
 -10818589.80747  -8390246.11546  23344658.7724   23344657.6674   23344660.8354
      1712.9714
   3453135.95046   2696217.38645  25412316.0484   25412314.7754   25412317.1424
     -3651.5304
 -17305638.94348 -13468438.24047  21816567.2304   21816567.1904   21816570.1564
      1432.9774
  -9746535.73148  -7559750.53947  23280973.2154   23280973.5974   23280975.6594
      2309.0704
 -24892524.68449 -19387556.64348  20349518.8924   20349519.2164   20349520.6514
       123.2084
 10  1  4  0  6  0.0000000  0 10G05G28G08G12G09G18G10G27G17G15
  -4644346.45647  -3604497.31146  24173887.8494   24173887.4984   24173890.9424
     -3632.2714
 -16352465.66548 -12692292.70747  22478876.5474   22478876.1754   22478878.9104
     -2352.7484
  -7963549.93447  -6200592.22746  24327091.0114   24327091.8194   24327093.5544
     -2963.8844
  -4226830.31146  -3279451.12346  24873805.1054   24873804.6684   24873807.1174
      3769.4694
 -18826731.16348 -14452179.96347  21746860.9674   21746860.9904   21746863.2124
      2671.8174
 -10869733.13847  -8430098.07346  23334925.4914   23334925.2624   23334927.9214
      1696.4094
   3562635.53156   2781541.72955  25433152.8134   25433153.4064   25433156.7254
     -3648.6234
 -17348538.63548 -13501866.55947  21808403.5834   21808403.3504   21808406.5604
      1427.0454
  -9815641.30348  -7613599.04047  23267823.1824   23267823.0574   23267825.1444
      2297.8984
 -24895979.60549 -19390248.79548  20348861.4194   20348861.5954   20348863.1464
       107.0804
 10  1  4  0  6 30.0000000  0 10G05G28G08G12G09G18G10G27G17G15
  -4535363.33847  -3519575.40746  24194626.3084   24194626.5434   24194629.7724
     -3633.9754
 -16281735.55248 -12637178.33647  22492336.5604   22492336.3144   22492338.5624
     -2363.1804
  -7874608.50247  -6131287.22746  24344016.5274   24344014.9694   24344020.5844
     -2966.0814
  -4339876.89446  -3367539.37946  24852291.8764   24852293.3264   24852295.4584
      3766.4284
 -18906776.99448 -14514553.30947  21731628.5204   21731628.5024   21731631.6794
      2663.9754
 -10920384.02947  -8469566.30546  23325287.7254   23325287.7464   23325288.4174
      1679.5614
   3672034.32946   2866787.49045  25453971.4334   25453972.4934   25453974.5464
     -3644.9044
 -17391269.47748 -13535163.29647  21800272.3674   21800271.9754   21800275.6464
      1421.0104
  -9884412.99748  -7667187.35847  23254736.3224   23254736.3444   23254738.0794
      2286.2524
 -24898956.32049 -19392568.31948  20348295.0814   20348295.1324   20348296.7104
        90.7334
 10  1  4  0  7  0.0000000  0 10G05G28G08G12G09G18G10G27G17G15
  -4426340.05747  -3434622.21546  24215372.7144   24215373.7254   24215375.6364
     -3635.2924
 -16210701.90948 -12581827.44747  22505853.7554   22505853.5204   22505855.1954
     -2372.9984
  -7785616.11847  -6061942.52446  24360951.3554   24360950.7054   24360953.3854
     -2967.3334
  -4452833.81946  -3455557.76246  24830796.5084   24830798.4294   24830798.5694
      3763.2404
 -18986591.62148 -14576746.49747  21716440.7114   21716440.1634   21716443.2784
      2656.4244
 -10970538.01047  -8508647.32646  23315742.4234   23315741.3174   23315744.1004
      1663.4514
   3781332.87646   2951955.19345  25474770.3474   25474769.6064   25474772.6064
     -3641.6754
 -17433828.49149 -13568326.14148  21792173.7734   21792173.6994   21792176.4234
      1415.6014
  -9952845.30148  -7720511.22847  23241713.8204   23241713.5054   23241716.3364
      2275.0394
 -24901451.16249 -19394512.35648  20347820.2604   20347820.2914   20347821.9764
        74.9044
 10  1  4  0  7 30.0000000  0 10G05G28G08G12G09G18G10G27G17G15
  -4317278.72847  -3349639.37746  24236125.9704   24236127.1034   24236130.0794
     -3635.1284
 -16139366.25248 -12526241.22147  22519428.5244   22519428.0284   22519429.9634
     -2382.1624
  -7696572.74447  -5992558.07246  24377895.7224   24377894.5924   24377898.5694
     -2968.2154
  -4565698.52046  -3543504.21146  24809320.1854   24809320.9964   24809321.9214
      3761.0594
 -19066173.45648 -14638758.28547  21701296.4144   21701295.5734   21701298.8694
      2649.6404
 -11020192.92547  -8547339.47746  23306294.3114   23306294.0254   23306295.0524
      1647.7804
   3890529.66846   3037043.59945  25495550.3554   25495549.2164   25495552.2984
     -3637.0594
 -17476215.15849 -13601354.69748  21784107.6684   21784107.3174   21784110.2794
      1410.8074
 -10020934.60848  -7773567.81847  23228756.8914   23228757.4574   23228758.6064
      2264.5364
 -24903462.97649 -19396080.00948  20347437.3664   20347437.6184   20347439.1554
        59.7284
 10  1  4  0  8  0.0000000  0 10G05G28G08G12G09G18G10G27G17G15
  -4208187.02747  -3264632.86546  24256885.3654   24256885.3624   24256888.4514
     -3637.0254
 -16067734.87648 -12470424.56647  22533059.4464   22533059.3624   22533060.9044
     -2392.7984
  -7607483.05047  -5923137.54146  24394849.1494   24394848.8364   24394851.2774
     -2970.6524
  -4678473.22247  -3631380.59846  24787859.2484   24787858.9994   24787862.3504
      3757.2544
 -19145526.02648 -14700591.43247  21686196.4424   21686196.1804   21686199.2244
      2641.0154
 -11069351.44447  -8585644.81646  23296940.0524   23296939.8374   23296941.5494
      1629.9974
   3999617.99046   3122047.56745  25516308.2854   25516306.3814   25516311.0894
     -3634.8574
 -17518433.76548 -13634252.29548  21776073.7984   21776073.4394   21776076.2804
      1404.3224
 -10088682.55048  -7826358.41347  23215864.8744   23215865.9164   23215866.9084
      2252.2644
 -24904995.49549 -19397274.18748  20347145.7584   20347146.0504   20347147.5444
        42.9164
 10  1  4  0  8 30.0000000  0 10G05G28G08G12G09G18G10G27G17G15
  -4099063.75447  -3179601.75446  24277651.3764   24277651.5874   24277654.2584
     -3637.7844
 -15995806.83448 -12414376.74547  22546747.0794   22546746.7384   22546748.6434
     -2402.3584
  -7518344.88647  -5853679.23146  24411811.4234   24411811.0564   24411813.5874
     -2972.5364
  -4791152.97247  -3719182.96546  24766416.3544   24766416.8054   24766420.9004
      3754.8004
 -19224645.17948 -14762242.69047  21671140.1984   21671140.0004   21671143.1094
      2633.5914
 -11118008.80147  -8623559.64946  23287680.5244   23287679.9644   23287681.1034
      1613.4014
   4108598.70846   3206967.50045  25537046.3144   25537046.1884   25537049.3784
     -3630.9944
 -17560481.03449 -13667016.38148  21768072.3164   21768072.1784   21768075.1194
      1398.8544
 -10156083.32148  -7878878.48347  23203039.0414   23203040.0674   23203040.4084
      2240.9494
 -24906044.52249 -19398091.61248  20346946.1144   20346946.3904   20346947.9014
        26.9884
 10  1  4  0  9  0.0000000  0 10G05G28G08G12G09G18G10G27G17G15
  -3989912.95647  -3094549.17946  24298422.0544   24298422.0824   24298425.0614
     -3638.5864
 -15923584.98948 -12358099.98047  22560490.3974   22560490.1934   22560491.5624
     -2412.1574
  -7429159.63747  -5784184.22846  24428782.9254   24428781.4154   24428786.1524
     -2973.4604
  -4903736.68847  -3806910.55146  24744993.5554   24744993.2114   24744995.4264
      3751.3954
 -19303530.91148 -14823712.07247  21656128.7694   21656128.8384   21656131.3734
      2625.7294
 -11166164.09348  -8661083.25646  23278517.2574   23278517.2414   23278518.6964
      1596.8644
   4217468.65046   3291801.25646  25557763.3074   25557762.5754   25557765.9264
     -3626.9454
 -17602357.96948 -13699647.74548  21760103.3914   21760103.2814   21760106.2354
      1393.1664
 -10223134.90848  -7931126.46947  23190279.7614   23190280.3364   23190280.6124
      2229.4894
 -24906610.03349 -19398532.27748  20346838.5284   20346838.9144   20346840.3564
        10.8774
 10  1  4  0  9 30.0000000  0 10G05G28G08G12G09G18G10G27G17G15
  -3880726.09547  -3009468.50446  24319200.0524   24319200.2414   24319202.4064
     -3639.9034
 -15851060.02348 -12301587.02147  22574291.2674   22574290.6864   22574293.5284
     -2422.3694
  -7339916.45447  -5714644.06846  24445765.0444   24445766.1164   24445767.6824
     -2975.5064
  -5016210.51847  -3894552.50746  24723590.6864   24723591.6504   24723593.1174
      3747.5524
 -19382170.62848 -14884989.75247  21641164.5704   21641163.7964   21641166.8764
      2617.2204
 -11213804.83647  -8698205.91846  23269450.8054   23269450.5434   23269452.2514
      1579.7614
   4326236.85146   3376555.68946  25578461.8304   25578460.8354   25578464.6104
     -3623.3864
 -17644053.41449 -13732137.68648  21752169.3074   21752169.3244   21752171.7794
      1387.0534
 -10289823.53448  -7983091.63447  23177588.7134   23177589.3384   23177590.3024
      2216.9554
 -24906679.72949 -19398586.59348  20346825.2824   20346825.5904   20346827.1884
        -5.7604
 10  1  4  0 10  0.0000000  0 11G05G28G08G12G09G18G22G10G27G17G15
  -3771531.28447  -2924381.63346  24339978.6024   24339979.1304   24339981.5264
     -3640.0334
 -15778259.53048 -12244859.36947  22588145.0814   22588144.3174   22588146.2254
     -2431.7784
  -7250641.00947  -5645078.77546  24462753.7924   24462752.9574   24462757.0444
     -2976.6094
  -5128597.94547  -3982127.10446  24702204.1814   24702204.5954   24702205.5784
      3744.2334
 -19460589.02248 -14946094.96247  21626241.5614   21626241.6114   21626243.8384
      2609.8964
 -11260954.59747  -8734945.99446  23260479.1724   23260478.4754   23260479.9814
      1563.1804
  -1000274.69147   -739176.76346  25523677.4714   25523676.9544   25523677.7654
      2794.9344
   4434876.04647   3461209.62446  25599135.7374   25599134.2644   25599136.9144
     -3619.4044
 -17685592.53349 -13764505.81148  21744264.4934   21744264.3664   21744267.2614
      1381.5474
 -10356171.14248  -8034791.05447  23164963.6094   23164964.0654   23164965.8644
      2205.4154
 -24906278.26349 -19398273.77348  20346901.7964   20346901.9904   20346903.4854
       -21.6804
 10  1  4  0 10 30.0000000  0 11G05G28G08G12G09G18G22G10G27G17G15
  -3662311.07747  -2839274.97046  24360762.7764   24360763.4264   24360765.9614
     -3640.5794
 -15705165.61748 -12187903.07947  22602054.1054   22602054.2634   22602056.0504
     -2440.9994
  -7161314.43447  -5575473.66246  24479752.4834   24479752.1054   24479753.7364
     -2978.1494
  -5240878.14447  -4069618.19746  24680837.8794   24680837.2254   24680840.3124
      3741.1704
 -19538765.35848 -15007011.55747  21611365.2924   21611365.4534   21611368.0214
      2602.0224
 -11307592.16847  -8771286.96446  23251604.2874   23251602.4374   23251605.3504
      1546.0664
  -1083970.68147   -804394.41246  25507750.1294   25507750.4684   25507751.1454
      2784.9644
   4543403.75047   3545776.67146  25619786.6204   25619785.4874   25619791.1554
     -3614.8194
 -17726955.81549 -13796736.92548  21736393.2644   21736393.2204   21736395.9704
      1376.0964
 -10422155.40848  -8086207.35247  23152407.1834   23152407.8554   23152410.0204
      2193.7114
 -24905385.16449 -19397577.85848  20347071.8114   20347072.1004   20347073.4514
       -37.6874
 10  1  4  0 11  0.0000000  0 11G05G28G08G12G09G18G22G10G27G17G15
  -3553082.50747  -2754161.80146  24381547.9724   24381548.5984   24381550.8764
     -3641.3594
 -15631794.16248 -12130730.52247  22616016.4114   22616015.6544   22616017.6664
     -2450.5674
  -7071950.19647  -5505839.20146  24496757.4144   24496757.2914   24496761.4754
     -2979.6424
  -5353062.08547  -4157034.30646  24659489.3434   24659490.4194   24659491.9654
      3737.3464
 -19616712.46648 -15067749.53347  21596532.4024   21596532.6304   21596534.6294
      2594.0544
 -11353729.47148  -8807238.11246  23242825.0004   23242824.2144   23242826.9344
      1529.3804
  -1167377.64147   -869386.83946  25491879.3914   25491878.3734   25491879.2534
      2775.3864
   4651804.00546   3630244.38146  25640414.1554   25640412.9094   25640417.4454
     -3611.6454
 -17768156.76849 -13828841.54548  21728553.0214   21728552.5454   21728555.6124
      1370.4184
 -10487787.35648  -8137349.11747  23139917.9314   23139917.7674   23139919.7494
      2181.6494
 -24904013.16049 -19396508.77248  20347332.7814   20347332.9434   20347334.5534
       -53.9984
 10  1  4  0 11 30.0000000  0 11G05G28G08G12G09G18G22G10G27G17G15
  -3443833.76447  -2669032.89646  24402337.0714   24402337.7344   24402340.5024
     -3642.0024
 -15558133.25148 -12073332.41047  22630033.3794   22630033.6564   22630034.9274
     -2460.2714
  -6982535.03947  -5436165.07746  24513772.9054   24513772.3274   24513776.0024
     -2981.2514
  -5465133.55547  -4244362.67646  24638163.0404   24638162.7044   24638165.5574
      3733.7914
 -19694415.13648 -15128297.03347  21581745.8274   21581745.7914   21581748.6534
      2585.9784
 -11399350.85347  -8842787.25146  23234142.8614   23234143.1374   23234142.9794
      1511.7874
  -1250479.51146   -934141.55946  25476065.5734   25476065.8104   25476065.9144
      2765.0284
   4760088.61547   3714622.01146  25661020.6084   25661019.8484   25661023.4034
     -3607.7344
 -17809181.31049 -13860808.69748  21720746.3574   21720745.7994   21720749.0424
      1364.4074
 -10553050.07548  -8188203.17747  23127498.9984   23127499.2184   23127500.8584
      2169.1674
 -24902147.43949 -19395054.97148  20347687.7614   20347688.1564   20347689.4504
       -70.5144
 10  1  4  0 12  0.0000000  0 11G05G28G08G12G09G18G22G10G27G17G15
  -3334573.70847  -2583895.17246  24423129.3934   24423130.1174   24423131.3884
     -3641.6394
 -15484190.69048 -12015714.82947  22644104.2314   22644102.9304   22644105.3134
     -2469.4194
  -6893075.27247  -5366456.19046  24530796.0474   24530795.0254   24530800.4574
     -2982.7394
  -5577096.85047  -4331606.83746  24616857.6744   24616858.8714   24616858.9384
      3730.2554
 -19771878.47748 -15188658.05547  21567005.4134   21567005.4104   21567007.7384
      2578.1084
 -11444461.28447  -8877938.25046  23225558.7894   23225558.8024   23225561.4944
      1495.1274
  -1333280.23347   -998661.59546  25460308.6434   25460309.1574   25460308.8864
      2754.9824
   4868249.27447   3798903.08646  25681603.9364   25681601.6014   25681606.9874
     -3603.2524
 -17850035.47949 -13892643.10148  21712972.0044   21712971.6394   21712974.5904
      1358.9184
 -10617946.77448  -8238772.03547  23115149.1184   23115149.0284   23115151.2254
      2157.1094
 -24899793.03249 -19393220.37448  20348135.8174   20348136.1164   20348137.5814
       -86.6774
 10  1  4  0 12 30.0000000  0 11G05G28G08G12G09G18G22G10G27G17G15
  -3225305.71347  -2498751.25946  24443921.8084   24443922.0724   24443924.2444
     -3642.8284
 -15409969.85948 -11957880.42247  22658228.3254   22658227.9684   22658229.4074
     -2478.8834
  -6803572.70447  -5296713.95546  24547828.5014   24547826.9214   24547830.7264
     -2984.5534
  -5688951.02947  -4418765.99746  24595571.7774   24595570.8534   24595574.9404
      3726.4454
 -19849102.51948 -15248832.60947  21552309.6284   21552309.3214   21552312.5114
      2569.7784
 -11489059.95948  -8912690.47346  23217072.1644   23217071.6294   23217073.3774
      1477.8134
  -1415778.11846  -1062945.67346  25444609.4164   25444607.9944   25444609.8764
      2744.3534
   4976282.95747   3883085.14646  25702161.9804   25702160.3184   25702164.2724
     -3599.5914
 -17890720.23249 -13924345.49448  21705229.8964   21705229.7344   21705232.6884
      1353.0054
 -10682476.03348  -8289054.56247  23102869.9954   23102870.1504   23102871.9144
      2144.4204
 -24896950.28449 -19391005.25348  20348676.7744   20348677.1334   20348678.4604
      -103.2854
 10  1  4  0 13  0.0000000  0 10G05G28G08G12G09G18G22G27G17G15
  -3116032.15947  -2413603.02246  24464715.9144   24464716.8744   24464718.9734
     -3642.4324
 -15335472.23548 -11899830.32747  22672404.4574   22672404.1524   22672407.0344
     -2487.5414
  -6714027.02146  -5226938.12946  24564868.2514   24564867.5564   24564870.9584
     -2985.5094
  -5800693.14147  -4505837.73746  24574307.7794   24574308.6714   24574311.0734
      3723.2724
 -19926085.42648 -15308819.27147  21537660.3644   21537660.5274   21537662.4074
      2562.3814
 -11533144.77248  -8947042.28946  23208683.3104   23208683.2684   23208684.5334
      1461.3104
  -1497970.05547  -1126991.29046  25428970.0284   25428971.2264   25428970.2154
      2734.8624
 -17931234.90349 -13955915.35748  21697520.3104   21697520.3464   21697522.4774
      1347.9634
 -10746634.62948  -8339048.27347  23090660.6784   23090661.1834   23090663.1244
      2132.5834
 -24893617.87149 -19388408.57748  20349311.0134   20349311.2114   20349312.6624
      -118.9784
 10  1  4  0 13 30.0000000  0 10G05G28G08G12G09G18G22G27G17G15
  -3006754.89747  -2328451.89546  24485510.8144   24485510.1844   24485513.3874
     -3643.0684
 -15260698.88348 -11841565.38047  22686633.3544   22686632.3634   22686635.5054
     -2497.3084
  -6624437.58646  -5157128.21346  24581915.9324   24581914.2654   24581919.4634
     -2987.2874
  -5912320.59947  -4592820.19146  24553066.0574   24553066.2044   24553067.9714
      3718.7594
 -20002825.49148 -15368616.70147  21523057.2714   21523057.5394   21523060.2074
      2553.7704
 -11576713.59447  -8980992.02346  23200392.3104   23200391.8224   23200393.7454
      1443.6104
  -1579852.83047  -1190796.11746  25413387.4464   25413386.6284   25413387.1954
      2724.2114
 -17971578.53449 -13987351.94448  21689842.9564   21689843.0194   21689845.6334
      1341.6894
 -10810418.39348  -8388749.89347  23078523.1874   23078522.9074   23078525.1764
      2119.4484
 -24889794.24349 -19385429.13448  20350038.6824   20350038.8474   20350040.2624
      -135.8834
 10  1  4  0 14  0.0000000  0 10G05G28G08G12G09G18G22G27G17G15
  -2897477.02347  -2243300.29246  24506305.1464   24506305.7524   24506308.4714
     -3642.7964
 -15185652.30148 -11783087.52547  22700914.2214   22700914.2074   22700915.4164
     -2506.2134
  -6534805.81246  -5087285.34446  24598972.0234   24598972.6324   24598974.4704
     -2988.5994
  -6023831.78447  -4679712.02846  24531845.9884   24531846.6014   24531848.1014
      3715.1224
 -20079322.21948 -15428224.50947  21508500.2624   21508499.8534   21508502.8184
      2545.5654
 -11619765.39447  -9014538.87646  23192198.8104   23192197.6864   23192201.1784
      1426.2324
  -1661424.42447  -1254358.43146  25397865.2954   25397865.7764   25397866.2334
      2713.8414
 -18011751.45149 -14018655.50648  21682198.2664   21682197.9724   21682200.8524
      1336.0864
 -10873825.06748  -8438157.69347  23066457.1864   23066457.7714   23066459.2294
      2107.0514
 -24885479.16649 -19382066.74348  20350859.7274   20350860.0214   20350861.3664
      -152.2154
 10  1  4  0 14 30.0000000  0 10G05G28G08G12G09G18G22G27G17G15
  -2788204.00847  -2158152.49346  24527099.3774   24527100.1034   24527103.3194
     -3642.4744
 -15110337.35248 -11724400.55247  22715246.3584   22715246.2894   22715247.6194
     -2514.9754
  -6445134.71746  -5017411.81146  24616037.0804   24616034.1094   24616038.5154
     -2990.0744
  -6135227.57447  -4766513.92546  24510649.2254   24510649.4054   24510651.9704
      3711.0334
 -20155577.61748 -15487644.28047  21493989.7344   21493988.9444   21493992.1274
      2537.6904
 -11662301.89448  -9047684.22346  23184105.3084   23184106.0554   23184105.9954
      1409.2624
  -1742685.61547  -1317678.86646  25382401.0094   25382399.3794   25382403.1444
      2703.4974
 -18051756.73149 -14049828.44148  21674585.8734   21674585.2404   21674587.9814
      1330.6054
 -10936855.20748  -8487272.09147  23054462.9264   23054462.7794   23054465.3104
      2094.6114
 -24880674.68849 -19378323.00448  20351773.9194   20351774.1814   20351775.6694
      -168.3474
 10  1  4  0 15  0.0000000  0 10G05G28G08G12G09G18G22G27G17G15
  -2678934.31647  -2073007.26946  24547892.8274   24547893.4104   24547895.7034
     -3641.9864
 -15034751.48748 -11665502.48147  22729629.6864   22729629.5684   22729631.3794
     -2523.8384
  -6355420.18646  -4947504.44346  24633108.6744   24633108.0014   24633113.5694
     -2991.0804
  -6246501.50647  -4853220.88546  24489473.8264   24489472.7454   24489477.1084
      3707.3134
 -20231586.12948 -15546871.66047  21479525.6604   21479524.9134   21479527.9464
      2529.7434
 -11704316.70547  -9080423.02946  23176109.4334   23176109.7354   23176110.9544
      1392.0354
  -1823629.22847  -1380751.86146  25366999.0774   25366998.7534   25366998.5874
      2693.0374
 -18091589.85449 -14080867.23148  21667005.4704   21667005.6314   21667008.3674
      1325.0494
 -10999501.09448  -8536087.05947  23042541.9194   23042542.1754   23042543.1014
      2081.8524
 -24875375.54649 -19374193.81148  20352782.3774   20352782.6094   20352784.0424
      -184.6634
 10  1  4  0 15 30.0000000  0 10G05G28G08G12G09G18G22G27G17G15
  -2569671.35847  -1987867.29746  24568684.9004   24568685.3554   24568686.5634
     -3641.8054
 -14958898.21548 -11606396.04647  22744063.9214   22744063.5514   22744065.0074
     -2532.5384
  -6265663.41346  -4877564.15446  24650189.1264   24650188.5874   24650192.4484
     -2992.2754
  -6357652.70847  -4939832.20546  24468322.6094   24468321.8124   24468323.9864
      3703.4244
 -20307347.87348 -15605906.76447  21465108.8694   21465108.1574   21465111.4674
      2521.5274
 -11745809.67448  -9112755.20846  23168214.6734   23168213.7254   23168214.6324
      1374.7794
  -1904254.27247  -1443576.64146  25351655.2854   25351654.6444   25351656.8754
      2682.4274
 -18131251.70149 -14111772.54948  21659458.3584   21659458.1664   21659460.7064
      1319.5744
 -11061761.58748  -8584601.72347  23030693.9844   23030694.3604   23030696.0424
      2069.3644
 -24869582.07449 -19369679.42648  20353884.7244   20353885.0394   20353886.4864
      -201.0044
 10  1  4  0 16  0.0000000  0 10G05G28G08G12G09G18G22G27G17G15
  -2460424.59747  -1902739.94246  24589473.4554   24589473.9664   24589476.1664
     -3641.2934
 -14882785.87148 -11547087.72847  22758547.7224   22758546.9404   22758548.0974
     -2541.5864
  -6175871.95346  -4807596.81546  24667275.2184   24667276.6454   24667279.3974
     -2993.4764
  -6468685.78647  -5026351.49246  24447193.5134   24447193.5334   24447196.0054
      3698.6044
 -20382868.46048 -15664753.94447  21450737.2524   21450737.1254   21450740.1524
      2513.1364
 -11786785.94548  -9144684.78746  23160417.1384   23160416.8774   23160417.2844
      1356.8984
  -1984564.57346  -1506156.16746  25336372.4854   25336370.4774   25336373.5514
      2671.0954
 -18170748.77549 -14142549.47848  21651942.2854   21651942.1164   21651944.7054
      1313.6464
 -11123640.48448  -8632819.02847  23018918.7584   23018918.5544   23018921.5044
      2056.0944
 -24863300.68249 -19364784.84048  20355080.0734   20355080.3994   20355081.8914
      -217.7034
 10  1  4  0 16 30.0000000  0 10G05G28G08G12G09G18G22G27G17G15
  -2351186.58547  -1817619.40046  24610261.2604   24610261.5574   24610263.7624
     -3640.6424
 -14806406.73648 -11487571.51647  22773082.3204   22773081.5224   22773084.2764
     -2550.0224
  -6086036.33346  -4737595.08046  24684370.6044   24684370.6904   24684374.6784
     -2994.6704
  -6579588.65047  -5112769.26846  24426089.4274   24426089.5154   24426091.1034
      3695.3084
 -20458136.92648 -15723404.67647  21436414.5874   21436414.2924   21436416.5824
      2505.1524
 -11827234.63448  -9176203.23246  23152719.6464   23152718.6804   23152720.1844
      1339.8494
  -2064548.20246  -1568481.05246  25321153.8384   25321154.3004   25321153.1424
      2661.1974
 -18210071.39749 -14173190.47648  21644459.2364   21644459.2444   21644462.0104
      1308.1894
 -11185125.47248  -8680729.40447  23007218.6624   23007218.8684   23007220.0644
      2043.2884
 -24856520.67249 -19359501.72148  20356370.2664   20356370.5364   20356372.0924
      -234.0144
 10  1  4  0 17  0.0000000  0 10G05G28G08G12G09G18G22G27G17G15
  -2241967.74747  -1732513.80646  24631044.3774   24631045.6104   24631047.6774
     -3640.1864
 -14729770.43348 -11427854.91847  22787665.7304   22787665.9174   22787667.8554
     -2558.8264
  -5996164.74247  -4667565.31346  24701473.2934   24701472.4724   24701476.3194
     -2996.1654
  -6690367.03547  -5199090.16146  24405009.1974   24405009.4364   24405011.2664
      3690.7074
 -20533159.91448 -15781864.12247  21422137.7704   21422138.1474   21422140.3774
      2496.5124
 -11867161.74448  -9207315.27346  23145121.5824   23145121.3074   23145122.4054
      1322.2254
  -2144210.35346  -1630555.45545  25305994.8534   25305993.4894   25305993.6884
      2649.8224
 -18249226.95649 -14203701.29948  21637008.2084   21637008.1854   21637011.2674
      1302.3344
 -11246221.35248  -8728336.57647  22995592.6414   22995592.9574   22995594.2934
      2029.9184
 -24849248.70049 -19353835.25748  20357754.1654   20357754.3914   20357755.8934
      -250.6714
 10  1  4  0 17 30.0000000  0  9G05G28G08G12G09G18G27G17G15
  -2132764.29447  -1647420.21646  24651825.0724   24651826.1314   24651828.2224
     -3639.6504
 -14652873.31648 -11367935.09147  22802298.6974   22802297.6404   22802300.9724
     -2567.3794
  -5906250.91947  -4597502.62346  24718582.6924   24718581.1974   24718585.5734
     -2997.6404
  -6801013.18847  -5285307.90646  24383953.5984   24383953.8734   24383956.2984
      3686.3904
 -20607930.27448 -15840126.70747  21407909.4164   21407909.8584   21407911.4814
      2488.4144
 -11906559.92148  -9238015.15846  23137624.3764   23137624.0124   23137625.3574
      1304.6434
 -18288209.39749 -14234077.21448  21629590.1434   21629589.9394   21629592.9994
      1296.8824
 -11306919.10848  -8775633.52147  22984042.1774   22984042.7524   22984044.6004
      2016.8394
 -24841477.99149 -19347780.16348  20359232.8564   20359233.0734   20359234.6554
      -267.0504
 10  1  4  0 18  0.0000000  0  9G05G28G08G12G09G18G27G17G15
  -2023582.20847  -1562343.25746  24672602.8554   24672602.5324   24672604.9694
     -3638.5984
 -14575720.10948 -11307815.71547  22816980.6264   22816980.1464   22816982.5044
     -2575.5914
  -5816298.77847  -4527410.06046  24735700.0104   24735699.2084   24735703.0574
     -2998.5304
  -6911527.93947  -5371423.33046  24362923.7264   24362923.9554   24362925.6434
      3682.2134
 -20682450.11048 -15898194.08147  21393728.6794   21393728.6464   21393731.3894
      2480.1354
 -11945431.20648  -9268304.47146  23130227.4564   23130226.3724   23130227.3234
      1287.3054
 -18327021.70649 -14264320.56648  21622204.3154   21622204.2024   21622206.8544
      1291.2484
 -11367219.41748  -8822620.76947  22972567.3754   22972567.6964   22972570.0514
      2003.7824
 -24833211.16949 -19341338.48748  20360806.0804   20360806.2614   20360807.6754
      -283.5664
 10  1  4  0 18 30.0000000  0  9G05G28G08G12G09G18G27G17G15
  -1914426.50247  -1477286.85546  24693373.8364   24693374.3224   24693377.0104
     -3638.2634
 -14498315.52348 -11247500.45547  22831709.8344   22831709.8624   22831711.9244
     -2584.4364
  -5726310.84847  -4457289.60046  24752825.2444   24752824.5744   24752827.2074
     -3000.3694
  -7021911.59747  -5457436.56046  24341917.8094   24341918.2044   24341921.1824
      3676.8464
 -20756720.88748 -15956067.38847  21379595.6414   21379596.1064   21379598.1444
      2471.4304
 -11983776.48548  -9298183.91146  23122930.9684   23122931.6364   23122933.6614
      1269.1164
 -18365666.10649 -14294433.07848  21614850.5614   21614850.6814   21614853.0014
      1285.3224
 -11427121.98648  -8869298.09047  22961168.5614   22961168.3774   22961170.9024
      1989.9164
 -24824450.07349 -19334511.66248  20362473.0944   20362473.4214   20362474.9154
      -300.3094
 10  1  4  0 19  0.0000000  0 10G05G28G08G12G09G18G22G27G17G15
  -1805298.14047  -1392251.77846  24714139.7914   24714140.5154   24714142.2634
     -3636.7644
 -14420659.81448 -11186989.51847  22846487.3774   22846487.0614   22846489.0874
     -2592.5804
  -5636286.04547  -4387140.39846  24769956.2654   24769955.3884   24769958.2074
     -3001.5764
  -7132160.44047  -5543344.75946  24320938.6814   24320938.9394   24320941.2174
      3672.7184
 -20830739.77148 -16013744.41747  21365510.1454   21365510.0394   21365513.0774
      2463.1314
 -12021592.98448  -9327651.31146  23115734.3334   23115732.8554   23115735.0724
      1251.9354
   -286472.166 7                  25245985.550
      2606.754
 -18404140.73449 -14324413.29748  21607529.2604   21607529.0064   21607531.7054
      1279.6964
 -11486622.55848  -8915662.16147  22949845.4494   22949845.3814   22949847.8554
      1976.7184
 -24815192.59049 -19327298.04348  20364234.7754   20364235.1164   20364236.4624
      -316.7554
 10  1  4  0 19 30.0000000  0 10G05G28G08G12G09G18G22G27G17G15
  -1696197.31347  -1307238.13346  24734901.6734   24734901.5814   24734904.2694
     -3636.7954
 -14342752.40648 -11126282.44847  22861312.7164   22861312.3684   22861314.6444
     -2601.3144
  -5546222.58147  -4316961.07546  24787094.2334   24787094.4904   24787097.1044
     -3003.1984
  -7242270.67447  -5629144.94846  24299984.5994   24299986.2994   24299987.6074
      3667.8344
 -20904503.35248 -16071222.50447  21351473.7484   21351473.4784   21351475.5664
      2454.2884
 -12058877.06848  -9356703.85146  23108639.7404   23108639.5604   23108641.3754
      1233.8444
   -364474.07647   -269180.72646  25231143.5764   25231143.8444   25231142.3044
      2593.9864
 -18442443.39449 -14354259.51648  21600240.1954   21600240.1124   21600242.8884
      1273.5234
 -11545716.24648  -8961709.20047  22938600.4534   22938600.9554   22938602.6544
      1962.7564
 -24805435.47849 -19319695.10248  20366091.4774   20366091.7334   20366093.3014
      -333.8314
 10  1  4  0 20  0.0000000  0 10G05G28G08G12G09G18G22G27G17G15
  -1587130.97047  -1222251.37546  24755655.7214   24755655.5384   24755660.0444
     -3634.8944
 -14264599.80148 -11065384.32547  22876184.7444   22876185.0524   22876185.4244
     -2609.1834
  -5456125.11947  -4246755.25046  24804239.3274   24804237.7444   24804242.1874
     -3003.9144
  -7352244.43347  -5714838.78646  24279058.3464   24279058.6824   24279060.5884
      3663.4754
 -20978015.27948 -16128504.51447  21337484.3034   21337484.6244   21337487.1874
      2446.1754
 -12095631.65348  -9385343.79046  23101645.0614   23101645.2174   23101646.5274
      1216.1874
   -442140.00747   -329699.61446  25216363.4354   25216363.4844   25216363.8714
      2583.1224
 -18480578.45449 -14383975.13848  21592983.4864   21592983.3304   21592986.1514
      1268.3734
 -11604405.12048  -9007440.79447  22927432.7534   22927432.6164   22927434.0844
      1949.5014
 -24795182.50749 -19311705.78048  20368042.7794   20368042.9994   20368044.4064
      -350.0504
 10  1  4  0 20 30.0000000  0 10G05G28G08G12G09G18G22G27G17G15
  -1478096.08047  -1137289.11846  24776404.0264   24776405.0374   24776407.6514
     -3633.4494
 -14186198.62148 -11004292.49347  22891104.1374   22891104.2644   22891105.5344
     -2617.3214
  -5365988.24547  -4176518.76146  24821391.7014   24821391.9004   24821394.5424
     -3004.9754
  -7462073.82947  -5800420.11546  24258158.0174   24258158.2124   24258159.5234
      3658.3524
 -21051268.96048 -16185585.29047  21323544.8524   21323545.3484   21323547.6704
      2437.7074
 -12131849.96948  -9413565.86046  23094753.5054   23094751.9974   23094752.7824
      1198.5134
   -519462.18347   -389950.68046  25201650.2084   25201650.0984   25201647.9674
      2572.0284
 -18518540.08349 -14413555.61948  21585759.5734   21585759.4124   21585762.3694
      1262.6894
 -11662680.25548  -9052849.98747  22916343.0894   22916343.1224   22916345.4684
      1935.7784
 -24784427.74449 -19303325.45348  20370089.2644   20370089.6354   20370091.0424
      -366.6894
 10  1  4  0 21  0.0000000  0 10G05G28G08G12G09G18G22G27G17G15
  -1369098.31747  -1052355.80546  24797146.5424   24797147.8654   24797148.9564
     -3632.9544
 -14107553.80448 -10943010.82147  22906069.6784   22906069.6644   22906070.4214
     -2625.6594
  -5275815.67047  -4106254.43646  24838550.7264   24838550.7944   24838554.3174
     -3006.2034
  -7571760.05747  -5885889.89746  24237285.2784   24237285.6834   24237287.4424
      3653.5334
 -21124266.43748 -16242466.42647  21309653.7404   21309653.1284   21309656.1014
      2428.9374
 -12167534.46948  -9441371.96746  23087962.0864   23087961.1844   23087965.4904
      1180.4994
   -596441.29747   -449934.43146  25187001.9274   25187001.9234   25187000.3044
      2560.1744
 -18556331.48649 -14443003.45448  21578568.2514   21578568.1014   21578571.0104
      1256.7544
 -11720542.62148  -9097937.53747  22905332.3754   22905332.1934   22905334.1574
      1921.7614
 -24773174.04149 -19294556.34348  20372230.7134   20372231.0374   20372232.4874
      -383.5454
 10  1  4  0 21 30.0000000  0 10G05G28G08G12G09G18G22G27G17G15
  -1260143.59347   -967456.02546  24817878.6164   24817879.8814   24817883.5194
     -3630.9194
 -14028670.67048 -10881543.44847  22921080.7524   22921080.4834   22921081.6594
     -2633.2904
  -5185611.00547  -4035965.10746  24855716.7674   24855716.5864   24855720.2324
     -3007.0284
  -7681304.78447  -5971249.38046  24216439.4784   24216439.5004   24216442.8964
      3649.5574
 -21197009.77948 -16299149.53547  21295811.3424   21295811.4574   21295813.8774
      2420.7934
 -12202686.75448  -9468763.37146  23081274.1274   23081273.2374   23081273.9794
      1163.0234
   -673077.75747   -509651.18746  25172416.3534   25172416.6494   25172418.0344
      2549.1014
 -18593955.47949 -14472320.84248  21571408.4774   21571408.6714   21571411.2214
      1251.5634
 -11777992.69548  -9142703.83147  22894399.5854   22894399.3404   22894402.3804
      1908.3224
 -24761423.43949 -19285400.03548  20374466.6524   20374466.9344   20374468.6954
      -399.7764
 10  1  4  0 22  0.0000000  0 10G05G28G08G12G09G18G22G27G17G15
  -1151230.92247   -882589.02846  24838605.3174   24838605.9104   24838608.0134
     -3630.3804
 -13949548.06348 -10819889.47547  22936137.1704   22936136.9604   22936138.8344
     -2641.7274
  -5095371.21147  -3965648.40546  24872888.7404   24872888.3394   24872890.9234
     -3009.1324
  -7790702.26147  -6056494.16846  24195622.2864   24195622.0284   24195624.6644
      3644.0424
 -21269494.27448 -16355630.94947  21282018.1104   21282017.7924   21282020.3284
      2411.4864
 -12237302.07348  -9495736.34946  23074686.8564   23074685.8694   23074687.4324
      1144.7364
   -749365.95247   -569096.58746  25157900.4034   25157899.9284   25157899.1114
      2536.7934
 -18631408.34249 -14501504.88948  21564281.3984   21564281.2084   21564284.6574
      1245.3394
 -11835024.24148  -9187143.98347  22883546.7774   22883547.3134   22883549.6944
      1893.6694
 -24749172.49549 -19275853.85248  20376798.0364   20376798.2534   20376799.8564
      -416.9964
 10  1  4  0 22 30.0000000  0 10G05G28G08G12G09G18G22G27G17G15
  -1042363.54347   -797757.32146  24859322.0264   24859321.4754   24859325.2744
     -3627.7834
 -13870188.39348 -10758050.77447  22951238.7534   22951237.5324   22951240.9604
     -2649.8954
  -5005097.04147  -3895304.91446  24890066.8954   24890066.6224   24890070.8214
     -3010.1654
  -7899951.19347  -6141623.16546  24174832.6904   24174832.7314   24174835.0514
      3638.6254
 -21341720.05848 -16411910.76547  21268273.9524   21268273.5394   21268275.9384
      2402.6594
 -12271380.09748  -9522290.65446  23068201.1864   23068201.0024   23068203.5774
      1126.2624
   -825304.60247   -628269.58846  25143448.1014   25143448.2584   25143452.2114
      2524.9444
 -18668690.85749 -14530556.18948  21557186.8354   21557186.4214   21557189.7584
      1239.3994
 -11891636.01948  -9231257.05547  22872774.0764   22872774.3984   22872776.5854
      1879.3114
 -24736420.88649 -19265917.54548  20379224.7584   20379224.9924   20379226.4864
      -433.8844
 10  1  4  0 23  0.0000000  0 10G05G28G08G12G09G18G22G27G17G15
   -933544.90147   -712963.57746  24880029.3264   24880029.3834   24880032.5744
     -3626.6014
 -13790594.75948 -10696029.76347  22966384.9874   22966385.3614   22966386.6244
     -2656.6484
  -4914789.71347  -3824935.57546  24907252.2794   24907252.1934   24907254.1654
     -3010.4194
  -8009050.49247  -6226635.61546  24154071.8434   24154071.6894   24154074.1894
      3634.2784
 -21413686.94348 -16467988.84547  21254579.1534   21254579.0884   21254581.4554
      2394.8194
 -12304920.86148  -9548426.31946  23061819.2014   23061816.5994   23061819.5614
      1109.2274
   -900892.09247   -687169.02946  25129067.2054   25129068.8104   25129070.1984
      2513.8644
 -18705804.03949 -14559475.54448  21550124.5294   21550124.0874   21550127.4074
      1234.5394
 -11947825.99348  -9275041.44847  22862081.4524   22862081.8484   22862084.0364
      1866.0934
 -24723169.45849 -19255591.76848  20381746.3814   20381746.6224   20381748.1224
      -449.7864
 10  1  4  0 23 30.0000000  0 10G05G28G08G12G09G18G22G27G17G15
   -824774.51747   -628207.45346  24900727.1214   24900727.8784   24900730.4684
     -3625.2264
 -13710765.60048 -10633825.22847  22981575.5244   22981575.4134   22981577.5694
     -2664.9174
  -4824446.56447  -3754538.30046  24924443.7634   24924442.5134   24924448.2584
     -3012.2134
  -8117995.15647  -6311527.53946  24133340.5924   24133341.0564   24133342.5224
      3628.8774
 -21485390.30348 -16523861.58047  21240934.2184   21240934.0134   21240936.9894
      2385.6264
 -12337920.07248  -9574139.99546  23055539.6584   23055539.2414   23055541.4594
      1090.7614
   -976122.91447   -745790.46646  25114748.2154   25114745.4664   25114748.9854
      2501.6584
 -18742744.40149 -14588260.23648  21543094.7834   21543094.6094   21543097.4584
      1228.4014
 -12003588.70148  -9318492.90247  22851470.5204   22851470.6644   22851472.4504
      1851.5884
 -24709414.48749 -19244873.61848  20384363.8124   20384363.9164   20384365.6354
      -467.0684
 10  1  4  0 24  0.0000000  0 10G05G28G08G12G09G18G22G27G17G15
   -716060.44947   -543495.21246  24921415.0134   24921415.7234   24921418.0774
     -3623.2304
 -13630708.80448 -10571443.30747  22996810.0824   22996810.6194   22996810.7204
     -2672.6834
  -4734073.75647  -3684117.95646  24941641.1684   24941638.4944   24941642.9874
     -3013.3904
  -8226788.92947  -6396301.87546  24112637.7594   24112638.0064   24112639.4354
      3623.7464
 -21556835.01048 -16579532.76347  21227338.6664   21227338.6644   21227340.9874
      2376.8624
 -12370382.39348  -9599435.30347  23049362.3394   23049361.7984   23049365.6414
      1072.9254
  -1051000.38447   -804136.63046  25100503.7484   25100505.5584   25100504.1074
      2490.0704
 -18779517.43549 -14616914.54348  21536097.3744   21536096.9854   21536099.9044
      1222.6984
 -12058927.07448  -9361613.70547  22840939.8044   22840940.1004   22840941.3754
      1837.2384
 -24695161.28549 -19233767.23548  20387076.1054   20387076.3994   20387077.8164
      -483.6644
 10  1  4  0 24 30.0000000  0 10G05G28G08G12G09G18G22G27G17G15
   -607403.38747   -458827.36746  24942091.8814   24942092.5314   24942094.6784
     -3621.9124
 -13550424.76448 -10508884.31347  23012087.5214   23012087.4104   23012089.3944
     -2680.3134
  -4643669.86347  -3613673.36545  24958844.6474   24958844.8114   24958847.4574
     -3014.3344
  -8335428.05147  -6480955.70146  24091964.4404   24091964.7094   24091966.5474
      3618.4324
 -21628018.55048 -16635000.43547  21213792.7814   21213792.7384   21213795.5304
      2368.1164
 -12402304.65448  -9624309.80546  23043287.2674   23043286.7974   23043287.4184
      1054.7264
  -1125520.72647   -862204.46645  25086317.8514   25086315.4584   25086321.2194
      2477.2804
 -18816121.34349 -14645437.06548  21529131.9024   21529131.6064   21529134.5734
      1216.9404
 -12113836.79348  -9404400.49347  22830490.7174   22830490.9244   22830492.7104
      1822.7514
 -24680407.96749 -19222271.15148  20389883.5394   20389883.6754   20389885.3114
      -500.4634
 10  1  4  0 25  0.0000000  0 10G05G28G08G12G09G18G22G27G17G15
   -498801.10447   -374202.20746  24962758.2694   24962758.8074   24962761.8704
     -3618.8644
 -13469910.25748 -10446145.73547  23027409.2114   23027408.9474   23027410.5114
     -2687.6154
  -4553230.07447  -3543200.80945  24976054.7314   24976055.0884   24976057.7644
     -3015.2724
  -8443905.44547  -6565483.50446  24071321.5244   24071321.1104   24071323.5424
      3613.2114
 -21698934.30948 -16690259.44947  21200298.0054   21200297.8264   21200301.0264
      2359.4324
 -12433681.14248  -9648759.02547  23037316.0984   23037316.2824   23037317.5894
      1036.9314
  -1199676.38147   -919988.18246  25072210.0394   25072210.5174   25072210.4034
      2465.8644
 -18852551.00349 -14673823.80548  21522199.4724   21522199.5064   21522201.9944
      1211.5574
 -12168310.82448  -9446847.77447  22820124.8014   22820124.7594   22820126.2294
      1808.6284
 -24665148.32249 -19210380.52848  20392787.2714   20392787.5294   20392789.1204
      -516.9034
 10  1  4  0 25 30.0000000  0 10G05G28G08G12G09G18G22G27G17G15
   -390262.17047   -289626.41746  24983412.7944   24983412.5744   24983415.6204
     -3617.0764
 -13389173.63548 -10383234.08947  23042772.6784   23042772.9634   23042773.5494
     -2695.4544
  -4462760.74446  -3472705.26445  24993270.7154   24993269.2444   24993273.6834
     -3016.3554
  -8552225.36547  -6649888.61946  24050708.6144   24050708.4974   24050712.1234
      3607.4724
 -21769587.64448 -16745313.98147  21186853.1194   21186853.1754   21186855.7704
      2350.0024
 -12464516.86748  -9672786.87247  23031448.3824   23031447.2114   23031449.7684
      1018.3144
  -1273471.15447   -977490.64246  25058164.8844   25058166.3114   25058163.3934
      2453.1874
 -18888812.18749 -14702079.26848  21515299.0464   21515298.9864   21515301.9824
      1205.2404
 -12222352.68648  -9488958.32047  22809840.8004   22809840.6844   22809842.7814
      1793.5884
 -24649388.28549 -19198099.98848  20395786.3724   20395786.7234   20395788.2314
      -534.2054
 10  1  4  0 26  0.0000000  0 10G05G28G08G12G09G18G22G27G17G15
   -281788.10547   -205101.18746  25004054.5274   25004054.4854   25004057.5044
     -3615.3244
 -13308216.00348 -10320150.23947  23058178.5264   23058177.7014   23058179.4234
     -2702.3894
  -4372261.43346  -3402186.34045  25010492.2284   25010492.0924   25010497.2934
     -3017.2514
  -8660385.25347  -6734169.02346  24030127.3444   24030127.3624   24030128.5674
      3602.6844
 -21839976.69349 -16800162.58447  21173458.4494   21173458.8094   21173461.4784
      2341.8754
 -12494810.22948  -9696392.09647  23025684.2554   23025683.5874   23025684.3204
      1000.7854
  -1346902.12546  -1034709.60746  25044192.0824   25044190.9844   25044181.9764
      2441.9474
 -18924904.23049 -14730202.92948  21508431.0244   21508430.5164   21508433.7834
      1200.3454
 -12275958.80048  -9530729.30847  22799639.8634   22799640.1484   22799641.6174
      1779.5534
 -24633126.88949 -19185428.78148  20398880.9104   20398881.1264   20398882.6694
      -550.3674
 10  1  4  0 26 30.0000000  0 10G05G28G08G12G09G18G22G27G17G15
   -173375.46347   -120623.75446  25024685.2444   25024685.3224   25024686.9564
     -3612.5564
 -13227033.25648 -10256890.95447  23073627.3024   23073626.7524   23073629.1114
     -2709.5134
  -4281726.91946  -3331639.97645  25027719.9434   25027719.1984   25027723.5664
     -3018.4424
  -8768376.98147  -6818318.41046  24009576.9054   24009577.3544   24009579.1284
      3597.2634
 -21910094.82349 -16854800.07047  21160115.5014   21160115.3584   21160118.2554
      2332.9304
 -12524554.24148  -9719569.25947  23020024.4544   23020022.5814   23020024.6364
       982.5244
  -1419961.04347  -1091638.74246  25030289.1934   25030288.7934   25030292.3794
      2429.4934
 -18960820.92649 -14758189.96748  21501596.3034   21501596.0054   21501598.9314
      1194.5524
 -12329120.89548  -9572154.31747  22789523.4324   22789523.6134   22789525.4124
      1764.8024
 -24616357.85149 -19172362.00548  20402071.9854   20402072.2014   20402073.8204
      -567.2504
 10  1  4  0 27  0.0000000  0 10G05G28G08G12G09G18G22G27G17G15
    -65037.78847    -36204.79746  25045300.5234   25045300.9854   25045303.6284
     -3609.9904
 -13145638.42348 -10193466.41647  23089115.9354   23089116.4864   23089117.1704
     -2717.0044
  -4191168.03346  -3261074.61045  25044952.2324   25044951.0904   25044956.3284
     -3019.9714
  -8876209.41947  -6902343.66046  23989057.0444   23989057.0314   23989057.5374
      3591.2194
 -21979951.69749 -16909233.98047  21146822.4194   21146822.0114   21146824.9384
      2323.8334
 -12553758.74748  -9742326.02447  23014467.2004   23014466.5524   23014467.2434
       964.3114
  -1492656.67447  -1148284.72646  25016456.5644   25016456.7624   25016458.5304
      2416.3954
 -18996572.91549 -14786048.65348  21494792.8174   21494792.6864   21494795.3264
      1188.5414
 -12381847.68348  -9613240.11447  22779490.0584   22779490.0344   22779492.2214
      1749.7704
 -24599091.60949 -19158907.79848  20405357.4894   20405357.8004   20405359.4804
      -584.2384
 10  1  4  0 27 30.0000000  0 10G05G28G08G12G09G18G22G27G17G15
     43233.14647     48162.17846  25065903.5424   25065905.2884   25065907.9594
     -3607.6504
 -13064022.69248 -10129869.75547  23104646.9764   23104646.4964   23104648.5044
     -2724.0904
  -4100574.50746  -3190482.27845  25062192.3264   25062192.5794   25062200.5474
     -3020.0424
  -8983870.10347  -6986235.09546  23968569.3304   23968569.7904   23968572.5394
      3585.6634
 -22049535.48949 -16963455.10448  21133580.8664   21133580.5284   21133583.5004
      2314.8344
 -12582411.92648  -9764653.17947  23009014.1944   23009014.0554   23009015.1404
       945.9224
  -1564975.95847  -1204637.45946  25002695.7024   25002696.9224   25002695.0954
      2404.4854
 -19032149.38549 -14813770.56848  21488022.8754   21488022.5964   21488025.6234
      1183.0394
 -12434126.03348  -9653976.47947  22769541.8874   22769541.6424   22769543.1004
      1735.1284
 -24581317.45949 -19145057.81848  20408739.7704   20408740.1354   20408741.6644
      -600.9874
 10  1  4  0 28  0.0000000  0 10G05G28G08G12G09G18G22G27G17G15
    151426.93047    132469.00546  25086492.8644   25086492.8104   25086495.8554
     -3605.0124
 -12982196.21148 -10066108.87247  23120218.4574   23120218.9014   23120219.6604
     -2731.2344
  -4009954.66246  -3119869.41445  25079437.2124   25079432.7394   25079438.9014
     -3021.4294
  -9091365.16147  -7069997.44946  23948113.8714   23948114.7014   23948115.8854
      3580.2854
 -22118853.02549 -17017468.75948  21120390.4204   21120389.8204   21120392.0814
      2305.8394
