     2.11           OBSERVATION DATA    G (GPS)             RINEX VERSION / TYPE
teqc  2009Oct19     administrateur ccgps20100104 13:51:51UTCPGM / RUN BY / DATE
Solaris 5.9|UltraSparc IIe|cc -xarch=v9 SC5.8|=+-|*Sparc    COMMENT
teqc  2009Oct19     administrateur ccgps20100104 13:47:58UTCCOMMENT
teqc  2009Oct19     CNES                20100104 09:58:22UTCCOMMENT
MSXP|IAx86-PII|bcc32 5.0|MSWin95->XP|486/DX+                COMMENT
teqc  2009Oct19                         20100104 09:58:21UTCCOMMENT
BIT 2 OF LLI FLAGS DATA COLLECTED UNDER A/S CONDITION       COMMENT
GRAS                                                        MARKER NAME
10002M006                                                   MARKER NUMBER
CARDALIAGUET        CNES                                    OBSERVER / AGENCY
48002               ASHTECH UZ-12       CN00-1A01           REC # / TYPE / VERS
24222               ASH701945E_M    NONE                    ANT # / TYPE
  4581694.7600   556114.9500  4389366.7300                  APPROX POSITION XYZ
        0.0350        0.0000        0.0000                  ANTENNA: DELTA H/E/N
     1     1                                                WAVELENGTH FACT L1/2
     7    L1    L2    C1    P1    P2    D1    D2            # / TYPES OF OBSERV
    30.0000                                                 INTERVAL
Version: Version:                                           COMMENT
Project: A002_______CNE_____________                        COMMENT
 SNR is mapped to RINEX snr flag value [0-9]                COMMENT
  L1 & L2: min(max(int(snr_dBHz/6), 0), 9)                  COMMENT
pseudorange smoothing corrections not applied               COMMENT
Forced Modulo Decimation to 30 seconds                      COMMENT
  2010     1     1     0     0    0.0000000     GPS         TIME OF FIRST OBS
                                                            END OF HEADER
 10  1  1  0  0  0.0000000  0  9G17G05G28G18G10G08G09G15G27
  -9001376.79547  -6962362.08046  23782013.2604   23782013.7514   23782016.1364
      2638.3584
  -7001537.49647  -5442439.42747  23422028.7964   23422029.7844   23422031.8994
     -3517.0034
 -19637172.29548 -15253275.39047  22028876.4464   22028876.0054   22028877.7684
     -1934.3544
  -9122399.96447  -7098410.68046  23750121.8974   23750122.3914   23750123.6774
      2260.0014
  -1409909.50447  -1082042.52046  24637232.7684   24637232.7044   24637236.9094
     -3714.6994
 -11866083.58347  -9239833.75846  23724399.2074   23724397.5974   23724403.0734
     -2890.5194
 -16608196.07348 -12875088.27947  22338636.8434   22338636.2194   22338640.7454
      2934.5214
 -25278442.69649 -19694170.31048  20429744.9284   20429745.2504   20429746.8204
       665.6054
 -16617987.07548 -12909825.89147  22127486.6074   22127486.1694   22127490.1024
      1637.3114
 10  1  1  0  0 30.0000000  0  9G17G05G28G18G10G08G09G15G27
  -9080402.67047  -7023940.67946  23766975.6654   23766974.7764   23766978.0054
      2629.8904
  -6895944.75148  -5360159.38447  23442122.9634   23442123.1544   23442125.6104
     -3522.7244
 -19578941.82248 -15207900.99747  22039957.3594   22039956.7134   22039958.6234
     -1947.9844
  -9189982.01347  -7151072.03446  23737262.0104   23737262.3124   23737263.7184
      2245.1054
  -1298459.32647   -995198.20746  24658440.8574   24658440.0704   24658443.2354
     -3715.2474
 -11779321.04547  -9172226.61746  23740909.7084   23740909.4444   23740912.8074
     -2893.7914
 -16696121.44648 -12943601.54247  22321905.5004   22321905.5374   22321908.6074
      2927.0344
 -25298180.99549 -19709550.80948  20425988.9334   20425989.2254   20425990.9004
       649.9794
 -16667008.63148 -12948024.48947  22118158.3254   22118157.6254   22118160.9794
      1630.5674
 10  1  1  0  1  0.0000000  0  9G17G05G28G18G10G08G09G15G27
  -9159194.31347  -7085336.76746  23751981.7524   23751982.1374   23751984.4764
      2622.3214
  -6790207.25148  -5277766.53647  23462244.3324   23462245.2124   23462247.4204
     -3526.9134
 -19520332.24648 -15162231.20047  22051110.1384   22051109.5894   22051111.6244
     -1959.7754
  -9257136.40347  -7203400.12546  23724482.0014   23724482.4294   23724485.0614
      2231.6234
  -1187018.21147   -908360.97946  24679647.2284   24679646.2894   24679651.6474
     -3714.3274
 -11692485.06047  -9104562.24046  23757433.6804   23757434.0584   23757437.3614
     -2895.7954
 -16783848.90148 -13011960.60247  22305211.5484   22305209.9114   22305214.8664
      2921.1404
 -25317477.64649 -19724587.16648  20422316.8984   20422317.1804   20422318.7704
       635.9394
 -16715855.00948 -12986086.59347  22108862.8924   22108862.9314   22108866.1734
      1625.4864
 10  1  1  0  1 30.0000000  0  9G17G05G28G18G10G08G09G15G27
  -9237750.18647  -7146549.12946  23737033.3794   23737032.9374   23737035.9504
      2613.7314
  -6684329.10248  -5195264.08947  23482392.0564   23482392.3974   23482394.5214
     -3532.0664
 -19461346.91648 -15116268.60247  22062334.8124   22062334.2354   22062336.2564
     -1973.0624
  -9323862.25447  -7255394.29046  23711784.9424   23711784.6904   23711784.9804
      2216.3704
  -1075590.36547   -821534.07446  24700852.0534   24700852.1384   24700854.2984
     -3714.5784
 -11605577.66047  -9036842.20346  23773972.6134   23773972.1654   23773975.0724
     -2898.4994
 -16871378.63048 -13080165.56247  22288555.5414   22288554.4904   22288557.4304
      2913.8214
 -25336332.35049 -19739279.15048  20418729.1164   20418729.3544   20418730.9994
       620.6174
 -16764527.80548 -13024013.43747  22099600.8794   22099600.1354   22099603.0194
      1619.0894
 10  1  1  0  2  0.0000000  0  9G17G05G28G18G10G08G09G15G27
  -9316064.70147  -7207573.41846  23722130.1384   23722130.7164   23722133.5324
      2606.1444
  -6578310.83148  -5112652.46247  23502566.8604   23502566.6684   23502569.8884
     -3536.2264
 -19401985.32648 -15070012.82347  22073630.9184   22073630.7834   22073632.2904
     -1985.0144
  -9390155.06947  -7307051.03246  23699169.5054   23699168.1784   23699170.9964
      2202.5194
   -964175.90947   -734717.59746  24722053.5804   24722052.4524   24722055.9644
     -3713.6944
 -11518597.01947  -8969065.09446  23790524.1154   23790522.9204   23790525.4314
     -2900.5964
 -16958707.59048 -13148214.07347  22271937.0194   22271937.4254   22271939.7584
      2907.5974
 -25354741.59049 -19753624.01748  20415225.9344   20415226.1744   20415227.6704
       606.2404
 -16813024.66148 -13061803.18847  22090372.4584   22090372.2584   22090374.5244
      1613.5404
 10  1  1  0  2 30.0000000  0  9G17G05G28G18G10G08G09G15G27
  -9394138.66447  -7268410.25846  23707273.4324   23707273.7324   23707275.5194
      2598.0364
  -6472158.89748  -5029936.68247  23522766.5264   23522766.7114   23522769.6954
     -3541.0564
 -19342253.16048 -15023468.28047  22084997.5994   22084996.9164   22084999.2604
     -1997.7094
  -9456016.30247  -7358371.48246  23686637.1074   23686637.4584   23686638.8154
      2187.7084
   -852780.52847   -647915.99146  24743251.1124   24743250.6314   24743254.5434
     -3713.1964
 -11431547.84947  -8901234.59046  23807089.5594   23807089.4124   23807092.5274
     -2902.9834
 -17045838.25848 -13216108.07847  22255356.9614   22255356.5944   22255359.2304
      2900.7184
 -25372707.78049 -19767623.65348  20411807.0474   20411807.2714   20411808.7074
       591.1124
 -16861349.38748 -13099458.80147  22081176.1054   22081175.7714   22081179.3974
      1607.5744
 10  1  1  0  3  0.0000000  0  9G17G05G28G18G10G08G09G15G27
  -9471967.38647  -7329056.00646  23692462.8764   23692463.0634   23692464.9814
      2590.6674
  -6365874.52648  -4947117.70947  23542992.0124   23542992.3824   23542995.2184
     -3544.8634
 -19282150.81648 -14976635.28947  22096434.8174   22096434.4744   22096436.3704
     -2009.3414
  -9521442.02247  -7409352.56646  23674187.1004   23674187.1254   23674188.1574
      2173.6714
   -741404.94447   -561129.82446  24764445.6784   24764444.9674   24764447.5204
     -3711.9894
 -11344429.04647  -8833349.82346  23823667.1684   23823666.5264   23823671.2004
     -2904.9474
 -17132768.30048 -13283845.74947  22238813.6264   22238815.1344   22238816.6404
      2894.4054
 -25390227.80149 -19781275.62448  20408473.0064   20408473.2784   20408474.8034
       576.6404
 -16909500.26148 -13136978.95147  22072013.6294   22072013.7344   22072016.1424
      1602.3564
 10  1  1  0  3 30.0000000  0  9G17G05G28G18G10G08G09G15G27
  -9549548.40547  -7389508.73947  23677700.0644   23677700.7854   23677702.1614
      2581.2534
  -6259460.96948  -4864198.06747  23563241.8634   23563242.0964   23563244.8854
     -3549.8534
 -19221680.82148 -14929515.81347  22107941.5714   22107941.2804   22107943.0284
     -2022.2634
  -9586431.01247  -7459993.34146  23661819.9724   23661819.7454   23661821.8374
      2158.5454
   -630052.81747   -474361.90746  24785634.3674   24785633.8764   24785638.1654
     -3711.9444
 -11257241.26047  -8765411.32046  23840258.3894   23840257.8054   23840261.0924
     -2907.8354
 -17219497.15848 -13351426.64347  22222310.4364   22222310.3884   22222313.4894
      2886.9654
 -25407301.06849 -19794579.47548  20405224.2224   20405224.4374   20405225.9144
       561.0754
 -16957478.16948 -13174364.32147  22062883.1644   22062883.4054   22062886.1994
      1595.8314
 10  1  1  0  4  0.0000000  0  9G17G05G28G18G10G08G09G15G27
  -9626877.26847  -7449764.98147  23662985.2604   23662985.0094   23662987.6914
      2572.9204
  -6152920.33848  -4781179.40647  23583515.7404   23583516.6754   23583518.5904
     -3553.8574
 -19160844.17148 -14882110.63047  22119518.3314   22119518.4094   22119519.9904
     -2034.3304
  -9650979.92447  -7510291.19846  23649536.2644   23649535.1964   23649539.0124
      2143.7914
   -518724.99647   -387612.97246  24806819.2404   24806819.0354   24806823.3804
     -3710.9914
 -11169984.68347  -8697419.20446  23856863.0844   23856863.6404   23856866.1094
     -2910.3944
 -17306023.14248 -13418849.46847  22205845.4424   22205845.5374   22205847.5524
      2880.2554
 -25423925.02849 -19807533.21448  20402060.8304   20402060.8414   20402062.4624
       546.1944
 -17005282.01848 -13211614.05447  22053786.9314   22053787.0334   22053789.9114
      1590.0924
 10  1  1  0  4 30.0000000  0  9G17G05G28G18G10G08G09G15G27
  -9703951.08547  -7509822.48247  23648318.1954   23648318.0064   23648319.9554
      2564.8414
  -6046255.10347  -4698063.65147  23603813.5544   23603814.3634   23603817.1534
     -3557.7654
 -19099642.22648 -14834420.80447  22131165.0924   22131164.8064   22131166.6584
     -2046.2574
  -9715086.38647  -7560244.29446  23637337.6484   23637336.7214   23637338.5064
      2129.2344
   -407423.98647   -300884.91046  24827999.2174   24827998.4674   24828003.5354
     -3709.8074
 -11082659.78147  -8629373.85446  23873480.2364   23873479.8594   23873483.2674
     -2912.3274
 -17392344.62848 -13486112.95747  22189417.9004   22189417.0764   22189421.3374
      2873.7284
 -25440098.59949 -19820136.00348  20398982.8294   20398983.1194   20398984.7244
       531.3874
 -17052911.71948 -13248728.08847  22044723.4744   22044722.7914   22044725.9484
      1584.3584
 10  1  1  0  5  0.0000000  0  9G17G05G28G18G10G08G09G15G27
  -9780767.78948  -7569679.63647  23633700.7674   23633701.0284   23633703.0864
      2555.3434
  -5939468.97148  -4614853.69047  23624134.6574   23624134.4384   23624137.2484
     -3562.3614
 -19038078.03648 -14786448.70447  22142880.3014   22142879.9694   22142881.7804
     -2058.9714
  -9778749.42447  -7609851.84646  23625222.0054   23625223.0714   23625224.0464
      2113.7684
   -296153.10847   -214180.34146  24849173.5654   24849173.1054   24849176.8234
     -3709.4204
 -10995267.86047  -8561276.26946  23890110.9014   23890109.9194   23890113.7504
     -2914.9714
 -17478461.78348 -13553217.21847  22173030.7184   22173030.4624   22173033.8184
      2866.2624
 -25455821.12149 -19832387.32348  20395990.9254   20395991.2024   20395992.8364
       515.7764
 -17100368.21948 -13285707.16247  22035692.8014   22035692.1224   22035695.3564
      1578.1684
 10  1  1  0  5 30.0000000  0 10G12G17G05G28G18G10G08G09G15G27
  -2443922.40346  -1845503.58646  25412776.1024   25412777.2734   25412779.9314
      3822.0714
  -9857327.50548  -7629336.55147  23619131.7254   23619131.9364   23619132.7984
      2547.4694
  -5832567.71647  -4531554.01247  23644477.1524   23644477.0984   23644479.7214
     -3565.4134
 -18976156.87748 -14738198.45247  22154663.5824   22154663.7654   22154665.0894
     -2070.2174
  -9841969.95747  -7659114.61246  23613192.8814   23613191.9884   23613193.0324
      2099.6204
   -184917.91347   -127503.59646  24870340.9434   24870340.4244   24870344.0584
     -3707.3244
 -10907812.68547  -8493129.39546  23906752.4544   23906751.6664   23906755.9244
     -2916.3774
 -17564376.85848 -13620164.02047  22156682.1894   22156681.7784   22156685.0004
      2860.1604
 -25471094.57449 -19844288.72548  20393084.6344   20393085.0534   20393086.4574
       501.3734
 -17147654.58548 -13322553.67047  22026694.4084   22026694.0884   22026696.7914
      1573.2244
 10  1  1  0  6  0.0000000  0 10G12G17G05G28G18G10G08G09G15G27
  -2558561.98046  -1934833.05246  25390961.5734   25390961.4034   25390965.5714
      3820.7184
  -9933621.05048  -7688786.05247  23604613.5794   23604613.7274   23604615.8814
      2538.2184
  -5725548.28847  -4448162.27347  23664841.8584   23664843.0144   23664844.3884
     -3569.5284
 -18913874.51648 -14689666.74247  22166515.3494   22166515.0014   22166516.7364
     -2082.3664
  -9904739.66247  -7708026.08246  23601248.2364   23601246.6684   23601249.0604
      2084.3334
    -73714.68047    -40851.71246  24891502.2304   24891500.1964   24891503.2164
     -3706.3604
 -10820288.59947  -8424928.82246  23923407.9664   23923407.1574   23923410.7204
     -2918.7864
 -17650082.97448 -13686947.98547  22140372.4924   22140371.1144   22140375.2194
      2853.0054
 -25485911.42349 -19855834.32348  20390265.1764   20390265.3284   20390266.7844
       485.9964
 -17194764.72148 -13359262.85647  22017729.3144   22017729.2054   22017732.2264
      1567.0114
 10  1  1  0  6 30.0000000  0 10G12G17G05G28G18G10G08G09G15G27
  -2673164.51445  -2024133.64645  25369153.1904   25369153.2254   25369155.8394
      3819.4204
 -10009650.45248  -7748029.71647  23590145.3294   23590145.4354   23590147.4724
      2529.8764
  -5618418.53847  -4364684.56447  23685228.4534   23685228.0694   23685231.2924
     -3572.5804
 -18851237.70648 -14640858.83947  22178434.6504   22178434.7944   22178436.2924
     -2093.7654
  -9967061.56947  -7756588.60946  23589388.2394   23589387.8044   23589390.3184
      2069.9854
     37449.30247     45769.53246  24912656.3124   24912654.8264   24912658.5024
     -3704.6124
 -10732701.66847  -8356679.27746  23940075.0694   23940074.2454   23940078.9494
     -2920.4964
 -17735584.14448 -13753572.24947  22124102.6874   22124101.6604   22124104.8794
      2846.7304
 -25500275.89449 -19867027.42348  20387531.7164   20387531.7874   20387533.3794
       471.2574
 -17241703.83148 -13395838.77347  22008797.2144   22008796.9444   22008800.2144
      1561.9074
 10  1  1  0  7  0.0000000  0 10G12G17G05G28G18G10G08G09G15G27
  -2787724.74546  -2113401.21645  25347353.6034   25347353.7574   25347355.1774
      3818.1464
 -10085409.87448  -7807063.02647  23575728.8244   23575729.0264   23575732.1664
      2520.8384
  -5511178.43147  -4281120.85346  23705635.7564   23705634.9124   23705637.2914
     -3576.1284
 -18788246.19248 -14591774.54547  22190421.6374   22190421.4844   22190423.1214
     -2105.5294
 -10028931.15147  -7804798.67246  23577615.7494   23577614.5714   23577616.6444
      2054.8764
    148574.16747    132360.31846  24933802.3464   24933801.9314   24933804.2644
     -3703.5794
 -10645049.45447  -8288378.85946  23956755.4994   23956753.6724   23956758.0044
     -2923.0434
 -17820876.74448 -13820033.98447  22107871.1844   22107870.7734   22107874.4184
      2839.5974
 -25514183.55949 -19877864.56648  20384885.0014   20384885.1784   20384886.8104
       455.8584
 -17288469.22148 -13432279.32947  21999898.2444   21999898.0334   21999900.8884
      1555.8974
 10  1  1  0  7 30.0000000  0 10G12G17G05G28G18G10G08G09G15G27
  -2902237.95646  -2202632.26045  25325561.9704   25325560.5844   25325566.0884
      3815.0434
 -10160893.75548  -7865881.62147  23561364.7354   23561364.5034   23561367.1434
      2510.7664
  -5403828.38047  -4197471.46946  23726063.3754   23726064.0204   23726066.3854
     -3581.0204
 -18724899.01348 -14542413.10747  22202476.4164   22202475.6484   22202477.7794
     -2118.2714
 -10090343.48347  -7852652.43846  23565929.3114   23565929.4784   23565929.6474
      2038.6944
    259660.31846    218920.92246  24954941.0974   24954939.3904   24954944.4944
     -3702.7904
 -10557330.01147  -8220026.05746  23973447.5764   23973446.1284   23973449.5914
     -2925.6914
 -17905956.78348 -13886330.09347  22091681.2004   22091680.5714   22091683.7714
      2831.5734
 -25527630.77849 -19888342.92448  20382326.1834   20382326.4024   20382327.9294
       439.7604
 -17335058.18448 -13468582.40247  21991032.5254   21991032.0144   21991035.5494
      1549.3264
 10  1  1  0  8  0.0000000  0 10G12G17G05G28G18G10G08G09G15G27
  -3016707.76447  -2291829.46345  25303779.7004   25303779.6784   25303782.5924
      3815.0134
 -10236104.72748  -7924487.55947  23547052.5614   23547052.5494   23547056.1534
      2502.7794
  -5296376.67247  -4113742.87146  23746510.3384   23746509.8314   23746513.8094
     -3583.1284
 -18661204.08148 -14492780.69547  22214596.8334   22214595.9974   22214598.5194
     -2128.6494
 -10151302.42347  -7900152.91746  23554329.2064   23554327.6314   23554330.1814
      2024.8984
    370699.52347    305444.93446  24976071.6584   24976071.1194   24976074.5174
     -3700.3304
 -10469549.41747  -8151625.60546  23990151.1134   23990150.2324   23990154.6484
     -2926.6394
 -17990829.12448 -13952464.36347  22075530.6454   22075530.9264   22075532.9604
      2825.8824
 -25540621.97049 -19898465.93648  20379854.0834   20379854.3584   20379855.7934
       425.8134
 -17381476.50148 -13504752.50647  21982199.2514   21982198.9834   21982202.0074
      1544.8064
 10  1  1  0  8 30.0000000  0 10G12G17G05G28G18G10G08G09G15G27
  -3131132.37146  -2380991.50545  25282004.4924   25282006.2074   25282005.9154
      3813.9804
 -10311040.13348  -7982878.77247  23532792.8514   23532793.7814   23532795.1674
      2493.8704
  -5188826.03547  -4029937.18646  23766976.7414   23766976.8234   23766979.7874
     -3586.0744
 -18597163.62548 -14442879.02947  22226783.3484   22226782.6454   22226784.8324
     -2140.0154
 -10211806.04347  -7947298.58346  23542815.7374   23542815.1504   23542815.9214
      2009.6124
    481689.14947    391930.33346  24997192.5704   24997191.5324   24997196.4274
     -3698.5044
 -10381708.57447  -8083178.20146  24006866.8214   24006865.9954   24006870.3994
     -2928.5544
 -18075493.30848 -14018436.43347  22059419.0874   22059419.8644   22059420.9294
      2818.9804
 -25553156.31449 -19908232.96248  20377469.0384   20377469.1174   20377470.4944
       410.5524
 -17427724.41848 -13540789.83947  21973398.6944   21973398.4154   21973401.7294
      1539.1594
 10  1  1  0  9  0.0000000  0  9G17G05G28G18G10G08G09G15G27
 -10385694.91448  -8041051.31147  23518586.5174   23518586.9624   23518588.8534
      2483.7844
  -5081177.68247  -3946055.35746  23787461.5434   23787461.6544   23787463.6574
     -3590.0804
 -18532777.48748 -14392708.00847  22239035.6604   22239035.3554   22239037.0924
     -2151.7504
 -10271850.40847  -7994086.40546  23531389.5904   23531389.4704   23531389.8944
      1993.8444
    592629.18047    478377.09346  25018303.3474   25018302.3374   25018305.2934
     -3697.3464
 -10293806.62447  -8014683.19046  24023593.7974   24023593.6724   24023598.3434
     -2930.9104
 -18159946.24248 -14084243.89247  22043348.9434   22043348.1554   22043351.4934
      2811.6194
 -25565230.65449 -19917641.54248  20375171.2374   20375171.5454   20375172.9404
       394.9224
 -17473800.07948 -13576692.94347  21964630.8124   21964630.3974   21964633.3724
      1533.1414
 10  1  1  0  9 30.0000000  0 10G12G17G05G28G18G10G08G09G15G27
  -3359832.09046  -2559198.93845  25238483.4574   25238485.6144   25238485.6294
      3810.2784
 -10460065.67348  -8099002.53447  23504434.5274   23504434.1814   23504437.2734
      2474.1904
  -4973433.85747  -3862099.13946  23807963.8564   23807964.7124   23807966.9194
     -3593.2714
 -18468047.09048 -14342268.73647  22251353.5204   22251353.0374   22251355.0434
     -2163.4774
 -10331432.93247  -8040514.35046  23520050.6424   23520050.0664   23520051.4934
      1978.8584
    703517.37447    564783.43146  25039404.6754   25039404.3314   25039407.4404
     -3695.3254
 -10205843.23647  -7946140.31746  24040333.2274   24040330.8984   24040335.2884
     -2933.1854
 -18244186.65748 -14149885.73847  22027318.3114   22027318.0224   22027321.3314
      2804.3834
 -25576843.14549 -19926690.24548  20372961.4114   20372961.4874   20372963.1644
       379.2364
 -17519702.78448 -13612461.27747  21955895.8044   21955895.2604   21955898.4344
      1527.1164
 10  1  1  0 10  0.0000000  0 10G12G17G05G28G18G10G08G09G15G27
  -3474102.91847  -2648241.08346  25216739.2714   25216740.4464   25216740.3774
      3808.4884
 -10534149.67648  -8156730.32347  23490336.5514   23490337.3094   23490338.1404
      2464.9784
  -4865597.78847  -3778071.04146  23828485.2434   23828485.6394   23828486.5304
     -3595.5714
 -18402974.84648 -14291563.09047  22263736.3884   22263736.1194   22263737.4984
     -2174.3474
 -10390551.94247  -8086581.11446  23508800.7074   23508800.6634   23508801.9734
      1963.1324
    814351.15947    651147.41746  25060495.5964   25060495.2054   25060499.2144
     -3693.3054
 -10117819.07747  -7877550.09246  24057083.2334   24057082.2484   24057086.3344
     -2934.9904
 -18328213.74848 -14215361.36947  22011328.2394   22011328.7114   22011331.1454
      2797.4964
 -25587992.79449 -19935378.28848  20370839.6934   20370839.8904   20370841.5014
       364.2324
 -17565433.13348 -13648095.31047  21947193.4404   21947193.5484   21947196.2804
      1521.7644
 10  1  1  0 10 30.0000000  0 10G12G17G05G28G18G10G08G09G15G27
  -3588318.80447  -2737240.44746  25195005.3704   25195006.4114   25195006.9744
      3806.6404
 -10607944.56248  -8214232.82647  23476293.8904   23476294.6914   23476296.3524
      2455.4304
  -4757673.10747  -3693973.88446  23849022.8324   23849023.0144   23849025.5944
     -3598.7874
 -18337563.50248 -14240593.20747  22276183.8684   22276183.7884   22276185.0844
     -2185.7034
 -10449206.25747  -8132285.77946  23497639.5254   23497638.6234   23497640.5884
      1947.9584
    925127.35047    737466.47846  25081575.5054   25081574.8364   25081578.2414
     -3690.8544
 -10029735.67347  -7808913.70446  24073844.8274   24073843.9424   24073847.0434
     -2936.7314
 -18412027.19548 -14280670.52747  21995379.4594   21995379.0674   21995381.8984
      2790.5824
 -25598679.43849 -19943705.54948  20368806.1194   20368806.3474   20368807.8734
       348.7904
 -17610991.80048 -13683595.55747  21938524.0404   21938524.0214   21938526.5514
      1516.0564
 10  1  1  0 11  0.0000000  0 10G12G17G05G28G18G10G08G09G15G27
  -3702478.91647  -2826196.37046  25173281.1254   25173280.2444   25173284.6094
      3804.8044
 -10681448.39748  -8271508.52847  23462306.7064   23462306.8164   23462309.5014
      2445.7984
  -4649663.25747  -3609810.36946  23869576.2024   23869576.4634   23869579.5044
     -3601.3314
 -18271815.93348 -14189361.33847  22288694.9974   22288694.6124   22288695.9634
     -2196.8314
 -10507395.16047  -8177627.77646  23486566.2804   23486566.3884   23486567.9294
      1932.2514
   1035842.95847    823738.38246  25102644.2514   25102643.1004   25102647.4574
     -3689.1204
  -9941594.73047  -7740232.46046  24090618.2684   24090617.5774   24090621.3844
     -2938.7384
 -18495627.09248 -14345813.28047  21979470.9004   21979470.4114   21979473.2904
      2783.5674
 -25608902.72349 -19951671.75048  20366860.5684   20366860.7644   20366862.5054
       333.4814
 -17656379.51548 -13718962.60047  21929886.8934   21929887.2104   21929889.7034
      1510.4914
 10  1  1  0 11 30.0000000  0 10G12G17G05G28G18G10G08G09G15G27
  -3816578.46447  -2915105.11845  25151568.3674   25151567.4364   25151571.1144
      3802.1964
 -10754655.09148  -8328552.69547  23448375.9874   23448375.5014   23448377.2904
      2435.1204
  -4541567.82347  -3525580.15746  23890145.7824   23890146.3294   23890148.4074
     -3604.7384
 -18205730.98648 -14137866.56947  22301270.5154   22301270.3754   22301271.4404
     -2208.5224
 -10565113.57547  -8222603.16746  23475582.4354   23475583.2114   23475584.6584
      1915.7624
   1146498.30247    909963.29646  25123700.7474   25123699.7204   25123704.0204
     -3687.6124
  -9853392.97647  -7671503.83146  24107402.0254   24107401.4274   24107405.2244
     -2940.9214
 -18579009.43348 -14410786.50747  21963603.2854   21963603.6784   21963606.3594
      2775.6114
 -25618658.54849 -19959273.69948  20365004.1354   20365004.4994   20365005.9124
       317.3034
 -17701593.33448 -13754194.13947  21921283.1524   21921283.1804   21921285.6994
      1504.1224
 10  1  1  0 12  0.0000000  0 10G12G17G05G28G18G10G08G09G15G27
  -3930616.92047  -3003966.33345  25129867.6034   25129865.2074   25129871.4814
      3800.4594
 -10827563.92248  -8385364.76347  23434501.7054   23434500.8894   23434503.1284
      2425.3634
  -4433391.87947  -3441287.21646  23910731.6064   23910731.3014   23910734.0544
     -3607.1384
 -18139313.09248 -14086112.36447  22313909.5684   22313908.9464   22313911.1074
     -2219.4504
 -10622361.62247  -8267212.03446  23464689.0884   23464689.2414   23464691.3614
      1900.3214
   1257088.92147    996137.78346  25144745.2784   25144745.5614   25144750.2194
     -3684.9614
  -9765133.90247  -7602730.54446  24124197.2014   24124196.1454   24124200.0924
     -2942.7974
 -18662175.21748 -14475590.99547  21947777.5314   21947777.4404   21947780.5574
      2768.5514
 -25627947.89549 -19966512.15748  20363236.7034   20363236.7624   20363238.2854
       301.8784
 -17746635.61348 -13789292.00847  21912711.7444   21912711.4574   21912714.4994
      1498.6294
 10  1  1  0 12 30.0000000  0 10G12G17G05G28G18G10G08G09G15G27
  -4044593.52147  -3092779.25346  25108178.7804   25108179.6574   25108181.9584
      3798.0134
 -10900172.92748  -8441943.19447  23420684.9384   23420684.5714   23420687.6274
      2415.1694
  -4325139.39847  -3356934.62646  23931331.5474   23931332.0024   23931333.8544
     -3609.7434
 -18072565.20248 -14034101.01747  22326611.0584   22326610.5524   22326612.3184
     -2230.3814
 -10679138.18047  -8311453.51346  23453883.8064   23453884.2444   23453886.5614
      1884.8144
   1367611.54147   1082259.29546  25165778.0404   25165776.0514   25165781.1434
     -3682.8704
  -9676818.53147  -7533913.37846  24141003.5004   24141002.6424   24141006.9514
     -2944.7934
 -18745124.43948 -14540226.72547  21931992.9874   21931992.4314   21931995.4654
      2761.3504
 -25636770.68849 -19973387.06748  20361557.5994   20361557.9004   20361559.3334
       286.2474
 -17791507.33548 -13824256.97347  21904173.1064   21904172.5404   21904175.7424
      1492.8584
 10  1  1  0 13  0.0000000  0 10G12G17G05G28G18G10G08G09G15G27
  -4158504.63447  -3181541.12346  25086502.3674   25086502.6964   25086506.2174
      3796.2254
 -10972477.68948  -8498284.55447  23406925.1704   23406926.0144   23406928.1674
      2405.3694
  -4216811.50447  -3272523.27046  23951945.4434   23951944.9054   23951947.9044
     -3611.9414
 -18005487.93648 -13981833.01647  22339375.6334   22339374.7684   22339376.9824
     -2241.0504
 -10735439.82747  -8355324.93946  23443171.2414   23443170.3894   23443171.6204
      1869.1924
   1478065.46547   1168327.24946  25186796.8714   25186796.4484   25186799.1974
     -3680.1534
  -9588446.32347  -7465051.93246  24157820.2784   24157819.7454   24157822.6444
     -2946.3664
 -18827854.67448 -14604691.81747  21916249.5764   21916249.4674   21916251.8824
      2754.1774
 -25645124.23349 -19979896.32848  20359967.8694   20359968.2504   20359969.7964
       270.9444
 -17836206.94248 -13859087.82047  21895666.7864   21895666.6904   21895669.8204
      1487.4354
 10  1  1  0 13 30.0000000  0 10G12G17G05G28G18G10G08G09G15G27
  -4272349.68647  -3270251.55046  25064837.9234   25064837.6854   25064841.1554
      3793.5784
 -11044476.43348  -8554387.46747  23393224.4714   23393225.0474   23393227.1844
      2394.8814
  -4108412.26747  -3188056.33746  23972572.9484   23972573.5134   23972576.1454
     -3614.3954
 -17938084.47848 -13929310.84147  22352202.0864   22352201.6434   22352203.5794
     -2252.1764
 -10791266.16747  -8398825.99046  23432547.1254   23432546.4584   23432549.1864
      1853.0924
   1588447.11047   1254338.93945  25207801.0234   25207800.3614   25207804.9414
     -3677.8594
  -9500019.23147  -7396147.71946  24174647.0544   24174646.9394   24174649.2134
     -2948.5814
 -18910366.61248 -14668986.82047  21900548.3174   21900548.0394   21900550.8634
      2746.6964
 -25653008.94749 -19986040.26748  20358467.5034   20358467.5654   20358469.2244
       255.0694
 -17880735.78248 -13893785.61047  21887193.2294   21887192.9394   21887196.1534
      1481.5104
 10  1  1  0 14  0.0000000  0 10G12G17G05G28G18G10G08G09G15G27
  -4386124.83947  -3358907.50446  25043187.5094   25043187.2794   25043191.0274
      3790.4934
 -11116164.60048  -8610248.36947  23379582.7864   23379583.1344   23379584.5424
      2383.8134
  -3999942.80447  -3103534.67446  23993214.1434   23993214.2214   23993217.8754
     -3617.6764
 -17870355.24348 -13876534.81047  22365090.4844   22365089.8434   22365092.4014
     -2263.7234
 -10846613.95047  -8441954.12246  23422015.2754   23422015.1564   23422016.2034
      1836.2354
   1698755.89947   1340293.80546  25228792.2864   25228792.0464   25228795.4544
     -3676.3904
  -9411536.00747  -7327199.76246  24191484.7114   24191484.9054   24191487.4464
     -2951.1674
 -18992657.15248 -14733109.29947  21884888.8094   21884889.0214   21884891.3984
      2738.5394
 -25660422.02349 -19991816.69048  20357056.9974   20357057.1704   20357058.5624
       238.4804
 -17925092.04448 -13928348.91847  21878752.5634   21878752.2024   21878755.6564
      1474.8514
 10  1  1  0 14 30.0000000  0 10G12G17G05G28G18G10G08G09G15G27
  -4499829.24447  -3447508.33046  25021550.5374   25021550.5774   25021552.5074
      3788.8984
 -11187540.67748  -8665866.08247  23366000.5794   23366001.2764   23366002.6674
      2373.8704
  -3891407.30747  -3018961.56546  24013867.8514   24013867.3394   24013869.8264
     -3618.7594
 -17802303.53748 -13823507.51347  22378040.0684   22378039.6104   22378041.5884
     -2273.8834
 -10901482.18247  -8484708.59146  23411574.4914   23411572.5534   23411576.3914
      1821.0904
   1808988.29747   1426189.12745  25249768.9294   25249770.1384   25249770.8804
     -3673.6084
  -9322998.08247  -7258209.15946  24208332.7794   24208331.8574   24208336.1564
     -2952.0314
 -19074726.99448 -14797059.81347  21869271.0264   21869271.2964   21869273.8484
      2732.2734
 -25667363.71749 -19997225.80848  20355735.9054   20355736.1154   20355737.7094
       223.6034
 -17969277.03448 -13962778.77747  21870344.4304   21870344.4954   21870347.4824
      1470.0774
 10  1  1  0 15  0.0000000  0 10G12G17G05G28G18G10G08G09G15G27
  -4613460.77447  -3536052.37046  24999926.5544   24999926.6064   24999930.0994
      3786.4634
 -11258601.43048  -8721238.08547  23352477.9044   23352477.1404   23352480.4874
      2363.0654
  -3782808.40247  -2934339.05147  24034533.5124   24034533.9424   24034535.5224
     -3621.1514
 -17733931.16248 -13770230.33647  22391050.9134   22391049.9094   22391052.2514
     -2284.5784
 -10955869.25047  -8527088.12646  23401224.9174   23401223.9654   23401227.3414
      1804.6224
   1919141.76947   1512023.03145  25270731.4224   25270730.6594   25270735.1654
     -3670.4454
  -9234406.12847  -7189176.47846  24225191.2564   24225190.4604   24225193.6574
     -2954.3374
 -19156574.73448 -14860837.24147  21853696.4464   21853696.0744   21853698.7264
      2724.2374
 -25673832.73749 -20002266.60748  20354505.0804   20354505.0964   20354506.5424
       207.4874
 -18013290.79748 -13997075.20247  21861968.9754   21861968.8894   21861971.7974
      1464.1554
 10  1  1  0 15 30.0000000  0 10G12G17G05G28G18G10G08G09G15G27
  -4727018.60447  -3624538.95446  24978317.6954   24978317.2564   24978319.8094
      3783.2934
 -11329345.02648  -8776362.95547  23339016.1114   23339016.2054   23339017.5394
      2352.4074
  -3674149.68247  -2849669.93147  24055210.5934   24055211.4444   24055212.8894
     -3623.2514
 -17665240.94148 -13716705.48647  22404122.6264   22404121.6844   22404123.9474
     -2295.3074
 -11009773.99247  -8569091.83746  23390966.8664   23390966.9324   23390968.7854
      1788.4574
   2029213.15047   1597792.92245  25291676.6694   25291676.3994   25291680.8554
     -3668.1344
  -9145761.43447  -7120102.69746  24242060.0954   24242058.7674   24242062.7754
     -2955.8404
 -19238200.52648 -14924441.74047  21838163.4824   21838163.3634   21838165.3744
      2716.6814
 -25679828.91449 -20006938.95748  20353363.8954   20353364.1384   20353365.6474
       191.5834
 -18057134.40148 -14031239.04047  21853625.9564   21853625.5994   21853628.4724
      1458.1884
 10  1  1  0 16  0.0000000  0 10G12G17G05G28G18G10G08G09G15G27
  -4840498.23547  -3712964.60246  24956722.8284   24956721.7214   24956725.7054
      3781.0944
 -11399766.67848  -8831236.96247  23325614.9174   23325614.7194   23325617.8484
      2341.7744
  -3565432.07447  -2764954.91847  24075898.9604   24075899.0974   24075900.4594
     -3624.9344
 -17596233.58748 -13662933.52647  22417253.9974   22417253.6584   22417255.4744
     -2305.5414
 -11063193.12647  -8610717.11346  23380801.4614   23380800.4704   23380802.2594
      1772.3214
   2139201.82446   1683498.37545  25312607.0244   25312607.0214   25312611.4974
     -3664.6194
  -9057062.81747  -7050986.91446  24258938.9394   24258938.0744   24258941.7854
     -2957.8094
 -19319601.80748 -14987871.28647  21822673.3564   21822673.4104   21822676.0544
      2709.4504
 -25685349.57249 -20011240.77548  20352313.3384   20352313.5134   20352315.1034
       175.9354
 -18100805.95948 -14065268.81847  21845315.3484   21845315.4244   21845318.1844
      1452.7484
 10  1  1  0 16 30.0000000  0 10G12G17G05G28G18G10G08G09G15G27
  -4953900.11747  -3801329.68846  24935143.6814   24935143.9474   24935145.3014
      3778.4964
 -11469865.21848  -8885859.19547  23312275.8654   23312275.9844   23312277.7834
      2330.9944
  -3456660.04547  -2680197.49847  24096597.2924   24096597.4634   24096599.7494
     -3627.1624
 -17526912.56948 -13608917.14647  22430445.2514   22430444.9194   22430447.0624
     -2316.2504
 -11116126.38047  -8651963.80546  23370729.1864   23370728.7144   23370730.5444
      1755.7384
   2249104.00346   1769136.37745  25333520.4194   25333518.1064   25333523.5764
     -3662.4124
  -8968312.81347  -6981831.08146  24275827.5184   24275826.0894   24275831.1684
     -2959.8414
 -19400779.39148 -15051126.53547  21807225.4854   21807225.7984   21807228.3494
      2701.8554
 -25690395.42049 -20015172.60848  20351353.1124   20351353.3634   20351354.7584
       159.8774
 -18144307.13248 -14099165.82447  21837037.3774   21837037.0664   21837039.9174
      1446.8284
 10  1  1  0 17  0.0000000  0 10G12G17G05G28G18G10G08G09G15G27
  -5067218.40246  -3889629.64746  24913579.1514   24913579.9794   24913581.7364
      3776.1364
 -11539634.34848  -8940224.75347  23298999.2894   23299000.1964   23299001.0504
      2320.4044
  -3347832.76147  -2595397.02947  24117306.3244   24117307.4944   24117309.5544
     -3628.1704
 -17457276.27448 -13554655.10147  22443696.7444   22443696.4154   22443697.8074
     -2326.0174
 -11168568.35847  -8692827.68346  23360749.8734   23360747.7194   23360750.4684
      1740.2344
   2358921.06146   1854708.12045  25354418.5694   25354415.6294   25354418.5074
     -3658.8524
  -8879507.99347  -6912632.52046  24292726.4854   24292725.2254   24292729.3614
     -2960.8574
 -19481728.36848 -15114203.65047  21791821.8064   21791821.5194   21791824.1104
      2694.7524
 -25694961.77149 -20018730.81148  20350484.3404   20350484.5264   20350486.0904
       144.5204
 -18187634.41048 -14132927.33347  21828792.6584   21828792.4054   21828795.1204
      1441.6314
 10  1  1  0 17 30.0000000  0 10G12G17G05G28G18G10G08G09G15G27
  -5180456.75846  -3977867.25946  24892030.4964   24892029.9414   24892034.2264
      3772.4844
 -11609076.78248  -8994335.74547  23285784.4754   23285784.3244   23285787.1774
      2308.7854
  -3238958.67047  -2510560.08246  24138024.7644   24138024.3924   24138026.3084
     -3630.5164
 -17387332.76148 -13500153.66647  22457006.4594   22457005.9174   22457008.1294
     -2337.0804
 -11220523.11047  -8733311.89846  23350863.0934   23350862.1014   23350864.8994
      1723.0554
   2468644.83046   1940207.07445  25375297.5234   25375296.0764   25375297.3074
     -3655.9294
  -8790654.83047  -6843396.27646  24309634.5034   24309634.0894   24309637.3344
     -2963.3124
 -19562453.63048 -15177106.44447  21776460.2374   21776459.8534   21776462.4634
      2686.5814
 -25699053.41949 -20021919.11448  20349705.6324   20349705.8504   20349707.4024
       128.0044
 -18230793.53048 -14166557.81147  21820579.5204   21820579.3254   21820582.0414
      1435.2854
 10  1  1  0 18  0.0000000  0 10G12G17G05G28G18G10G08G09G15G27
  -5293609.59246  -4066038.20346  24870498.3524   24870498.0154   24870502.0174
      3770.1664
 -11678186.20748  -9048187.23147  23272633.5934   23272633.6874   23272635.1494
      2298.0954
  -3130037.32947  -2425686.33246  24158751.6914   24158751.1994   24158753.6274
     -3631.4204
 -17317080.74048 -13445411.83347  22470374.7964   22470374.5224   22470376.8714
     -2346.8384
 -11271985.74447  -8773412.65846  23341069.2074   23341068.7784   23341070.9694
      1706.9744
   2578276.39846   2025634.21545  25396158.7264   25396155.2694   25396165.0064
     -3652.3514
  -8701750.47147  -6774120.14646  24326552.3344   24326551.1974   24326554.9084
     -2964.1334
 -19642950.69548 -15239831.42047  21761141.7084   21761142.1964   21761144.6194
      2679.5154
 -25702666.27849 -20024734.33248  20349018.1714   20349018.3024   20349019.8614
       112.4874
 -18273781.21048 -14200054.69647  21812398.9874   21812398.5884   21812402.1394
      1430.0514
 10  1  1  0 18 30.0000000  0 10G12G17G05G28G18G10G08G09G15G27
  -5406675.09346  -4154141.16246  24848983.2894   24848983.1144   24848985.8664
      3767.5894
 -11746960.10748  -9101777.28147  23259546.3174   23259546.2004   23259548.0854
      2286.9044
  -3021071.67847  -2340778.03546  24179486.6014   24179486.7944   24179490.4264
     -3633.0184
 -17246522.31348 -13390431.24347  22483801.7564   22483801.4284   22483803.4564
     -2356.9914
 -11322954.77947  -8813128.77846  23331369.8784   23331370.3244   23331372.3114
      1690.6564
   2687812.94946   2110987.35045  25417003.2474   25417004.8754   25417007.5624
     -3649.1544
  -8612795.02747  -6704804.23246  24343480.2864   24343479.7784   24343483.8694
     -2965.7264
 -19723218.76848 -15302377.95747  21745867.5654   21745867.7564   21745869.9344
      2671.8134
 -25705799.43649 -20027175.75748  20348421.9234   20348422.1804   20348423.9154
        96.3864
 -18316597.68648 -14233418.17447  21804251.6104   21804251.0994   21804254.2964
      1424.3994
 10  1  1  0 19  0.0000000  0  9G12G17G05G28G18G08G09G15G27
  -5519652.61946  -4242175.57446  24827484.2284   24827483.9644   24827485.0644
      3764.7224
 -11815396.70048  -9155104.48647  23246523.3574   23246523.8634   23246525.6174
      2275.3824
  -2912065.46447  -2255838.13346  24200229.8454   24200229.6204   24200232.8454
     -3634.3174
 -17175660.20948 -13335214.02347  22497286.5684   22497285.9484   22497287.1754
     -2367.2014
 -11373429.30747  -8852459.58546  23321765.4684   23321764.4944   23321766.0804
      1674.1754
  -8523791.00747  -6635450.45446  24360417.2914   24360416.8924   24360418.7654
     -2967.5274
 -19803257.99848 -15364746.16647  21730636.6864   21730636.4324   21730638.9054
      2663.8694
 -25708452.96549 -20029243.44948  20347916.9794   20347917.2394   20347918.6444
        80.2774
 -18359243.79848 -14266648.90147  21796136.1144   21796135.9034   21796138.8084
      1418.5144
 10  1  1  0 19 30.0000000  0  9G12G17G05G28G18G08G09G15G27
  -5632539.52947  -4330139.33646  24806002.0434   24806002.3374   24806005.1834
      3761.0964
 -11883492.80248  -9208166.38347  23233565.1594   23233564.5774   23233566.9494
      2264.0774
  -2803021.04647  -2170868.47146  24220980.0404   24220980.1144   24220983.6304
     -3635.5614
 -17104496.66248 -13279761.91047  22510828.5124   22510827.9314   22510829.8084
     -2377.2564
 -11423407.19647  -8891403.39346  23312254.5244   23312253.5774   23312256.1144
      1657.4624
  -8434738.21547  -6566058.66946  24377363.3784   24377363.2144   24377366.3224
     -2969.2694
 -19883067.11648 -15426935.07747  21715449.4074   21715448.9554   21715451.9534
      2656.4324
 -25710625.67549 -20030936.47348  20347503.6474   20347503.7354   20347505.2624
        64.3114
 -18401719.21548 -14299746.62047  21788053.3004   21788053.3954   21788055.9994
      1412.8894
 10  1  1  0 20  0.0000000  0  9G12G17G05G28G18G08G09G15G27
  -5745333.19347  -4418030.47746  24784538.2394   24784538.3644   24784540.4684
      3758.3404
 -11951245.20448  -9260960.46147  23220672.1494   23220672.3624   23220674.3744
      2252.5834
  -2693940.65547  -2085870.78346  24241737.5324   24241737.5744   24241740.9064
     -3636.6274
 -17033033.25248 -13224076.13847  22524427.3954   22524427.3884   22524429.2534
     -2386.9844
 -11472886.79647  -8929958.92346  23302839.0704   23302838.8974   23302840.7044
      1641.0474
  -8345636.51347  -6496628.77946  24394318.8544   24394317.6494   24394322.7684
     -2970.6064
 -19962644.97048 -15488943.78347  21700306.1134   21700305.9434   21700309.1524
      2648.6064
 -25712316.15349 -20032253.73448  20347181.8144   20347182.0494   20347183.6974
        48.2604
 -18444023.42148 -14332710.92647  21780002.9994   21780003.1474   21780005.8874
      1407.2334
 10  1  1  0 20 30.0000000  0  9G12G17G05G28G18G08G09G15G27
  -5858032.36047  -4505847.96146  24763092.0244   24763092.3524   24763094.0634
      3755.8364
 -12018651.14448  -9313484.55847  23207845.4214   23207844.8704   23207847.3244
      2241.2534
  -2584827.08847  -2000847.23946  24262501.0234   24262502.0034   24262504.3624
     -3637.2554
 -16961271.92248 -13168158.22447  22538083.1274   22538082.5684   22538084.0094
     -2396.8224
 -11521866.11647  -8968124.62746  23293519.2864   23293518.3234   23293520.3074
      1624.6024
  -8256486.48847  -6427161.23546  24411283.2194   24411283.4504   24411285.1444
     -2971.8714
 -20041990.21548 -15550771.24047  21685207.4604   21685206.9784   21685210.8954
      2641.2404
 -25713523.66849 -20033194.66248  20346951.9844   20346952.2604   20346953.8294
        32.5224
 -18486156.51448 -14365541.90048  21771985.5724   21771985.1214   21771988.4244
      1401.8584
 10  1  1  0 21  0.0000000  0  9G12G17G05G28G18G08G09G15G27
  -5970637.79847  -4593592.45546  24741664.6164   24741665.5104   24741667.1534
      3751.8384
 -12085710.67848  -9365738.74047  23195084.5284   23195083.9814   23195086.2134
      2229.3944
  -2475686.38947  -1915802.55546  24283270.0664   24283271.1104   24283273.0214
     -3638.4364
 -16889217.97248 -13112012.28547  22551794.9054   22551794.5974   22551796.2454
     -2406.7074
 -11570346.64947  -9005901.68946  23284293.9704   23284292.7544   23284294.4054
      1607.4604
  -8167291.85347  -6357658.94046  24428256.6034   24428255.9464   24428257.5794
     -2973.9224
 -20121105.22948 -15612419.28747  21670152.3624   21670152.2414   21670154.4974
      2633.3524
 -25714250.46349 -20033761.00448  20346813.8614   20346813.8694   20346815.5024
        16.1494
 -18528121.83049 -14398242.13648  21763999.6844   21763999.2914   21764002.7824
      1395.9814
 10  1  1  0 21 30.0000000  0  9G12G17G05G28G18G08G09G15G27
  -6083130.86047  -4681249.38446  24720257.9044   24720258.7554   24720260.0824
      3748.7774
 -12152404.47648  -9417707.93447  23182392.6404   23182392.6834   23182394.6334
      2217.4464
  -2366505.16047  -1830726.26546  24304046.4864   24304046.3644   24304049.5404
     -3639.3814
 -16816857.31648 -13055627.36047  22565564.2804   22565564.2714   22565565.9164
     -2416.4934
 -11618311.03348  -9043276.54146  23275166.6604   23275166.1084   23275167.0104
      1591.1794
  -8078037.37547  -6288109.99546  24445241.7374   24445240.7464   24445244.1934
     -2975.1054
 -20199972.65948 -15673874.40947  21655144.4024   21655143.8604   21655146.9524
      2625.3924
 -25714479.24849 -20033939.28248  20346770.2104   20346770.4474   20346772.0834
         -.0504
 -18569902.96349 -14430798.85448  21756049.3204   21756049.0694   21756052.0194
      1390.3024
 10  1  1  0 22  0.0000000  0 10G12G17G22G05G28G18G08G09G15G27
  -6195535.03447  -4768837.00246  24698868.2344   24698867.9904   24698870.2984
      3745.5214
 -12218755.37748  -9469409.92747  23169766.5094   23169766.1844   23169769.1044
      2205.9334
  -2081883.17247  -1387335.06346  25533409.6444   25533409.8824   25533410.5154
      2801.8624
  -2257311.42247  -1745640.23946  24324825.3724   24324825.4644   24324828.4794
     -3639.9024
 -16744217.29648 -12999024.75547  22579387.3814   22579386.9444   22579389.5834
     -2425.9474
 -11665782.74147  -9080267.47446  23266131.9614   23266130.6034   23266132.8964
      1574.4894
  -7988748.11347  -6218533.97146  24462232.6634   24462231.8364   24462234.6354
     -2976.6784
 -20278617.32948 -15735155.95747  21640178.9594   21640178.4864   21640181.6354
      2617.8554
 -25714234.61549 -20033748.66648  20346816.7464   20346817.0724   20346818.7134
       -15.9274
 -18611525.22549 -14463231.77148  21748128.9094   21748128.6314   21748131.1264
      1384.8964
 10  1  1  0 22 30.0000000  0 10G12G17G22G05G28G18G08G09G15G27
  -6307838.07447  -4856345.90146  24677497.8674   24677496.6604   24677500.7074
      3741.5614
 -12284751.11748  -9520835.17247  23157208.2404   23157208.3504   23157210.5244
      2193.8034
  -2165772.14047  -1452703.12746  25517446.1804   25517445.5174   25517445.6164
      2791.4704
  -2148097.20647  -1660538.24846  24345608.5194   24345608.7044   24345611.6374
     -3640.7924
 -16671289.58248 -12942197.96647  22593265.0354   22593264.5034   22593266.1654
     -2435.7384
 -11712749.85147  -9116865.22846  23257194.6114   23257194.6224   23257196.4754
      1556.5064
  -7899414.53447  -6148923.41246  24479231.9574   24479231.1564   24479234.5274
     -2978.5234
 -20357027.88848 -15796255.09147  21625257.4494   21625257.1164   21625260.5284
      2609.6524
 -25713505.96749 -20033180.89548  20346955.5504   20346955.8884   20346957.3124
       -32.4934
 -18652978.45049 -14495532.98148  21740240.4454   21740240.3164   21740243.3124
      1378.7444
 10  1  1  0 23  0.0000000  0 10G12G17G22G05G28G18G08G09G15G27
  -6420041.17847  -4943776.91046  24656146.0644   24656146.2374   24656149.1374
      3737.9344
 -12350390.76948  -9571982.95047  23144717.5524   23144718.0684   23144719.1494
      2181.8014
  -2249370.37246  -1517844.62546  25501537.7184   25501536.6774   25501538.3184
      2781.4684
  -2038868.69247  -1575425.11346  24366393.9594   24366394.4644   24366396.7004
     -3641.5604
 -16598079.44548 -12885151.11247  22607196.5364   22607196.1784   22607197.5994
     -2445.3724
 -11759213.99347  -9153071.05646  23248353.1824   23248352.4924   23248355.0584
      1539.8864
  -7810039.88147  -6079280.82446  24496239.7404   24496238.4404   24496241.8064
     -2980.0614
 -20435206.08848 -15857173.17547  21610380.7844   21610380.5604   21610383.3014
      2601.6174
 -25712294.74349 -20032237.09148  20347185.9324   20347186.2414   20347187.8774
       -48.8454
 -18694265.61349 -14527704.78848  21732383.8954   21732383.5144   21732386.4624
      1373.1134
 10  1  1  0 23 30.0000000  0 10G12G17G22G05G28G18G08G09G15G27
  -6532132.61247  -5031120.84646  24634815.9874   24634815.6764   24634818.0164
      3734.5694
 -12415662.60148  -9622844.11347  23132296.6964   23132296.6264   23132298.4594
      2169.6804
  -2332665.96746  -1582750.28546  25485687.6934   25485687.3724   25485687.9544
      2771.5144
  -1929618.68847  -1490295.24946  24387183.2294   24387183.5264   24387186.2594
     -3641.8784
 -16524579.19248 -12827878.18547  22621182.9204   22621182.6554   22621184.1554
     -2454.8054
 -11805164.11947  -9188876.33846  23239609.5214   23239609.2444   23239610.8224
      1523.1914
  -7720615.52847  -6009599.51946  24513256.2334   24513254.3304   24513259.7824
     -2981.4564
 -20513141.80248 -15917902.29647  21595550.0484   21595549.8844   21595552.4214
      2593.8964
 -25710591.08549 -20030909.57148  20347510.2094   20347510.5334   20347511.9544
       -64.9374
 -18735377.49949 -14559740.01248  21724560.3144   21724560.0884   21724563.1284
      1367.5584
 10  1  1  0 24  0.0000000  0 11G12G17G22G05G28G18G10G08G09G15G27
  -6644116.00847  -5118380.69346  24613506.2824   24613505.6994   24613507.0684
      3730.9434
 -12480569.33548  -9673420.78247  23119944.8244   23119945.3194   23119946.8454
      2157.4294
  -2415661.89346  -1647422.38646  25469893.1524   25469893.4704   25469891.1314
      2761.6154
  -1820355.66047  -1405155.22446  24407975.1374   24407975.7024   24407977.7464
     -3642.0724
 -16450796.41448 -12770385.11747  22635223.7564   22635222.7464   22635224.3584
     -2464.2244
 -11850603.88648  -9224283.96146  23230962.4644   23230962.2884   23230963.3084
      1506.2244
  -1045450.394 7                  25644967.785
     -3609.609
  -7631146.96047  -5939883.78846  24530281.8444   24530281.8584   24530284.0784
     -2982.7374
 -20590839.30048 -15978445.79647  21580765.0424   21580764.5434   21580767.0744
      2585.8974
 -25708399.40249 -20029201.77048  20347927.2024   20347927.6574   20347928.9694
       -81.1784
 -18776319.22849 -14591642.63748  21716769.3984   21716769.3464   21716772.2894
      1361.8624
 10  1  1  0 24 30.0000000  0 11G12G17G22G05G28G18G10G08G09G15G27
  -6755988.18247  -5205553.84446  24592217.5314   24592216.8114   24592219.7484
      3726.9934
 -12545107.03848  -9723709.89947  23107664.1434   23107664.6474   23107666.3164
      2145.0794
  -2498354.54146  -1711858.25246  25454158.1434   25454157.5574   25454158.0884
      2751.2224
  -1711081.16447  -1320006.25746  24428769.6664   24428770.0054   24428772.7144
     -3642.4524
 -16376732.12748 -12712672.68547  22649317.5524   22649316.1324   22649318.0704
     -2473.4794
 -11895530.97547  -9259292.09746  23222412.2214   23222412.3084   23222414.3274
      1489.2674
   -937235.92547   -799955.01946  25665560.3224   25665559.2444   25665563.1504
     -3605.2664
  -7541633.68746  -5870133.21846  24547315.0734   24547314.4874   24547318.3814
     -2984.1464
 -20668296.03848 -16038801.69047  21566025.4344   21566025.4244   21566027.4504
      2577.8234
 -25705718.02749 -20027112.39348  20348437.5684   20348437.8004   20348439.2544
       -97.5254
 -18817089.51849 -14623411.67848  21709010.9074   21709010.6694   21709014.0774
      1356.1204
 10  1  1  0 25  0.0000000  0 11G12G17G22G05G28G18G10G08G09G15G27
  -6867749.06147  -5292640.21446  24570950.0404   24570950.8174   24570951.8904
      3723.2804
 -12609274.72148  -9773710.68047  23095453.3324   23095453.1184   23095455.2864
      2132.3294
  -2580743.04647  -1776057.04246  25438479.6144   25438480.7204   25438480.6324
      2741.1294
  -1601799.73447  -1234851.87946  24449565.9104   24449565.5114   24449568.7794
     -3642.8804
 -16302390.28248 -12654743.97947  22663464.1744   22663464.0984   22663466.0694
     -2482.9614
 -11939945.60847  -9293900.90346  23213960.8174   23213960.2944   23213962.5754
      1471.6264
   -829147.16347   -715730.00646  25686128.6554   25686128.0924   25686132.6324
     -3600.9474
  -7452077.92546  -5800349.53246  24564357.4724   24564357.4954   24564361.5764
     -2985.9254
 -20745513.37148 -16098971.02647  21551331.3574   21551331.1074   21551333.9794
      2569.6974
 -25702547.75649 -20024642.05848  20349040.9044   20349041.1804   20349042.4644
      -114.0294
 -18857690.28449 -14655048.61848  21701284.9894   21701284.5594   21701287.7614
      1350.2914
 10  1  1  0 25 30.0000000  0 10G12G17G22G05G28G18G08G09G15G27
  -6979396.49447  -5379638.25446  24549703.7814   24549704.0564   24549706.9574
      3719.0424
 -12673070.09448  -9823421.35047  23083313.5614   23083313.5174   23083314.4624
      2119.9254
  -2662825.52047  -1840017.39146  25422859.9294   25422857.7334   25422859.6254
      2730.3904
  -1492513.90547  -1149694.10246  24470361.2554   24470362.0274   24470363.8234
     -3643.3324
 -16227772.92848 -12596600.59047  22677663.6014   22677663.5814   22677665.0564
     -2492.1514
 -11983846.31347  -9328109.24846  23205607.4624   23205606.5444   23205608.5884
      1454.4574
  -7362480.77146  -5730533.59146  24581407.0974   24581407.3694   24581409.8574
     -2988.1084
 -20822490.06848 -16158952.84847  21536683.1304   21536682.9084   21536685.6834
      2561.5504
 -25698887.99949 -20021790.30248  20349737.3374   20349737.4284   20349738.9884
      -130.4974
 -18898121.64549 -14686553.55748  21693591.0244   21693590.4624   21693594.0204
      1344.5444
 10  1  1  0 26  0.0000000  0 10G12G17G22G05G28G18G08G09G15G27
  -7090927.55847  -5466545.56346  24528480.5904   24528480.4014   24528483.7014
      3715.8644
 -12736488.82148  -9872838.53547  23071245.1264   23071245.3774   23071246.5214
      2107.8474
  -2744598.12947  -1903736.35046  25407300.5494   25407300.0434   25407300.3804
      2720.4064
  -1383225.26247  -1064534.12646  24491159.0994   24491159.9004   24491162.1274
     -3642.7504
 -16152881.14548 -12538243.35447  22691915.0384   22691914.3394   22691916.2104
     -2501.0184
 -12027230.84847  -9361915.40146  23197351.9754   23197350.2584   23197351.8544
      1437.3274
  -7272841.08346  -5660684.53746  24598464.7464   24598464.9564   24598466.9324
     -2988.4874
 -20899224.39048 -16218745.81447  21522080.9704   21522080.6544   21522082.9104
      2553.8524
 -25694737.37549 -20018556.05348  20350527.1044   20350527.2844   20350528.7654
      -146.5034
 -18938382.24149 -14717925.43448  21685929.6364   21685929.5134   21685932.2894
      1339.2754
 10  1  1  0 26 30.0000000  0 10G12G17G22G05G28G18G08G09G15G27
  -7202340.85947  -5553361.09046  24507278.8384   24507278.7254   24507281.3264
      3711.6624
 -12799529.07048  -9921960.79747  23059248.9694   23059248.8404   23059250.7344
      2094.7624
  -2826059.67547  -1967212.87546  25391797.1094   25391797.6564   25391798.7364
      2709.8964
  -1273937.37847   -979374.74746  24511955.1294   24511955.5234   24511958.4044
     -3643.0334
 -16077717.44548 -12479674.24547  22706218.1504   22706216.8864   22706219.4184
     -2510.1944
 -12070098.32447  -9395318.63046  23189193.9734   23189193.4254   23189195.3274
      1420.0034
  -7183160.31446  -5590803.45846  24615530.0004   24615530.9424   24615533.1644
     -2989.7854
 -20975715.92148 -16278349.58847  21507524.7844   21507525.2084   21507527.5324
      2545.3784
 -25690095.13449 -20014938.72648  20351410.4274   20351410.5864   20351412.1324
      -163.1794
 -18978472.87949 -14749164.88048  21678300.7424   21678301.0594   21678303.3314
      1333.2584
 10  1  1  0 27  0.0000000  0 10G12G17G22G05G28G18G08G09G15G27
  -7313634.01947  -5640083.00146  24486100.1274   24486101.4434   24486101.9854
      3707.4394
 -12862187.90948  -9970785.86347  23047325.5214   23047325.5834   23047327.5044
      2082.1294
  -2907207.12247  -2030444.66946  25376356.5194   25376357.1284   25376354.5204
      2699.7584
  -1164652.39947   -894217.62846  24532751.6294   24532752.7734   24532753.8134
     -3642.9704
 -16002283.53948 -12420894.57347  22720572.8814   22720572.2384   22720574.9264
     -2519.2244
 -12112446.82647  -9428317.48246  23181135.1784   23181134.1694   23181134.7164
      1402.8744
  -7093438.30046  -5520890.22946  24632604.7734   24632603.2014   24632606.2264
     -2991.7504
 -21051963.33348 -16337763.14247  21493015.7104   21493015.3554   21493018.3054
      2537.4474
 -25684960.34949 -20010937.60048  20352387.5474   20352387.7804   20352389.2084
      -179.5024
 -19018393.20749 -14780271.61748  21670704.0614   21670704.1364   21670706.5374
      1327.6234
 10  1  1  0 27 30.0000000  0 10G12G17G22G05G28G18G08G09G15G27
  -7424805.20447  -5726709.88046  24464945.8694   24464946.6334   24464947.9264
      3703.4244
 -12924462.77548 -10019311.72747  23035474.8664   23035475.6734   23035477.2754
      2069.1494
  -2988038.16847  -2093429.95746  25360973.0624   25360973.6334   25360975.2964
      2689.0224
  -1055373.18047   -809065.01046  24553546.8034   24553547.3914   24553550.2684
     -3642.5954
 -15926582.07748 -12361906.42847  22734978.1374   22734977.6104   22734979.1114
     -2527.9194
 -12154275.14947  -9460910.97146  23173174.1324   23173175.5444   23173177.0014
      1385.5504
  -7003675.73046  -5450945.40346  24649685.5314   24649684.3844   24649686.6834
     -2992.7904
 -21127965.74148 -16396985.78347  21478552.8094   21478552.6954   21478554.7564
      2529.1734
 -25679332.71849 -20006552.43648  20353458.3994   20353458.6314   20353460.2004
      -195.9834
 -19058143.19849 -14811245.61348  21663139.8984   21663139.8524   21663142.6754
      1321.9004
 10  1  1  0 28  0.0000000  0 10G12G17G22G05G28G18G08G09G15G27
  -7535852.39047  -5813240.13046  24443813.4224   24443813.3324   24443817.2244
      3699.6794
 -12986351.00848 -10067536.31647  23023697.9714   23023697.9894   23023700.8674
      2056.6674
  -3068550.30146  -2156166.68946  25345653.4984   25345652.4154   25345653.8464
      2678.5394
   -946102.64247   -723919.12846  24574340.1754   24574340.8124   24574343.8524
     -3642.0494
 -15850614.86248 -12302711.20947  22749434.3014   22749434.0904   22749435.2804
     -2536.3734
 -12195582.01048  -9493098.15546  23165315.5204   23165315.6714   23165315.4974
      1368.2854
  -6913872.44246  -5380968.84346  24666774.4264   24666773.8814   24666777.4084
     -2993.5004
 -21203722.22248 -16456016.79047  21464136.9054   21464136.4324   21464139.4024
      2521.2854
 -25673211.70849 -20001782.82248  20354623.3274   20354623.5474   20354624.9874
      -212.0444
 -19097722.95049 -14842086.96348  21655608.1174   21655607.8464   21655611.0224
      1316.7304
 10  1  1  0 28 30.0000000  0 10G12G17G22G05G28G18G08G09G15G27
  -7646775.76947  -5899673.87446  24422706.2914   24422706.0464   24422707.8574
      3695.1164
 -13047851.74948 -10115458.96747  23011994.9204   23011995.1734   23011996.1834
      2043.3154
  -3148743.29546  -2218654.74046  25330394.4034   25330393.3764   25330391.5074
      2667.5044
   -836845.32347   -638783.58246  24595131.4454   24595131.7824   24595134.0094
     -3642.1724
 -15774385.88548 -12243312.00647  22763939.9794   22763939.8244   22763942.3184
     -2545.6354
 -12236368.25548  -9524879.63946  23157554.1524   23157552.7454   23157554.7254
      1350.3194
  -6824031.53146  -5310962.94846  24683870.6914   24683870.1034   24683873.9524
     -2995.1974
 -21279233.77048 -16514856.93847  21449767.3924   21449767.2424   21449769.7254
      2512.8224
 -25666598.34449 -19996629.55848  20355881.7664   20355881.9614   20355883.5784
      -228.9424
 -19137134.45149 -14872797.20948  21648108.4154   21648108.2804   21648110.8914
      1310.7464
 10  1  1  0 29  0.0000000  0 10G12G17G22G05G28G18G08G09G15G27
  -7757569.70847  -5986006.82146  24401623.0294   24401622.5294   24401624.8814
      3691.2534
 -13108958.84348 -10163074.87447  23000366.5044   23000366.3654   23000368.5234
      2030.5434
