     2.11           OBSERVATION DATA    M (MIXED)           RINEX VERSION / TYPE
teqc  2009Dec10                         20100105 00:30:10UTCPGM / RUN BY / DATE
ONSA                                                        MARKER NAME
10402M004                                                   MARKER NUMBER
SWEPOS              LMV                                     OBSERVER / AGENCY
AG72YY6YV40         JPS E_GGD           2.6.1 Jan,10,2008   REC # / TYPE / VERS
  3370658.8318   711876.9387  5349786.7450                  APPROX POSITION XYZ
        0.9950        0.0000        0.0000                  ANTENNA: DELTA H/E/N
     1     1                                                WAVELENGTH FACT L1/2
     7    C1    L1    L2    P1    P2    S1    S2            # / TYPES OF OBSERV
    30.0000                                                 INTERVAL
    15                                                      LEAP SECONDS
020                 AOAD/M_B        OSOD                    ANT # / TYPE
MSXP|IAx86-PII|bcc32 5.0|MSWin95->XP|486/DX+                COMMENT
teqc  2009Dec10                         20100104 01:00:04UTCCOMMENT
Forced Modulo Decimation to 30 seconds                      COMMENT
IMoS GFileSrv 3.52  Lantmäteriet        03.01.2010          COMMENT
  2010     1     4     0     0    0.0000000     GPS         TIME OF FIRST OBS
                                                            END OF HEADER
 10  1  4  0  0  0.0000000  0 15G08R08G22G28G15R19R10R09R17G18G27R07
                                R18G09G17
  23471882.635 6 123345593.024 6  96113459.85342  23471882.648 2  23471886.102 2
        41.000          24.000
  20872848.060 7 111773158.959 7  86934708.25847  20872847.387 7  20872848.926 7
        49.000          48.000
  24685392.294 6 129722610.547 6 101082572.57641  24685392.032 1  24685391.554 1
        40.000          19.000
  21610200.836 8 113562398.540 8  88490192.64345  21610199.991 5  21610201.943 5
        50.000          39.000
  20578352.099 8 108139981.054 8  84264938.64347  20578351.986 7  20578353.826 7
        52.000          45.000
  23742093.884 6 127004194.606 6  98781064.76645  23742093.804 6  23742094.652 5
        42.000          35.000
  22295142.616 7 118845668.782 7  92435553.07145  22295141.314 7  22295147.556 5
        47.000          37.000
  19316446.872 8 103148776.643 8  80226858.22042  19316446.369 8  19316454.372 2
        54.000          20.000
  22224624.638 6 118928469.748 6  92499964.80446  22224623.229 6  22224625.606 6
        44.000          42.000
  22923693.004 7 120464820.772 7  93868704.47343  22923691.794 3  22923693.849 3
        46.000          28.000
  22052316.149 7 115885728.249 7  90300593.73845  22052315.983 5  22052319.025 5
        49.000          37.000
  20900207.259 8 111880429.095 8  87018148.41146  20900206.029 7  20900205.272 6
        50.000          43.000
  21376275.503 7 114108021.719 7  88750724.16547  21376274.633 7  21376279.958 7
        49.000          45.000
  22191894.139 7 116619220.668 7  90872132.84644  22191893.888 4  22191896.739 4
        47.000          32.000
  23893496.798 6 125561181.981 6  97839897.72243  23893497.346 3  23893500.401 3
        43.000          25.000
 10  1  4  0  0 30.0000000  0 15G08R08G22G28G15R19R10R09R17G18G27R07
                                R18G09G17
  23490855.148 6 123445290.837 6  96191146.45342  23490854.396 2  23490856.711 2
        43.000          23.000
  20864991.642 8 111731086.798 8  86901985.47447  20864990.902 8  20864992.146 7
        50.000          48.000
  24670644.714 6 129645111.189 6 101022183.53042  24670644.742 2  24670644.181 2
        41.000          21.000
  21618285.309 8 113604881.566 8  88523296.29745  21618284.135 5  21618286.297 5
        51.000          39.000
  20581294.581 8 108155445.867 8  84276989.12847  20581294.939 7  20581296.896 7
        53.000          45.000
  23717193.026 6 126870990.292 6  98677461.36346  23717191.520 5  23717195.689 6
        40.000          40.000
  22275356.926 7 118740196.774 7  92353519.32945  22275355.023 7  22275360.763 5
        47.000          37.000
  19312635.121 8 103128422.070 8  80211027.30542  19312634.777 8  19312658.066 2
        53.000          20.000
  22234954.733 6 118983754.282 6  92542963.89946  22234953.633 6  22234956.702 6
        43.000          41.000
  22917978.690 7 120434793.327 7  93845306.46543  22917977.589 3  22917979.889 3
        46.000          29.000
  22040314.687 7 115822659.298 7  90251449.11345  22040314.362 5  22040317.710 5
        49.000          37.000
  20916339.769 7 111966787.971 7  87085316.38646  20916338.510 7  20916337.882 6
        49.000          43.000
  21364913.005 7 114047369.218 7  88703550.01947  21364912.296 7  21364917.442 7
        49.000          45.000
  22172324.011 7 116516380.946 7  90791998.02344  22172323.813 4  22172326.684 4
        47.000          32.000
  23875428.484 6 125466233.102 6  97765911.60443  23875428.322 3  23875431.198 3
        42.000          26.000
 10  1  4  0  1  0.0000000  0 15G08R08G22G28G15R19R10R09R17G18G27R07
                                R18G09G17
  23509855.825 6 123545145.031 6  96268954.88042  23509855.230 2  23509859.616 2
        43.000          24.000
  20857283.928 8 111689815.054 8  86869885.22047  20857283.524 7  20857284.627 7
        50.000          48.000
  24655968.418 6 129567984.793 6 100962085.03742  24655967.451 2  24655967.469 2
        41.000          21.000
  21626454.232 8 113647810.698 8  88556747.56845  21626453.458 5  21626455.433 5
        51.000          39.000
  20584342.155 8 108171459.393 8  84289467.18847  20584342.225 7  20584344.006 7
        54.000          45.000
  23692313.311 6 126737903.225 6  98573949.19945  23692312.750 6  23692315.880 5
        41.000          38.000
  22255606.825 7 118634923.022 7  92271639.76345  22255605.684 7  22255611.381 5
        47.000          37.000
  19308921.021 8 103108589.898 8  80195601.77142  19308920.744 8  19308928.521 2
        54.000          20.000
  22245427.188 6 119039791.228 6  92586548.18646  22245426.287 6  22245428.551 6
        44.000          41.000
  22912371.512 7 120405327.589 7  93822346.14243  22912370.903 3  22912372.184 3
        46.000          28.000
  22028359.103 8 115759831.925 8  90202492.71545  22028358.881 5  22028361.842 5
        50.000          38.000
  20932589.669 8 112053777.325 8  87152974.71746  20932589.007 7  20932588.188 6
        50.000          43.000
  21353690.035 7 113987458.239 7  88656952.59847  21353689.328 7  21353694.032 7
        49.000          45.000
  22152802.617 7 116413793.133 7  90712059.48644  22152802.398 4  22152804.771 4
        47.000          33.000
  23857404.430 6 125371512.456 6  97692103.34543  23857404.593 3  23857406.925 3
        44.000          26.000
 10  1  4  0  1 30.0000000  0 15G08R08G22G28G15R19R10R09R17G18G27R07
                                R18G09G17
  23528887.387 6 123645154.201 6  96346884.07843  23528887.445 3  23528891.614 3
        43.000          25.000
  20849726.074 8 111649346.031 8  86838409.31747  20849726.005 7  20849727.713 7
        50.000          48.000
  24641361.604 6 129491233.367 6 100902278.75742  24641361.333 2  24641362.309 2
        40.000          21.000
  21634707.685 8 113691184.329 8  88590545.20345  21634707.026 5  21634709.067 5
        50.000          39.000
  20587493.830 8 108188021.546 8  84302372.74547  20587493.824 7  20587495.653 7
        53.000          45.000
  23667456.007 6 126604937.871 6  98470531.57745  23667455.615 5  23667458.905 5
        40.000          36.000
  22235895.169 7 118529849.163 7  92189915.67545  22235894.264 7  22235900.372 5
        47.000          37.000
  19305305.548 8 103089280.587 8  80180583.32842  19305304.745 8  19305313.048 2
        53.000          20.000
  22256040.111 6 119096577.872 6  92630715.58146  22256038.401 6  22256039.923 6
        43.000          41.000
  22906871.932 7 120376424.553 7  93799824.29743  22906870.999 3  22906872.395 3
        47.000          28.000
  22016449.684 8 115697247.031 8  90153725.27545  22016449.199 5  22016452.315 5
        50.000          37.000
  20948956.817 7 112141393.269 7  87221120.41746  20948956.082 7  20948955.930 6
        49.000          43.000
  21342606.558 7 113928291.609 7  88610934.13047  21342605.439 7  21342609.964 7
        49.000          45.000
  22133329.180 7 116311459.272 7  90632318.83244  22133328.459 4  22133331.805 4
        47.000          33.000
  23839421.611 6 125277022.825 6  97618475.09043  23839423.485 3  23839426.362 3
        42.000          26.000
 10  1  4  0  2  0.0000000  0 15G08R08G22G28G15R19R10R09R17G18G27R07
                                R18G09G17
  23547946.958 6 123745316.770 6  96424932.80942  23547946.268 2  23547950.497 2
        42.000          23.000
  20842319.846 8 111609681.509 8  86807559.11347  20842319.266 7  20842320.504 7
        50.000          49.000
  24626829.790 6 129414859.291 6 100842766.47742  24626828.524 2  24626830.065 2
        42.000          21.000
  21643045.703 8 113735000.949 8  88624688.01445  21643045.099 5  21643047.032 5
        50.000          39.000
  20590750.192 8 108205132.078 8  84315705.60747  20590749.994 7  20590751.868 7
        53.000          45.000
  23642624.430 6 126472098.329 6  98367211.97245  23642623.681 6  23642627.136 5
        42.000          39.000
  22216221.582 7 118424976.265 7  92108347.88845  22216221.037 7  22216226.776 5
        48.000          38.000
  19301786.968 8 103070494.263 8  80165971.69042  19301786.737 8  19301794.468 2
        54.000          20.000
  22266791.646 6 119154111.800 6  92675464.19346  22266790.352 6  22266790.726 6
        44.000          40.000
  22901478.257 7 120348085.292 7  93777741.74743  22901477.692 3  22901478.973 3
        46.000          28.000
  22004587.248 7 115634905.324 7  90105147.33445  22004586.207 5  22004589.303 5
        49.000          37.000
  20965441.066 7 112229632.832 7  87289751.15346  20965440.106 7  20965439.544 6
        49.000          43.000
  21331662.161 8 113869872.095 8  88565496.74547  21331661.170 7  21331666.328 7
        50.000          46.000
  22113904.930 7 116209380.927 7  90552777.29544  22113903.868 4  22113906.693 4
        48.000          33.000
  23821487.112 6 125182767.252 6  97545029.23743  23821486.893 3  23821490.146 3
        42.000          26.000
 10  1  4  0  2 30.0000000  0 15G08R08G22G28G15R19R10R09R17G18G27R07
                                R18G09G17
  23567037.373 6 123845631.504 6  96503100.11242  23567036.737 2  23567039.767 2
        42.000          23.000
  20835063.415 8 111570823.644 8  86777336.31747  20835062.738 7  20835063.599 7
        50.000          48.000
  24612369.070 6 129338865.087 6 100783550.22942  24612367.779 2  24612368.779 2
        42.000          22.000
  21651468.065 8 113779259.117 8  88659174.90145  21651467.165 5  21651469.028 5
        51.000          39.000
  20594110.409 8 108222791.103 8  84329465.87147  20594110.367 7  20594112.302 7
        53.000          45.000
  23617815.035 6 126339389.012 6  98263993.58245  23617814.342 5  23617817.502 5
        40.000          38.000
  22196585.165 7 118320306.151 7  92026937.84845  22196584.887 7  22196590.641 5
        47.000          38.000
  19298367.196 8 103052230.853 8  80151766.93842  19298366.597 8  19298374.696 2
        53.000          20.000
  22277681.050 6 119212390.206 6  92720791.83046  22277680.036 6  22277682.230 6
        43.000          40.000
  22896193.355 7 120320310.801 7  93756099.28443  22896192.919 3  22896193.825 3
        47.000          29.000
  21992769.472 8 115572807.259 8  90056759.23445  21992769.075 5  21992772.120 5
        50.000          37.000
  20982040.726 7 112318491.953 7  87358863.78446  20982039.694 7  20982039.509 6
        49.000          43.000
  21320858.075 7 113812202.992 7  88520643.03247  21320857.787 7  21320862.581 7
        49.000          45.000
  22094528.823 7 116107559.754 7  90473436.16144  22094527.788 4  22094530.614 4
        48.000          33.000
  23803595.860 6 125088748.784 6  97471768.15043  23803596.032 3  23803598.910 3
        43.000          26.000
 10  1  4  0  3  0.0000000  0 15G08R08G22G28G15R19R10R09R17G18G27R07
                                R18G09G17
  23586156.241 6 123946097.472 6  96581385.23642  23586155.218 2  23586158.620 2
        43.000          24.000
  20827957.076 8 111532774.245 8  86747742.34147  20827957.282 7  20827958.740 7
        51.000          48.000
  24597979.460 6 129263253.087 6 100724631.75142  24597978.370 2  24597980.320 2
        42.000          22.000
  21659973.641 8 113823956.981 8  88694004.40145  21659972.931 5  21659974.619 5
        51.000          38.000
  20597574.931 8 108240998.307 8  84343653.28547  20597575.148 7  20597577.053 7
        54.000          45.000
  23593031.237 6 126206813.997 6  98160879.72845  23593030.954 6  23593035.284 5
        41.000          39.000
  22176988.225 7 118215840.007 7  91945686.44945  22176987.008 7  22176992.863 5
        47.000          38.000
  19295044.824 8 103034490.830 8  80137969.18142  19295044.364 8  19295052.324 2
        54.000          20.000
  22288710.987 6 119271410.485 6  92766696.49146  22288709.926 6  22288712.242 6
        44.000          40.000
  22891015.776 7 120293101.844 7  93734897.49243  22891015.143 3  22891016.709 3
        47.000          29.000
  21980998.925 8 115510953.605 8  90008561.57945  21980998.910 5  21981002.056 5
        50.000          38.000
  20998755.795 8 112407966.744 8  87428455.25746  20998754.496 7  20998754.171 6
        50.000          43.000
  21310195.994 7 113755286.634 7  88476374.76247  21310195.519 7  21310200.362 7
        49.000          45.000
  22075201.817 7 116005997.667 7  90394296.92044  22075201.479 4  22075204.169 4
        48.000          34.000
  23785749.623 6 124994970.423 6  97398694.11243  23785750.657 3  23785753.881 3
        43.000          26.000
 10  1  4  0  3 30.0000000  0 15G08R08G22G28G15R19R10R09R17G18G27R07
                                R18G09G17
  23605302.444 6 124046713.675 6  96659787.44242  23605301.721 2  23605304.832 2
        42.000          23.000
  20821003.406 8 111495535.538 8  86718778.88847  20821002.918 7  20821004.718 7
        50.000          48.000
  24583662.895 6 129188025.553 6 100666012.87242  24583663.048 2  24583664.729 2
        41.000          22.000
  21668562.700 8 113869093.223 8  88729175.50945  21668561.950 5  21668563.730 5
        51.000          38.000
  20601144.200 8 108259753.873 8  84358268.00247  20601144.132 7  20601146.040 7
        54.000          45.000
  23568275.085 6 126074377.822 6  98057873.80445  23568274.202 6  23568276.329 5
        42.000          38.000
  22157429.258 7 118111579.327 7  91864594.84445  22157428.135 7  22157433.655 5
        49.000          37.000
  19291820.951 8 103017274.248 8  80124578.55242  19291820.567 8  19291828.451 2
        53.000          20.000
  22299879.412 6 119331170.025 6  92813176.11346  22299878.119 6  22299879.852 6
        44.000          41.000
  22885945.878 7 120266459.583 7  93714137.28443  22885945.202 3  22885946.513 3
        45.000          29.000
  21969275.550 8 115449345.331 8  89960555.14245  21969275.143 5  21969278.129 5
        50.000          38.000
  21015584.441 7 112498053.596 7  87498522.77446  21015583.268 7  21015583.483 6
        48.000          44.000
  21299675.827 8 113699126.481 8  88432694.67347  21299674.634 7  21299679.640 7
        50.000          46.000
  22055924.421 7 115904696.726 7  90315361.15744  22055924.218 4  22055926.995 4
        48.000          33.000
  23767950.768 6 124901434.736 6  97325809.19343  23767951.407 3  23767954.055 3
        43.000          26.000
 10  1  4  0  4  0.0000000  0 15G08R08G22G28G15R19R10R09R17G18G27R07
                                R18G09G17
  23624477.507 6 124147478.082 6  96738305.15942  23624476.443 2  23624478.814 2
        42.000          22.000
  20814201.439 8 111459109.612 8  86690447.61047  20814200.969 8  20814202.276 7
        51.000          48.000
  24569422.270 6 129113184.731 6 100607695.36942  24569421.662 2  24569423.897 2
        41.000          22.000
  21677234.894 8 113914666.449 8  88764687.11045  21677234.359 5  21677236.056 5
        51.000          38.000
  20604817.444 8 108279057.383 8  84373309.68647  20604817.449 7  20604819.383 7
        53.000          45.000
  23543543.748 6 125942084.482 6  97954979.00245  23543542.472 6  23543545.911 5
        42.000          39.000
  22137909.221 7 118007525.423 7  91783664.04545  22137907.912 7  22137913.372 5
        48.000          37.000
  19288694.652 8 103000581.137 8  80111594.90642  19288694.178 8  19288702.152 2
        54.000          20.000
  22311183.417 6 119391665.877 6  92860228.41946  22311182.025 6  22311185.099 6
        42.000          41.000
  22880983.970 7 120240384.761 7  93693819.22643  22880982.939 3  22880984.819 3
        46.000          28.000
  21957599.212 7 115387982.906 7  89912740.26945  21957598.355 5  21957601.216 5
        49.000          37.000
  21032527.270 7 112588748.326 7  87569063.07946  21032526.002 7  21032525.915 6
        49.000          44.000
  21289296.924 8 113643725.078 8  88389604.71847  21289296.217 7  21289300.911 7
        50.000          46.000
  22036697.505 7 115803658.664 7  90236630.22344  22036697.391 4  22036699.763 4
        47.000          33.000
  23750199.434 6 124808144.756 6  97253115.71643  23750199.611 3  23750201.487 3
        43.000          27.000
 10  1  4  0  4 30.0000000  0 15G08R08G22G28G15R19R10R09R17G18G27R07
                                R18G09G17
  23643677.717 6 124248389.762 6  96816937.59242  23643677.791 2  23643682.855 2
        40.000          21.000
  20807550.564 8 111423497.903 8  86662749.61147  20807550.410 7  20807552.341 7
        50.000          48.000
  24555254.532 6 129038733.301 6 100549681.27842  24555254.426 2  24555255.268 2
        41.000          22.000
  21685990.301 7 113960675.102 7  88800538.01345  21685989.535 5  21685991.217 5
        49.000          38.000
  20608595.249 8 108298908.631 8  84388778.18247  20608595.051 7  20608597.044 7
        53.000          45.000
  23518839.599 6 125809938.571 6  97852198.87345  23518838.703 6  23518842.825 5
        42.000          39.000
  22118426.634 7 117903679.998 7  91702895.42245  22118426.535 7  22118432.375 5
        48.000          38.000
  19285666.273 8 102984411.756 8  80099018.61042  19285665.991 8  19285673.773 2
        53.000          20.000
  22322626.188 6 119452895.041 6  92907851.11746  22322624.742 6  22322627.241 6
        43.000          42.000
  22876129.619 7 120214878.276 7  93673944.02543  22876129.504 3  22876130.841 3
        46.000          28.000
  21945968.901 7 115326867.267 7  89865117.70145  21945968.386 5  21945971.441 5
        49.000          38.000
  21049582.249 7 112680048.202 7  87640074.04146  21049581.493 7  21049581.455 6
        49.000          43.000
  21279061.115 8 113589085.113 8  88347106.99247  21279060.435 7  21279065.137 7
        50.000          45.000
  22017521.789 7 115702885.566 7  90158105.73144  22017521.019 4  22017523.389 4
        49.000          33.000
  23732493.074 6 124715103.481 6  97180616.04143  23732493.217 3  23732496.245 3
        42.000          26.000
 10  1  4  0  5  0.0000000  0 15G08R08G22G28G15R19R10R09R17G18G27R07
                                R18G09G17
  23662909.502 6 124349446.972 6  96895683.44642  23662909.162 2  23662912.654 2
        41.000          20.000
  20801053.230 8 111388702.553 8  86635686.56047  20801052.822 8  20801054.434 7
        50.000          49.000
  24541160.727 6 128964673.234 6 100491972.14042  24541161.735 2  24541161.868 2
        42.000          22.000
  21694828.029 8 114007117.187 8  88836726.64945  21694827.388 5  21694829.005 5
        51.000          38.000
  20612476.948 8 108319307.670 8  84404673.52947  20612476.950 7  20612478.773 7
        53.000          45.000
  23494164.344 6 125677944.178 6  97749536.61045  23494164.355 6  23494167.705 5
        42.000          38.000
  22098985.309 7 117800043.837 7  91622289.54745  22098984.555 7  22098990.611 5
        48.000          38.000
  19282736.709 8 102968766.076 8  80086849.84642  19282736.442 8  19282744.209 2
        53.000          20.000
  22334204.584 6 119514854.849 6  92956042.08746  22334203.370 6  22334205.240 6
        43.000          41.000
  22871384.995 7 120189941.168 7  93654512.50143  22871384.099 3  22871385.408 3
        46.000          28.000
  21934385.807 7 115265999.034 7  89817687.91445  21934385.465 5  21934388.467 5
        49.000          38.000
  21066749.842 7 112771948.227 7  87711551.80246  21066749.218 7  21066749.375 6
        49.000          43.000
  21268968.167 8 113535209.589 8  88305203.82747  21268967.444 7  21268972.403 7
        50.000          46.000
  21998395.302 7 115602379.120 7  90079789.05344  21998394.647 4  21998397.832 4
        47.000          33.000
  23714836.665 6 124622313.753 6  97108312.36743  23714835.831 3  23714838.542 3
        44.000          26.000
 10  1  4  0  5 30.0000000  0 15G08R08G22G28G15R19R10R09R17G18G27R07
                                R18G09G17
  23682168.129 6 124450648.052 6  96974541.42342  23682168.120 2  23682170.336 2
        40.000          21.000
  20794708.106 8 111354725.006 8  86609259.57247  20794707.601 8  20794709.222 7
        50.000          48.000
  24527145.067 6 128891006.578 6 100434569.56442  24527143.808 2  24527143.646 2
        43.000          23.000
  21703747.419 8 114053991.374 8  88873251.99745  21703746.959 5  21703748.958 5
        50.000          38.000
  20616462.668 8 108340254.083 8  84420995.39547  20616462.838 7  20616464.789 7
        53.000          45.000
  23469518.327 6 125546105.744 6  97646995.61545  23469518.393 6  23469521.723 5
        41.000          39.000
  22079583.509 7 117696619.036 7  91541848.04845  22079582.877 7  22079587.956 5
        48.000          38.000
  19279904.913 8 102953644.519 8  80075088.55342  19279904.506 8  19279912.413 2
        53.000          20.000
  22345919.695 6 119577542.470 6  93004799.11546  22345918.162 6  22345919.615 6
        43.000          41.000
  22866747.576 7 120165574.162 7  93635525.21643  22866747.026 3  22866749.001 3
        46.000          28.000
  21922850.568 8 115205378.872 8  89770451.43645  21922849.883 5  21922853.019 5
        50.000          38.000
  21084029.343 7 112864445.084 7  87783493.74446  21084028.455 7  21084028.360 6
        49.000          43.000
  21259018.855 7 113482101.278 7  88263897.38447  21259018.520 7  21259023.403 7
        49.000          45.000
  21979321.155 7 115502141.198 7  90001681.61244  21979320.264 4  21979323.269 4
        48.000          34.000
  23697227.537 6 124529778.807 6  97036207.23943  23697227.179 3  23697229.726 3
        41.000          26.000
 10  1  4  0  6  0.0000000  0 15G08R08G22G28G15R19R10R09R17G18G27R07
                                R18G09G17
  23701453.528 5 124551992.183 5  97053510.85442  23701453.083 2  23701456.347 2
        39.000          20.000
  20788516.037 8 111321567.372 8  86583470.30147  20788515.893 8  20788517.391 7
        51.000          49.000
  24513200.000 6 128817735.878 6 100377475.51742  24513199.540 2  24513200.357 2
        41.000          22.000
  21712749.564 8 114101296.091 8  88910112.80545  21712748.686 5  21712750.796 5
        51.000          38.000
  20620552.673 8 108361747.400 8  84437743.41747  20620552.787 7  20620554.816 7
        53.000          45.000
  23444903.520 6 125414427.361 6  97544579.10645  23444902.696 6  23444906.324 5
        42.000          39.000
  22060221.616 7 117593406.739 7  91461571.82145  22060220.207 7  22060225.278 5
        48.000          38.000
  19277171.235 8 102939046.803 8  80063734.69342  19277170.741 8  19277178.735 2
        54.000          20.000
  22357769.654 6 119640955.309 6  93054120.21046  22357768.420 6  22357770.774 6
        44.000          42.000
  22862219.683 7 120141778.151 7  93616982.86343  22862218.837 3  22862220.293 3
        47.000          29.000
  21911362.347 8 115145007.395 8  89723408.72845  21911361.715 5  21911364.520 5
        51.000          38.000
  21101419.537 7 112957535.085 7  87855897.01746  21101418.500 7  21101418.608 6
        49.000          43.000
  21249213.901 7 113429762.509 7  88223189.46147  21249213.537 7  21249218.526 7
        49.000          46.000
  21960297.216 7 115402173.593 7  89923784.79944  21960297.410 4  21960300.084 4
        48.000          34.000
  23679667.906 6 124437501.067 6  96964302.50743  23679667.128 3  23679670.280 3
        43.000          26.000
 10  1  4  0  6 30.0000000  0 15G08R08G22G28G15R19R10R09R17G18G27R07
                                R18G09G17
  23720764.423 6 124653477.834 6  97132590.54741  23720764.703 1  23720768.291 1
        40.000          18.000
  20782477.570 8 111289231.468 8  86558320.15447  20782477.282 8  20782478.769 7
        50.000          48.000
  24499333.569 6 128744863.363 6 100320691.72542  24499333.162 2  24499333.179 2
        43.000          22.000
  21721832.284 8 114149029.823 8  88947307.92745  21721832.035 5  21721834.112 5
        50.000          38.000
  20624746.923 8 108383788.321 8  84454918.14447  20624747.043 7  20624749.047 7
        53.000          45.000
  23420317.567 6 125282913.723 6  97442290.77145  23420316.960 6  23420320.420 5
        41.000          39.000
  22040898.559 7 117490408.321 7  91381461.99045  22040898.042 7  22040903.306 5
        48.000          38.000
  19274535.950 8 102924973.348 8  80052788.54642  19274535.473 8  19274543.450 2
        54.000          20.000
  22369755.106 6 119705090.024 6  93104002.74746  22369754.059 6  22369755.096 6
        43.000          41.000
  22857800.491 7 120118554.034 7  93598886.14943  22857799.234 3  22857800.686 3
        45.000          29.000
  21899921.174 7 115084885.293 7  89676560.33645  21899920.890 5  21899923.527 5
        49.000          38.000
  21118919.549 7 113051214.011 7  87928758.34046  21118918.435 7  21118918.429 6
        48.000          43.000
  21239553.618 7 113378195.854 7  88183082.09147  21239552.829 7  21239558.724 7
        49.000          46.000
  21941326.240 7 115302478.406 7  89846100.26944  21941325.490 4  21941328.384 4
        47.000          34.000
  23662156.409 6 124345483.893 6  96892600.83543  23662156.932 3  23662159.587 3
        42.000          26.000
 10  1  4  0  7  0.0000000  0 15G08R08G22G28G15R19R10R09R17G18G27R07
                                R18G09G17
  23740104.770 6 124755103.905 6  97211779.67441  23740104.648 1  23740107.030 1
        41.000          19.000
  20776593.153 8 111257718.607 8  86533810.14547  20776592.571 8  20776594.086 7
        50.000          49.000
  24485542.163 6 128672391.354 6 100264220.06242  24485542.308 2  24485541.170 2
        40.000          21.000
  21730997.314 8 114197190.646 8  88984835.84545  21730996.604 5  21730998.854 5
        51.000          39.000
  20629045.499 8 108406376.369 8  84472519.19847  20629045.510 7  20629047.379 7
        53.000          45.000
  23395765.072 6 125151569.073 6  97340133.82546  23395764.087 6  23395767.441 6
        42.000          40.000
  22021616.409 7 117387625.010 7  91301519.41545  22021616.036 7  22021621.329 5
        49.000          38.000
  19271998.474 8 102911423.993 8  80042250.74842  19271997.944 8  19272081.166 2
        54.000          20.000
  22381873.447 6 119769943.941 6  93154444.68446  22381872.663 6  22381875.175 6
        43.000          41.000
  22853489.897 7 120095902.436 7  93581235.55043  22853488.982 3  22853490.539 3
        46.000          29.000
  21888527.936 7 115025013.241 7  89629906.78845  21888527.462 5  21888530.445 5
        49.000          38.000
  21136529.090 7 113145477.491 7  88002074.34546  21136527.813 7  21136527.625 6
        49.000          42.000
  21230038.331 7 113327404.542 7  88143577.75347  21230037.700 7  21230043.717 7
        49.000          46.000
  21922407.133 7 115203057.287 7  89768629.29944  21922406.187 4  21922408.968 4
        49.000          34.000
  23644696.979 6 124253729.850 6  96821104.19043  23644696.930 3  23644699.306 3
        43.000          26.000
 10  1  4  0  7 30.0000000  0 15G08R08G22G28G15R19R10R09R17G18G27R07
                                R18G09G17
  23759469.210 6 124856869.201 6  97291077.26042  23759469.537 2  23759471.762 2
        41.000          21.000
  20770862.169 8 111227030.867 8  86509941.91247  20770861.702 8  20770863.437 7
        50.000          48.000
  24471827.262 6 128600322.076 6 100208062.19342  24471828.278 2  24471827.040 2
        42.000          21.000
  21740242.948 8 114245776.994 8  89022695.33645  21740242.579 5  21740244.636 5
        50.000          39.000
  20633448.035 8 108429511.066 8  84490546.22147  20633448.046 7  20633449.873 7
        53.000          45.000
  23371242.511 6 125020397.553 6  97238111.53545  23371242.209 6  23371246.757 5
        41.000          39.000
  22002375.201 7 117285058.580 7  91221745.53345  22002374.802 7  22002380.194 5
        48.000          37.000
  19269559.308 8 102898398.643 8  80032119.31342  19269558.775 8  19269566.808 2
        54.000          20.000
  22394127.115 6 119835514.073 6  93205443.67646  22394126.445 6  22394127.999 6
        43.000          41.000
  22849288.203 7 120073824.175 7  93564031.70543  22849287.948 3  22849289.156 3
        45.000          29.000
  21877182.811 8 114965392.029 8  89583448.71445  21877182.187 5  21877184.865 5
        50.000          38.000
  21154247.587 7 113240323.225 7  88075843.19146  21154245.954 7  21154245.810 6
        48.000          43.000
  21220669.770 8 113277390.788 8  88104678.18247  21220669.183 7  21220674.123 7
        50.000          46.000
  21903540.233 7 115103912.203 7  89691373.41844  21903539.798 4  21903542.701 4
        48.000          34.000
  23627287.017 6 124162242.162 6  96749815.08843  23627286.954 3  23627290.232 3
        43.000          27.000
 10  1  4  0  8  0.0000000  0 15G08R08G22G28G15R19R10R09R17G18G27R07
                                R18G09G17
  23778861.229 6 124958772.583 6  97370482.43941  23778860.427 1  23778864.775 1
        40.000          19.000
  20765285.607 8 111197169.563 8  86486716.44547  20765285.309 8  20765287.018 7
        50.000          49.000
  24458190.257 6 128528657.843 6 100152219.94242  24458190.471 2  24458189.389 2
        40.000          20.000
  21749569.655 8 114294787.398 8  89060885.25645  21749569.043 5  21749570.770 5
        51.000          38.000
  20637954.192 8 108453191.910 8  84508998.80747  20637954.390 7  20637956.179 7
        53.000          45.000
  23346755.990 6 124889403.678 6  97136227.40946  23346754.727 6  23346758.379 6
        42.000          40.000
  21983175.236 7 117182710.494 7  91142141.48545  21983174.924 7  21983180.609 5
        49.000          38.000
  19267218.050 8 102885897.868 8  80022396.50542  19267217.718 8  19267302.010 2
        53.000          20.000
  22406514.810 6 119901797.411 6  93256997.37546  22406513.093 6  22406514.391 6
        43.000          41.000
  22845195.435 7 120052320.002 7  93547275.19643  22845195.094 3  22845197.414 3
        45.000          29.000
  21865885.151 8 114906022.402 8  89537186.66845  21865884.366 5  21865887.181 5
        50.000          38.000
  21172072.762 7 113335746.820 7  88150061.48746  21172071.690 7  21172071.821 6
        48.000          43.000
  21211446.536 8 113228156.931 8  88066385.19747  21211445.677 7  21211450.941 7
        50.000          46.000
  21884726.101 7 115005044.910 7  89614333.99345  21884725.944 5  21884728.807 5
        48.000          35.000
  23609930.319 6 124071023.636 6  96678735.74043  23609929.170 3  23609931.621 3
        44.000          27.000
 10  1  4  0  8 30.0000000  0 15G08R08G22G28G15R19R10R09R17G18G27R07
                                R18G09G17
  23798278.745 6 125060812.209 6  97449993.82541  23798277.973 1  23798281.571 1
        41.000          19.000
  20759864.079 8 111168136.316 8  86464135.02547  20759863.727 7  20759865.085 7
        51.000          49.000
  24444631.331 6 128457400.808 6 100096694.94841  24444631.385 1  24444629.237 1
        41.000          19.000
  21758976.618 8 114344220.108 8  89099404.24845  21758975.937 5  21758977.544 5
        51.000          38.000
  20642564.729 8 108477418.792 8  84527876.89047  20642564.640 7  20642566.447 7
        53.000          45.000
  23322300.868 6 124758591.807 6  97034484.81545  23322300.944 6  23322304.108 5
        42.000          39.000
  21964017.169 7 117080582.002 7  91062708.21445  21964015.824 7  21964021.131 5
        49.000          38.000
  19264975.377 8 102873921.375 8  80013081.60842  19264974.906 8  19264982.877 2
        54.000          20.000
  22419033.633 6 119968791.098 6  93309103.58246  22419032.557 6  22419033.732 6
        43.000          40.000
  22841213.321 7 120031390.733 7  93530966.65843  22841212.724 3  22841214.319 3
        45.000          29.000
  21854635.092 7 114846905.261 7  89491121.38145  21854634.616 5  21854637.717 5
        49.000          38.000
  21190005.823 7 113431744.359 7  88224726.17846  21190005.321 7  21190005.087 6
        48.000          42.000
  21202370.051 8 113179705.624 8  88028700.86847  21202369.248 7  21202374.415 7
        50.000          46.000
  21865965.688 7 114906457.409 7  89537512.59545  21865965.421 5  21865968.305 5
        48.000          35.000
  23592622.886 6 123980077.076 6  96607868.30743  23592622.749 3  23592625.883 3
        42.000          27.000
 10  1  4  0  9  0.0000000  0 15G08R08G22G28G15R19R10R09R17G18G27R07
                                R18G09G17
  23817721.147 6 125162986.827 6  97529610.37541  23817719.651 1  23817723.822 1
        40.000          19.000
  20754596.935 8 111139932.381 8  86442198.63347  20754596.904 8  20754598.249 7
        51.000          48.000
  24431149.534 6 128386553.213 6 100041489.09141  24431149.136 1  24431148.304 1
        41.000          19.000
  21768463.712 8 114394073.538 8  89138251.07145  21768462.791 5  21768464.726 5
        51.000          39.000
  20647278.304 8 108502191.423 8  84547180.23947  20647278.617 7  20647280.553 7
        53.000          45.000
  23297882.503 6 124627966.284 6  96932887.19545  23297882.428 6  23297884.147 5
        42.000          39.000
  21944899.663 7 116978674.307 7  90983446.69245  21944898.486 7  21944903.089 5
        49.000          38.000
  19262830.738 8 102862469.226 8  80004174.33342  19262830.254 8  19262838.238 2
        54.000          20.000
  22431684.887 6 120036491.875 6  93361759.75146  22431684.117 6  22431686.585 6
        43.000          41.000
  22837340.451 7 120011037.178 7  93515106.74343  22837339.456 3  22837341.944 3
        46.000          29.000
  21843433.783 8 114788041.172 8  89445253.27445  21843433.340 5  21843436.113 5
        50.000          39.000
  21208046.306 7 113528310.826 7  88299833.38646  21208044.892 7  21208044.417 6
        49.000          43.000
  21193440.714 8 113132039.260 8  87991627.05147  21193440.170 7  21193444.662 7
        50.000          46.000
  21847258.565 7 114808151.412 7  89460910.54345  21847258.574 5  21847261.317 5
        48.000          35.000
  23575367.180 6 123889405.412 6  96537215.07943  23575368.171 3  23575370.982 3
        43.000          27.000
 10  1  4  0  9 30.0000000  0 15G08R08G22G28G15R19R10R09R17G18G27R07
                                R18G09G17
  23837191.028 6 125265295.284 6  97609331.20542  23837189.171 2  23837193.866 2
        42.000          20.000
  20749485.561 8 111112559.674 8  86420908.74447  20749485.189 7  20749486.370 7
        50.000          48.000
  24417744.466 6 128316117.368 6  99986604.03142  24417743.477 1  24417744.260 2
        40.000          20.000
  21778030.001 8 114444346.318 8  89177424.67445  21778029.186 5  21778031.204 5
        51.000          38.000
  20652096.870 8 108527509.736 8  84566908.78046  20652096.461 7  20652098.386 6
        52.000          44.000
  23273499.761 6 124497531.497 6  96831437.92145  23273498.776 6  23273501.426 5
        42.000          39.000
  21925823.280 7 116876989.160 7  90904358.27845  21925822.429 7  21925827.491 5
        49.000          38.000
  19260784.382 8 102851541.505 8  79995675.41942  19260783.873 8  19260875.657 2
        54.000          20.000
  22444468.627 6 120104896.904 6  93414963.66546  22444467.527 6  22444468.983 6
        43.000          40.000
  22833576.747 7 119991259.764 7  93499695.75743  22833576.125 3  22833577.446 3
        46.000          29.000
  21832280.264 8 114729430.786 8  89399582.84945  21832279.971 5  21832282.827 5
        50.000          38.000
  21226190.632 7 113625443.601 7  88375381.05546  21226189.955 7  21226189.700 6
        48.000          43.000
  21184658.802 8 113085160.340 8  87955165.68047  21184657.977 7  21184662.393 7
        50.000          46.000
  21828605.934 7 114710129.249 7  89384529.66245  21828605.677 5  21828607.980 5
        48.000          35.000
  23558166.638 6 123799011.361 6  96466778.15843  23558167.129 3  23558169.639 3
        44.000          28.000
 10  1  4  0 10  0.0000000  0 15G08R08G22G28G15R19R10R09R17G18G27R07
                                R18G09G17
  23856684.493 6 125367736.200 6  97689155.25442  23856683.529 2  23856686.940 2
        41.000          20.000
  20744529.778 8 111086019.434 8  86400266.33347  20744529.380 8  20744530.805 7
        51.000          49.000
  24404422.196 6 128246095.452 6  99932041.46542  24404420.772 2  24404420.269 2
        43.000          21.000
  21787675.665 8 114495036.349 8  89216923.40645  21787675.319 5  21787677.113 5
        51.000          38.000
  20657017.926 8 108553373.066 8  84587062.01347  20657018.104 7  20657019.941 7
        53.000          45.000
  23249153.319 6 124367291.795 6  96730140.41745  23249151.846 6  23249154.319 5
        43.000          39.000
  21906789.245 7 116775528.193 7  90825444.21645  21906788.445 7  21906794.094 5
        49.000          39.000
  19258836.116 8 102841138.354 8  79987583.43842  19258835.699 8  19258843.616 2
        53.000          20.000
  22457382.356 6 120174002.826 6  93468712.71146  22457381.450 6  22457382.589 6
        43.000          40.000
  22829923.171 7 119972059.174 7  93484734.25143  22829922.496 3  22829924.082 3
        46.000          29.000
  21821175.649 8 114671074.795 8  89354110.65545  21821175.173 5  21821177.926 5
        51.000          38.000
  21244441.124 7 113723137.563 7  88451365.19646  21244439.905 7  21244439.499 6
        48.000          42.000
  21176024.503 8 113039071.312 8  87919318.68247  21176023.971 7  21176029.271 7
        50.000          46.000
  21810007.085 7 114612392.320 7  89308371.02745  21810006.752 5  21810009.013 5
        49.000          35.000
  23541019.245 6 123708898.216 6  96396560.15043  23541019.552 3  23541021.769 3
        44.000          28.000
 10  1  4  0 10 30.0000000  0 15G08R08G22G28G15R19R10R09R17G18G27R07
                                R18G09G17
  23876203.303 6 125470308.042 6  97769081.35042  23876202.320 2  23876205.810 2
        40.000          20.000
  20739728.988 8 111060313.227 8  86380272.61447  20739728.703 8  20739730.020 7
        51.000          48.000
  24391174.729 6 128176489.682 6  99877803.22042  24391175.127 2  24391174.962 2
        41.000          21.000
  21797401.213 8 114546142.379 8  89256746.29945  21797400.390 5  21797401.941 5
        52.000          37.000
  20662043.214 8 108579781.123 8  84607639.70646  20662043.457 6  20662045.341 6
        53.000          44.000
  23224844.107 6 124237251.740 6  96628998.13445  23224842.702 6  23224844.214 5
        43.000          38.000
  21887797.618 7 116674292.465 7  90746705.36845  21887796.936 7  21887802.104 5
        49.000          39.000
  19256986.134 8 102831259.522 8  79979899.98342  19256985.838 8  19256993.634 2
        53.000          20.000
  22470426.916 6 120243806.605 6  93523004.51946  22470425.642 6  22470426.726 6
        43.000          40.000
  22826379.898 7 119953436.123 7  93470222.77643  22826378.561 3  22826379.516 3
        46.000          29.000
  21810119.718 8 114612973.855 8  89308837.20445  21810119.037 5  21810121.721 5
        51.000          39.000
  21262795.084 7 113821389.103 7  88527783.01146  21262794.118 7  21262794.139 6
        48.000          43.000
  21167539.778 8 112993774.891 8  87884088.15947  21167538.800 7  21167542.539 7
        50.000          46.000
  21791463.218 7 114514942.648 7  89232436.22545  21791462.334 5  21791465.454 5
        48.000          35.000
  23523925.729 6 123619068.830 6  96326563.25043  23523925.320 3  23523927.145 3
        44.000          28.000
 10  1  4  0 11  0.0000000  0 15G08R08G22G28G15R19R10R09R17G18G27R07
                                R18G09G17
  23895747.479 6 125573010.100 6  97849108.88342  23895746.499 2  23895749.518 2
        42.000          22.000
  20735084.486 8 111035442.355 8  86360928.59647  20735083.957 8  20735085.400 7
        51.000          49.000
  24378008.760 6 128107302.429 6  99823891.08242  24378008.161 2  24378008.837 2
        41.000          20.000
  21807204.917 8 114597662.360 8  89296891.74145  21807204.365 5  21807206.124 5
        51.000          38.000
  20667171.923 8 108606733.446 8  84628641.50547  20667172.214 7  20667174.243 7
        52.000          45.000
  23200571.880 6 124107415.393 6  96528014.35946  23200571.168 6  23200573.400 6
        44.000          40.000
  21868848.414 7 116573283.608 7  90668142.95845  21868847.764 7  21868852.257 5
        49.000          38.000
  19255234.437 8 102821905.346 8  79972624.52342  19255233.965 8  19255241.937 2
        53.000          20.000
  22483601.350 6 120314304.835 6  93577836.48046  22483599.890 6  22483601.409 6
        43.000          40.000
  22822946.304 7 119935391.215 7  93456161.81043  22822945.351 3  22822946.427 3
        47.000          29.000
  21799112.244 8 114555128.584 8  89263762.96645  21799111.378 5  21799114.343 5
        50.000          39.000
  21281252.824 7 113920194.933 7  88604631.94646  21281251.765 7  21281251.999 6
        48.000          42.000
  21159202.614 8 112949272.543 8  87849475.23847  21159201.778 7  21159206.761 7
        50.000          47.000
  21772973.974 7 114417781.832 7  89156726.51845  21772973.561 5  21772976.265 5
        48.000          35.000
  23506886.829 6 123529525.735 6  96256789.42043  23506885.902 3  23506888.118 3
        44.000          28.000
 10  1  4  0 11 30.0000000  0 15G08R08G22G28G15R19R10R09R17G18G27R07
                                R18G09G17
  23915315.042 6 125675840.818 6  97929236.71142  23915313.836 2  23915317.529 2
        41.000          21.000
  20730595.772 8 111011408.142 8  86342235.31647  20730595.769 7  20730596.996 7
        50.000          48.000
  24364924.077 6 128038535.668 6  99770306.58642  24364922.946 2  24364923.544 2
        42.000          20.000
  21817087.130 7 114649594.736 7  89337358.53845  21817086.739 5  21817088.495 5
        49.000          38.000
  20672404.656 8 108634229.759 8  84650067.19347  20672404.741 7  20672406.559 7
        52.000          45.000
  23176339.727 6 123977787.505 6  96427192.70745  23176338.134 6  23176340.544 5
        43.000          39.000
  21849942.327 7 116472502.924 7  90589758.00945  21849941.347 7  21849946.476 5
        49.000          38.000
  19253580.823 8 102813075.515 8  79965757.30042  19253580.436 8  19253674.975 2
        53.000          20.000
  22496904.908 6 120385494.800 6  93633206.45146  22496903.884 6  22496905.427 6
        44.000          40.000
  22819621.244 7 119917925.300 7  93442552.01443  22819620.969 3  22819623.028 3
        46.000          29.000
  21788153.541 8 114497539.872 8  89218888.65445  21788152.836 5  21788155.413 5
        50.000          39.000
  21299813.618 7 114019550.285 7  88681908.26646  21299812.395 7  21299812.304 6
        48.000          42.000
  21151014.600 8 112905567.450 8  87815482.41847  21151014.046 7  21151018.825 7
        50.000          46.000
  21754540.239 7 114320912.093 7  89081243.62745  21754539.812 5  21754542.463 5
        49.000          35.000
  23489902.001 6 123440272.148 6  96187241.17943  23489901.170 3  23489903.427 3
        44.000          28.000
 10  1  4  0 12  0.0000000  0 15G08R08G22G28G15R19R10R09R17G18G27R07
                                R18G09G17
  23934906.755 6 125778799.011 6  98009463.83542  23934906.713 2  23934909.910 2
        41.000          21.000
  20726264.267 8 110988211.704 8  86324193.64147  20726263.725 7  20726265.085 7
        51.000          48.000
  24351917.930 6 127970191.321 6  99717051.24342  24351917.099 1  24351917.205 2
        42.000          20.000
  21827047.728 8 114701938.031 8  89378145.52645  21827047.343 5  21827048.752 5
        50.000          38.000
  20677740.651 8 108662269.829 8  84671916.58447  20677740.500 7  20677742.558 7
        52.000          45.000
  23152145.964 6 123848372.293 6  96326536.43145  23152144.504 6  23152147.351 5
        43.000          39.000
  21831078.883 7 116371951.810 7  90511551.63445  21831078.147 7  21831083.808 5
        49.000          39.000
  19252025.432 8 102804769.996 8  79959296.80242  19252025.118 8  19252032.932 2
        54.000          20.000
  22510336.426 6 120457373.182 6  93689111.84346  22510335.682 6  22510337.208 6
        44.000          40.000
  22816408.849 7 119901038.463 7  93429393.43243  22816407.417 3  22816409.320 3
        47.000          29.000
  21777243.753 8 114440208.370 8  89174214.74745  21777243.035 5  21777245.752 5
        50.000          39.000
  21318475.301 7 114119450.843 7  88759608.64146  21318474.593 7  21318474.983 6
        47.000          42.000
  21142976.752 8 112862660.915 8  87782110.69047  21142976.081 7  21142981.214 7
        50.000          46.000
  21736162.517 7 114224335.209 7  89005988.92345  21736162.008 5  21736164.533 5
        49.000          36.000
  23472971.786 6 123351310.896 6  96117920.74543  23472972.097 3  23472974.690 3
        44.000          28.000
 10  1  4  0 12 30.0000000  0 15G08R08G22G28G15R19R10R09R17G18G27R07
                                R18G09G17
  23954524.865 6 125881883.150 6  98089789.11242  23954524.177 2  23954527.380 2
        42.000          22.000
  20722088.361 8 110965854.551 8  86306804.74647  20722088.632 7  20722090.315 7
        50.000          49.000
  24338991.808 6 127902271.819 6  99664126.94242  24338992.645 2  24338991.855 2
        41.000          20.000
  21837086.642 8 114754690.361 8  89419251.23645  21837085.652 5  21837087.310 5
        51.000          38.000
  20683179.397 8 108690853.172 8  84694189.31146  20683179.708 6  20683181.795 6
        53.000          44.000
  23127992.750 6 123719173.947 6  96226048.86645  23127992.680 6  23127995.625 5
        43.000          39.000
  21812259.588 7 116271631.763 7  90433524.96445  21812258.696 7  21812263.726 5
        49.000          39.000
  19250568.293 8 102796989.129 8  79953245.02842  19250567.850 8  19250575.793 2
        53.000          20.000
  22523897.005 6 120529936.728 6  93745550.18246  22523895.566 6  22523897.641 6
        43.000          40.000
  22813305.660 7 119884731.636 7  93416686.81943  22813305.338 4  22813306.675 3
        47.000          29.000
  21766382.358 8 114383134.867 8  89129741.90245  21766382.000 5  21766385.119 5
        51.000          39.000
  21337239.302 7 114219893.457 7  88837730.63246  21337238.155 7  21337238.225 6
        48.000          42.000
  21135089.498 8 112820555.721 8  87749362.22847  21135088.699 7  21135093.130 7
        50.000          46.000
  21717840.409 7 114128053.142 7  88930963.96645  21717839.980 5  21717842.339 5
        48.000          36.000
  23456099.587 6 123262644.580 6  96048830.12243  23456099.809 3  23456101.412 3
        43.000          28.000
 10  1  4  0 13  0.0000000  0 15G08R08G22G28G15R19R10R09R17G18G27R07
                                R18G09G17
  23974163.427 6 125985091.943 6  98170211.53042  23974162.233 2  23974166.840 2
        40.000          21.000
  20718070.789 8 110944337.961 8  86290069.61547  20718070.600 8  20718072.391 7
        51.000          49.000
  24326151.050 6 127834779.270 6  99611535.32542  24326149.545 2  24326148.319 2
        43.000          20.000
  21847202.530 8 114807849.753 8  89460674.15245  21847201.652 5  21847203.611 5
        51.000          38.000
  20688722.364 8 108719979.119 8  84716884.83747  20688722.227 7  20688724.369 7
        53.000          45.000
  23103881.883 6 123590197.031 6  96125733.47945  23103881.624 6  23103884.418 5
        42.000          39.000
  21793483.520 7 116171544.587 7  90355679.41745  21793482.392 7  21793487.959 5
        49.000          39.000
  19249209.579 8 102789732.491 8  79947600.99142  19249209.161 8  19249217.079 2
        54.000          20.000
  22537585.143 6 120603182.126 6  93802518.84346  22537583.872 6  22537585.002 6
        43.000          40.000
  22810312.420 7 119869005.157 7  93404432.41844  22810312.475 4  22810313.852 4
        47.000          30.000
  21755570.943 8 114326319.859 8  89085470.46245  21755570.561 5  21755573.353 5
        50.000          39.000
  21356104.077 7 114320873.585 7  88916270.67946  21356102.291 7  21356102.612 6
        48.000          42.000
  21127352.271 8 112779253.995 8  87717238.67947  21127351.449 7  21127356.045 7
        50.000          46.000
  21699574.818 7 114032067.766 7  88856170.16945  21699574.673 5  21699577.061 5
        48.000          36.000
  23439284.268 7 123174275.797 7  95979971.35843  23439283.203 3  23439285.780 3
        45.000          28.000
 10  1  4  0 13 30.0000000  0 15G08R08G22G28G15R19R10R09R17G18G27R07
                                R18G09G17
  23993826.771 6 126088424.632 6  98250730.47142  23993826.027 2  23993829.163 2
        41.000          20.000
  20714210.333 8 110923662.626 8  86273988.79547  20714210.058 8  20714211.374 7
        50.000          49.000
  24313388.606 6 127767715.955 6  99559278.19042  24313387.213 2  24313388.378 2
        42.000          22.000
  21857395.332 8 114861414.958 8  89502413.28045  21857394.813 5  21857396.389 5
        50.000          38.000
  20694368.107 8 108749647.413 8  84740002.97546  20694368.014 6  20694369.976 6
        53.000          44.000
  23079815.306 6 123461446.014 6  96025593.80145  23079813.714 6  23079815.258 5
        44.000          39.000
  21774750.678 7 116071691.099 7  90278015.63545  21774749.736 7  21774755.261 5
        49.000          39.000
  19247948.565 8 102783000.303 8  79942364.93042  19247948.315 8  19247956.065 2
        54.000          20.000
  22551399.157 6 120677106.237 6  93860015.36645  22551397.921 6  22551398.819 5
        43.000          39.000
  22807431.660 7 119853859.661 7  93392630.73743  22807430.254 3  22807431.832 3
        47.000          29.000
  21744808.959 8 114269764.444 8  89041401.31245  21744808.338 5  21744811.250 5
        50.000          39.000
  21375067.253 7 114422387.696 7  88995226.04546  21375066.043 7  21375065.831 6
        47.000          41.000
  21119764.725 7 112738757.769 7  87685741.62947  21119764.440 7  21119769.311 7
        49.000          46.000
  21681366.357 7 113936381.183 7  88781609.20945  21681366.033 5  21681368.650 5
        48.000          36.000
  23422525.247 6 123086208.214 6  95911347.28643  23422524.725 3  23422527.031 3
        43.000          28.000
 10  1  4  0 14  0.0000000  0 15G08R08G22G28G15R19R10R09R17G18G27R07
                                R18G09G17
  24013513.676 6 126191879.053 6  98331344.28342  24013512.032 2  24013517.032 2
        41.000          21.000
  20710506.391 8 110903830.187 8  86258563.57347  20710506.210 8  20710507.883 7
        50.000          49.000
  24300708.785 6 127701083.813 6  99507357.03742  24300708.613 2  24300709.321 2
        42.000          23.000
  21867665.315 8 114915383.980 8  89544467.06045  21867664.822 5  21867666.567 5
        50.000          38.000
  20700116.708 8 108779857.214 8  84763543.06947  20700116.682 7  20700118.693 7
        53.000          45.000
  23055788.226 6 123332925.353 6  95925633.29045  23055787.417 6  23055789.952 5
        43.000          39.000
  21756063.281 8 115972073.119 8  90200535.02445  21756062.345 7  21756067.512 5
        50.000          39.000
  19246786.178 8 102776792.282 8  79937536.53042  19246785.755 8  19246793.678 2
        54.000          20.000
  22565339.331 6 120751705.364 6  93918036.89945  22565338.080 6  22565340.382 5
        43.000          39.000
  22804658.956 7 119839295.324 7  93381281.89843  22804658.128 3  22804660.498 3
        45.000          29.000
  21734096.241 8 114213469.062 8  88997534.78545  21734095.849 5  21734098.526 5
        51.000          39.000
  21394129.467 7 114524430.952 7  89074592.97046  21394128.698 7  21394128.760 6
        47.000          42.000
  21112330.763 8 112699069.053 8  87654872.66047  21112330.076 8  21112334.540 7
        50.000          46.000
  21663214.730 7 113840994.878 7  88707282.23445  21663214.309 5  21663217.607 5
        49.000          36.000
  23405824.654 7 122998444.409 7  95842959.92143  23405823.978 3  23405826.431 3
        45.000          28.000
 10  1  4  0 14 30.0000000  0 15G08R08G22G28G15R19R10R09R17G18G27R07
                                R18G09G17
  24033223.618 6 126295454.467 6  98412052.40342  24033222.627 2  24033226.930 2
        40.000          20.000
  20706960.715 8 110884841.594 8  86243794.66647  20706960.445 7  20706961.950 7
        50.000          49.000
  24288112.536 6 127634884.959 6  99455773.53442  24288111.325 2  24288112.216 2
        43.000          23.000
  21878011.888 8 114969755.433 8  89586834.42745  21878011.210 5  21878013.142 5
        51.000          37.000
  20705968.540 8 108810608.437 8  84787505.05146  20705968.525 6  20705970.491 6
        53.000          44.000
  23031804.958 6 123204639.564 6  95825855.48445  23031804.547 6  23031807.373 5
        41.000          39.000
  21737418.642 7 115872691.797 7  90123238.47645  21737418.188 7  21737423.819 5
        49.000          39.000
  19245721.865 8 102771108.407 8  79933115.81442  19245721.384 8  19245729.365 2
        53.000          20.000
  22579405.832 6 120826976.477 6  93976581.10345  22579405.303 6  22579406.521 5
        44.000          39.000
  22801997.883 7 119825312.691 7  93370386.33443  22801997.512 3  22801998.903 3
        46.000          29.000
  21723433.382 8 114157434.501 8  88953871.49245  21723432.820 5  21723435.631 5
        50.000          39.000
  21413290.769 7 114627000.523 7  89154369.24746  21413289.291 7  21413289.225 6
        47.000          41.000
  21105047.739 8 112660190.109 8  87624633.50247  21105047.013 8  21105051.486 7
        50.000          47.000
  21645121.559 7 113745910.957 7  88633190.88445  21645120.473 5  21645123.238 5
        49.000          36.000
  23389181.860 7 122910987.179 7  95774811.45243  23389181.411 3  23389183.851 3
        45.000          28.000
 10  1  4  0 15  0.0000000  0 15G08R08G22G28G15R19R10R09R17G18G27R07
                                R18G09G17
  24052954.913 5 126399149.626 5  98492853.77642  24052954.011 2  24052958.383 2
        38.000          20.000
  20703572.419 8 110866697.525 8  86229682.61047  20703572.035 8  20703573.934 7
        50.000          49.000
  24275596.825 6 127569121.648 6  99404529.41642  24275597.352 2  24275597.236 2
        43.000          23.000
  21888434.765 8 115024527.586 8  89629514.02445  21888433.963 5  21888435.839 5
        50.000          37.000
  20711923.404 8 108841900.497 8  84811888.45846  20711923.277 6  20711925.174 6
        53.000          44.000
  23007868.886 6 123076592.964 6  95726263.70046  23007868.527 6  23007872.007 6
        43.000          40.000
  21718819.931 7 115773548.847 7  90046127.31645  21718818.762 7  21718824.494 5
        49.000          39.000
  19244755.183 8 102765948.898 8  79929102.84442  19244755.046 8  19244869.571 2
        53.000          20.000
  22593595.499 6 120902916.166 6  94035645.29146  22593594.769 6  22593598.228 6
        42.000          41.000
  22799447.622 7 119811912.479 7  93359944.61043  22799447.966 3  22799449.191 3
        45.000          29.000
  21712820.134 8 114101661.283 8  88910411.84845  21712819.326 5  21712822.311 5
        51.000          39.000
  21432548.442 7 114730091.297 7  89234550.89746  21432547.664 7  21432547.751 6
        48.000          41.000
  21097915.575 8 112622122.656 8  87595025.50647  21097915.192 7  21097919.941 7
        50.000          47.000
  21627084.566 7 113651131.239 7  88559336.56945  21627084.669 5  21627087.547 5
        49.000          36.000
  23372597.006 6 122823839.665 6  95706904.31643  23372597.569 3  23372599.966 3
        44.000          28.000
 10  1  4  0 15 30.0000000  0 15G08R08G22G28G15R19R10R09R17G18G27R07
                                R18G09G17
  24072712.173 6 126502963.629 6  98573747.76742  24072711.240 1  24072713.111 2
        40.000          20.000
  20700342.200 8 110849399.427 8  86216228.53447  20700341.840 7  20700343.261 7
        51.000          49.000
  24263165.343 6 127503795.926 6  99353626.23542  24263165.344 2  24263165.841 2
        43.000          22.000
  21898933.329 8 115079698.415 8  89672504.28645  21898932.474 5  21898934.484 5
        50.000          37.000
  20717980.368 8 108873732.988 8  84836692.98646  20717980.678 6  20717982.725 6
        53.000          44.000
  22983978.072 6 122948789.955 6  95626861.37646  22983977.586 6  22983979.976 6
        43.000          40.000
  21700266.139 7 115674645.936 7  89969202.84945  21700265.155 7  21700271.047 5
        49.000          39.000
  19243887.322 8 102761313.228 8  79925497.25542  19243887.034 8  19243894.822 2
        53.000          20.000
  22607912.704 6 120979521.333 6  94095227.09646  22607911.188 6  22607912.782 6
        42.000          40.000
  22797010.246 7 119799095.153 7  93349957.08043  22797009.112 3  22797009.662 3
        47.000          29.000
  21702256.139 8 114046150.358 8  88867156.57745  21702256.027 5  21702258.931 5
        51.000          39.000
  21451903.168 7 114833698.872 7  89315134.52546  21451902.673 7  21451902.318 6
        48.000          41.000
  21090937.368 8 112584868.628 8  87566050.17447  21090936.392 8  21090941.133 7
        50.000          46.000
  21609106.595 8 113556657.652 8  88485720.80545  21609106.573 5  21609109.739 5
        50.000          36.000
  23356073.481 6 122737004.391 6  95639240.47143  23356073.577 3  23356075.654 3
        43.000          28.000
 10  1  4  0 16  0.0000000  0 15G08R08G22G28G15R19R10R09R17G18G27R07
                                R18G09G17
  24092488.947 5 126606894.527 5  98654732.83542  24092487.460 1  24092491.643 2
        39.000          20.000
  20697269.613 8 110832947.818 8  86203432.83647  20697269.427 8  20697271.014 7
        50.000          49.000
  24250818.563 6 127438909.848 6  99303065.65342  24250818.127 2  24250818.134 2
        43.000          22.000
  21909507.713 8 115135266.393 8  89715804.01445  21909506.896 5  21909508.709 5
        50.000          37.000
  20724141.227 8 108906104.750 8  84861917.72546  20724140.877 6  20724142.837 6
        53.000          44.000
  22960133.297 6 122821235.048 6  95527652.01446  22960132.600 6  22960135.506 6
        44.000          40.000
  21681757.266 8 115575984.108 8  89892465.89645  21681756.349 7  21681762.217 5
        50.000          39.000
  19243117.514 8 102757201.383 8  79922299.22342  19243117.071 8  19243125.014 2
        54.000          20.000
  22622351.393 6 121056788.266 6  94155323.60146  22622350.120 6  22622353.069 6
        42.000          41.000
  22794681.307 7 119786860.946 7  93340423.93943  22794680.400 3  22794681.876 3
        46.000          29.000
