     2.11           OBSERVATION DATA    G (GPS)             RINEX VERSION / TYPE
teqc  2009Mar23     root                20100106 01:16:03UTCPGM / RUN BY / DATE
Linux 2.4.20-8|Pentium IV|gcc|Linux|486/DX+                 COMMENT
teqc  2009Mar23     root                20100105 01:00:00UTCCOMMENT
BIT 2 OF LLI FLAGS DATA COLLECTED UNDER A/S CONDITION       COMMENT
PTBB                                                        MARKER NAME
14234M001                                                   MARKER NUMBER
Automatic           BKG/GOWettzell+PTB                      OBSERVER / AGENCY
RT820013901         ASHTECH Z-XII3T     1L01-1D04           REC # / TYPE / VERS
CR15930             ASH700936E      SNOW                    ANT # / TYPE
  3844060.0000   709661.2700  5023129.5100                  APPROX POSITION XYZ
        0.0562        0.0000        0.0000                  ANTENNA: DELTA H/E/N
     1     1                                                WAVELENGTH FACT L1/2
     9    C1    P1    P2    L1    L2    D1    D2    S1    S2# / TYPES OF OBSERV
    30.0000                                                 INTERVAL
Forced Modulo Decimation to 30 seconds                      COMMENT
 SNR is mapped to RINEX snr flag value [0-9]                COMMENT
  L1 & L2: min(max(int(snr_dBHz/6), 0), 9)                  COMMENT
pseudorange smoothing corrections not applied               COMMENT
  2010     1     5     0     0    0.0000000     GPS         TIME OF FIRST OBS
                                                            END OF HEADER
 10  1  5  0  0  0.0000000  0  6G15G 8G27G18G17G 9
  20466941.6574   20466942.1844   20466945.5574  -20950168.97248 -16303244.78848
      -330.4634       -257.5034         52.1004         49.2004
  23798665.0174   23798663.6574   23798668.1324   -4631701.03246  -3585953.48646
     -3221.1774      -2510.0104         40.3004         37.8004
  21907532.9614   21907532.6764   21907537.1924  -14818035.01347 -11101810.84047
      1862.2094       1451.0784         47.9004         44.9004
  23078371.8404   23078370.6674   23078372.7984   -5692079.47447  -4418603.58246
      1195.4544        931.5164         42.5004         40.0004
  23524936.9164   23524937.1114   23524942.2284   -6496448.11647  -5041420.30746
      2847.6134       2218.9264         42.2004         39.5004
  21956440.1454   21956439.9734   21956444.4844  -15367027.99147 -11935871.89747
      3158.0934       2460.8584         45.6004         43.0004
 10  1  5  0  0 30.0000000  0  7G28G15G 8G27G18G17G 9
  21904507.0574   21904506.3964   21904509.3264  -13544688.67048 -10537268.39247
     -1850.3704      -1441.8554         48.4004         45.6004
  20468878.9754   20468879.3384   20468882.7504  -20939990.17448 -16295313.26148
      -348.1324       -271.2714         52.1004         49.2004
  23817061.6324   23817061.4794   23817067.8924   -4535008.78346  -3510608.84346
     -3224.9654      -2512.9624         39.7004         36.9004
  21896922.3224   21896922.2944   21896927.0694  -14873792.77047 -11145258.43547
      1854.9584       1445.4254         47.9004         44.9004
  23071598.8744   23071598.0724   23071599.9304   -5727671.00947  -4446337.26146
      1177.2924        917.3674         42.9004         40.0004
  23508707.8964   23508708.3674   23508711.1794   -6581736.66847  -5107878.89746
      2838.1774       2211.5674         42.0004         39.5004
  21938436.2454   21938435.2334   21938439.6004  -15461647.28247 -12009601.20347
      3149.8404       2454.4384         45.8004         43.0004
 10  1  5  0  1  0.0000000  0  7G28G15G 8G27G18G17G 9
  21915107.1954   21915107.0024   21915109.9534  -13488983.17748 -10493861.52647
     -1863.3134      -1451.9324         48.4004         45.6004
  20470917.6204   20470917.5954   20470920.5694  -20929280.68448 -16286968.21748
      -365.8264       -285.0594         52.1004         49.2004
  23835484.4214   23835485.2854   23835488.2504   -4438201.78946  -3435174.84346
     -3228.8374      -2515.9754         39.0004         36.2004
  21886353.9854   21886354.0634   21886358.2564  -14929332.50947 -11188536.13947
      1847.6964       1439.7694         47.9004         45.1004
  23064929.0384   23064928.4744   23064931.2374   -5762717.49847  -4473646.21946
      1159.1294        903.2084         42.9004         39.9004
  23492531.9554   23492533.0854   23492536.4164   -6666740.23347  -5174115.42446
      2828.6614       2204.1524         42.2004         39.5004
  21920477.4964   21920476.8804   21920481.1854  -15556017.41747 -12083136.34647
      3141.4704       2447.9034         46.0004         43.3004
 10  1  5  0  1 30.0000000  0  7G28G15G 8G27G18G17G 9
  21925781.5444   21925780.9994   21925784.4384  -13432889.94648 -10450152.51047
     -1876.2464      -1462.0124         48.6004         45.6004
  20473055.6424   20473056.1944   20473059.4664  -20918040.36648 -16278209.53248
      -383.5164       -298.8474         52.1004         49.2004
  23853931.6934   23853930.3544   23853932.5134   -4341281.97846  -3359652.91946
     -3232.5344      -2518.8534         38.9004         36.6004
  21875825.9674   21875826.3404   21875830.2724  -14984653.99748 -11231643.78847
      1840.4024       1434.0774         48.1004         44.9004
  23058363.9774   23058362.9004   23058366.4564   -5797217.82947  -4500529.59546
      1140.9134        889.0244         42.5004         40.0004
  23476413.5334   23476410.5854   23476415.4754   -6751456.08547  -5240127.75746
      2819.0224       2196.6444         42.5004         39.7004
  21902566.8704   21902565.9234   21902570.4284  -15650136.81747 -12156476.12647
      3133.1424       2441.4094         46.2004         43.2004
 10  1  5  0  2  0.0000000  0  7G28G15G 8G27G18G17G 9
  21936529.1144   21936528.7824   21936531.6614  -13376410.75148 -10406142.74647
     -1889.0644      -1472.0034         48.6004         45.4004
  20475295.8724   20475296.1784   20475299.2264  -20906269.19648 -16269037.19748
      -401.2164       -312.6384         52.1004         49.2004
  23872392.3204   23872393.1934   23872397.3784   -4244249.74046  -3284043.41646
     -3236.2424      -2521.7434         38.7004         36.2004
  21865341.6704   21865341.1744   21865345.2194  -15039756.61348 -11274580.87947
      1833.0884       1428.3814         48.1004         45.1004
  23051902.5304   23051901.9594   23051906.2274   -5831170.65547  -4526986.36246
      1122.6234        874.7554         42.9004         40.2004
  23460343.2844   23460345.3714   23460348.9664   -6835881.07447  -5305913.46046
      2809.2744       2189.0434         42.5004         39.9004
  21884703.4644   21884703.3674   21884708.4124  -15744004.00447 -12229619.36247
      3124.6784       2434.8124         46.2004         43.2004
 10  1  5  0  2 30.0000000  0  7G28G15G 8G27G18G17G 9
  21947348.7794   21947348.8004   21947352.3374  -13319547.86548 -10361834.00747
     -1901.8364      -1481.9434         48.4004         45.2004
  20477637.6734   20477637.7134   20477640.5094  -20893966.82948 -16259450.94648
      -418.9324       -326.4414         52.1004         49.2004
  23890876.6094   23890877.6594   23890882.9574   -4147106.83546  -3208347.63645
     -3239.8714      -2524.5814         38.2004         35.9004
  21854897.1124   21854896.9194   21854901.2994  -15094639.97348 -11317347.12547
      1825.7854       1422.6864         48.1004         45.1004
  23045545.5124   23045545.8774   23045549.7434   -5864574.98247  -4553015.72446
      1104.3504        860.5564         42.9004         40.0004
  23444335.0364   23444336.2774   23444340.0494   -6920012.54147  -5371470.41046
      2799.4624       2181.4034         42.7004         40.2004
  21866889.7804   21866889.2924   21866893.8404  -15837617.56647 -12302564.96647
      3116.1954       2428.2054         46.2004         43.0004
 10  1  5  0  3  0.0000000  0  7G28G15G 8G27G18G17G 9
  21958242.3874   21958242.2084   21958245.8454  -13262302.68148 -10317227.37647
     -1914.5244      -1491.8284         48.2004         45.2004
  20480079.8454   20480079.6014   20480082.6724  -20881133.56548 -16249451.00748
      -436.6324       -340.2344         52.1004         49.2004
  23909387.1904   23909386.4424   23909391.3714   -4049853.46846  -3132565.81145
     -3243.6824      -2527.5414         37.8004         35.5004
  21844494.9004   21844494.4304   21844498.6174  -15149303.64148 -11359942.18147
      1818.4414       1416.9684         48.1004         44.9004
  23039293.3054   23039292.5304   23039296.7574   -5897429.56747  -4578616.71446
      1085.9144        846.1594         42.7004         39.9004
  23428383.7424   23428383.3994   23428386.8114   -7003847.54647  -5436796.35646
      2789.5364       2173.6664         43.2004         40.6004
  21849124.9954   21849123.9204   21849128.5264  -15930976.02547 -12375311.82347
      3107.7104       2421.6004         46.3004         43.3004
 10  1  5  0  3 30.0000000  0  7G28G15G 8G27G18G17G 9
  21969209.2684   21969208.3944   21969211.3584  -13204677.20648 -10272324.41547
     -1927.1724      -1501.6894         48.2004         45.2004
  20482621.9664   20482622.6814   20482626.0434  -20867768.41648 -16239036.61048
      -454.3704       -354.0524         52.1004         49.2004
  23927912.6024   23927913.3914   23927916.9164   -3952491.25046  -3056699.16246
     -3247.1414      -2530.2484         38.2004         36.2004
  21834134.7534   21834134.2084   21834138.3014  -15203747.26348 -11402365.77647
      1811.1014       1411.2484         48.1004         45.1004
  23033147.5404   23033146.5104   23033148.5454   -5929733.41347  -4603788.53046
      1067.6854        831.9464         42.5004         39.7004
  23412486.6814   23412486.7704   23412490.5744   -7087383.10747  -5501888.99046
      2779.4914       2165.8184         43.4004         40.6004
  21831407.4214   21831407.6014   21831411.4364  -16024077.52747 -12447858.40947
      3099.0794       2414.8614         46.3004         43.5004
 10  1  5  0  4  0.0000000  0  7G28G15G 8G27G18G17G 9
  21980245.8724   21980246.0944   21980249.2394  -13146673.36348 -10227126.61947
     -1939.7314      -1511.4844         48.1004         45.1004
  20485267.1794   20485267.4824   20485270.6494  -20853871.69848 -16228208.00248
      -472.0984       -367.8704         52.1004         49.2004
  23946462.7584   23946460.5944   23946465.1354   -3855021.06446  -2980748.40645
     -3250.8424      -2533.1244         37.8004         35.5004
  21823815.6074   21823815.8344   21823820.1144  -15257970.34747 -11444617.52647
      1803.7404       1405.5094         47.9004         45.1004
  23027104.2894   23027103.0864   23027107.4124   -5961485.43847  -4628530.39146
      1049.1804        817.5384         42.5004         39.7004
  23396647.5644   23396647.6324   23396651.8784   -7170616.06247  -5566745.82146
      2769.3234       2157.9084         43.2004         40.4004
  21813740.9154   21813740.7454   21813743.9444  -16116920.49847 -12520203.56247
      3090.4224       2408.1134         46.5004         43.5004
 10  1  5  0  4 30.0000000  0  7G28G15G 8G27G18G17G 9
  21991355.6404   21991355.1154   21991358.2594  -13088292.76847 -10181635.25347
     -1952.2804      -1521.2484         47.9004         44.9004
  20488012.3834   20488012.9424   20488016.2564  -20839443.21948 -16216965.04248
      -489.8224       -381.6784         52.1004         49.2004
  23965028.5504   23965028.7974   23965032.3114   -3757443.96346  -2904714.36745
     -3254.3174      -2535.8314         37.3004         34.6004
  21813540.4684   21813539.5394   21813544.1264  -15311972.44148 -11486697.07547
      1796.3794       1399.7754         48.1004         45.2004
  23021168.7884   23021168.2614   23021170.2104   -5992684.82247  -4652841.61146
      1030.7334        803.1754         42.9004         40.4004
  23380866.3314   23380868.1914   23380870.3914   -7253544.02147  -5631365.00046
      2759.1114       2149.9674         43.2004         40.4004
  21796122.4884   21796122.8564   21796126.1484  -16209503.61147 -12592346.23547
      3081.7594       2401.3664         46.5004         43.7004
 10  1  5  0  5  0.0000000  0  7G28G15G 8G27G18G17G 9
  22002536.7094   22002535.9954   22002539.1024  -13029537.45647 -10135851.88447
     -1964.7364      -1530.9624         47.9004         44.9004
  20490859.4854   20490859.8614   20490863.0674  -20824482.76048 -16205307.54348
      -507.5564       -395.4984         52.1004         49.2004
  23983616.0414   23983614.5744   23983623.9304   -3659760.91746  -2828597.69645
     -3257.9604      -2538.6524         36.4004         34.3004
  21803306.0114   21803305.7404   21803310.3284  -15365753.16148 -11528604.12047
      1788.9854       1394.0224         48.2004         45.4004
  23015335.3164   23015336.2374   23015339.0154   -6023330.28847  -4676721.20146
      1012.2364        788.7514         42.9004         40.0004
  23365145.8994   23365146.2554   23365147.4864   -7336163.95147  -5695744.13846
      2748.8444       2141.9594         43.2004         40.6004
  21778553.6784   21778553.6314   21778557.8804  -16301825.62747 -12664285.45447
      3073.0074       2394.5544         46.5004         43.5004
 10  1  5  0  5 30.0000000  0  7G28G15G 8G27G18G17G 9
  22013787.2944   22013787.3724   22013791.3174  -12970409.30147 -10089778.00547
     -1977.1414      -1540.6274         47.7004         44.7004
  20493808.2344   20493808.1344   20493811.4244  -20808990.13348 -16193235.37048
      -525.2974       -409.3254         52.1004         49.2004
  24002223.8924   24002224.7264   24002230.2994   -3561972.92246  -2752399.29645
     -3261.2794      -2541.2554         36.1004         34.0004
  21793113.4064   21793113.4154   21793117.7334  -15419311.90548 -11570338.20147
      1781.5914       1388.2474         48.2004         45.2004
  23009610.2584   23009610.9834   23009613.0314   -6053420.64147  -4700168.24646
       993.7484        774.3554         42.9004         40.0004
  23349482.3404   23349482.9914   23349486.7334   -7418472.99147  -5759881.01846
      2738.4134       2133.8204         43.4004         40.6004
  21761034.6494   21761035.3534   21761039.3534  -16393884.63747 -12736019.71947
      3064.2324       2387.7154         46.3004         43.5004
 10  1  5  0  6  0.0000000  0  7G28G15G 8G27G18G17G 9
  22025111.4114   22025110.5284   22025114.0104  -12910910.07447 -10043414.97747
     -1989.4734      -1550.2454         47.9004         45.1004
  20496857.0254   20496857.3274   20496860.5594  -20792965.50348 -16180748.65148
      -543.0394       -423.1464         52.1004         49.2004
  24020858.7724   24020855.0204   24020856.9324   -3464080.75746  -2676119.70145
     -3264.7464      -2543.9624         36.4004         34.6004
  21782964.9224   21782964.2374   21782968.5584  -15472648.29148 -11611899.02447
      1774.1524       1382.4524         48.2004         45.2004
  23003989.7564   23003989.8684   23003992.9504   -6082955.25047  -4723182.22146
       975.1844        759.8764         42.5004         39.9004
  23333879.2374   23333879.8714   23333882.8254   -7500468.19447  -5823773.39846
      2727.8924       2125.6284         43.6004         40.6004
  21743567.7574   21743567.2924   21743571.7784  -16485679.18447 -12807547.91547
      3055.3804       2380.8194         46.5004         43.7004
 10  1  5  0  6 30.0000000  0  7G28G15G 8G27G18G17G 9
  22036502.3944   22036502.1794   22036506.3464  -12851041.72547  -9996764.31647
     -2001.7814      -1559.8334         47.9004         44.9004
  20500007.9134   20500008.1714   20500011.3954  -20776408.47548 -16167847.07748
      -560.7594       -436.9554         52.1004         49.2004
  24039501.0924   24039502.3034   24039505.5564   -3366085.37846  -2599759.68345
     -3268.2744      -2546.7064         36.8004         35.0004
  21772857.4374   21772857.0474   21772861.5784  -15525761.92048 -11653286.26347
      1766.7394       1376.6764         48.2004         45.4004
  22998473.4454   22998474.7614   22998478.3584   -6111932.97047  -4745762.26146
       956.6134        745.4144         42.3004         39.5004
  23318335.2134   23318336.2334   23318340.8444   -7582146.59247  -5887418.86946
      2717.2944       2117.3624         43.4004         40.7004
  21726150.7994   21726150.0814   21726155.5034  -16577207.74847 -12878868.86147
      3046.4854       2373.8774         46.7004         43.9004
 10  1  5  0  7  0.0000000  0  7G28G15G 8G27G18G17G 9
  22047965.5764   22047965.2934   22047968.7134  -12790806.02747  -9949827.40747
     -2013.9334      -1569.3044         47.7004         44.7004
  20503259.2164   20503259.7654   20503263.6074  -20759319.23648 -16154530.79548
      -578.5324       -450.8044         52.1004         49.2004
  24058171.3304   24058167.7544   24058174.4904   -3267988.56446  -2523320.58445
     -3271.4884      -2549.2154         37.0004         35.0004
  21762792.3424   21762792.0964   21762796.5924  -15578652.30848 -11694499.54447
      1759.2844       1370.8674         48.2004         45.2004
  22993067.9374   22993066.9604   22993069.6764   -6140352.80547  -4767907.57246
       938.0114        730.9414         42.3004         39.5004
  23302854.7224   23302854.8614   23302857.0934   -7663505.37447  -5950815.31446
      2706.5924       2109.0214         43.4004         40.6004
  21708783.5134   21708783.8824   21708788.2524  -16668468.63047 -12949981.22547
      3037.5524       2366.9264         46.9004         43.9004
 10  1  5  0  7 30.0000000  0  7G28G15G 8G27G18G17G 9
  22059497.8734   22059497.1264   22059500.2144  -12730204.96047  -9902605.80447
     -2026.0894      -1578.7724         47.7004         44.7004
  20506612.7604   20506613.0964   20506616.4294  -20741697.74048 -16140799.76548
      -596.2584       -464.6184         51.9004         49.1004
  24076856.8444   24076857.0064   24076860.9154   -3169790.58646  -2446802.69245
     -3274.9234      -2551.8854         37.3004         35.3004
  21752770.9254   21752770.4874   21752774.1184  -15631319.06548 -11735538.57147
      1751.8224       1365.0494         48.2004         45.2004
  22987765.4614   22987764.9104   22987768.6224   -6168213.99847  -4789617.58446
       919.3804        716.4064         42.2004         39.7004
  23287432.3684   23287433.2794   23287436.4894   -7744541.80047  -6013960.55946
      2695.8074       2100.6264         43.4004         40.7004
  21691468.6664   21691468.7764   21691472.8414  -16759460.50447 -13020883.95647
      3028.5364       2359.8944         46.9004         43.9004
 10  1  5  0  8  0.0000000  0  7G28G15G 8G27G18G17G 9
  22071098.3844   22071098.3254   22071101.4584  -12669240.26847  -9855100.85347
     -2038.2034      -1588.2094         47.7004         44.7004
  20510067.3994   20510067.6984   20510071.2514  -20723543.85848 -16126653.89248
      -614.0294       -478.4624         51.9004         49.1004
  24095561.4004   24095559.6404   24095564.7524   -3071492.96646  -2370207.14945
     -3278.2044      -2554.4594         36.6004         34.1004
  21742790.7784   21742790.8534   21742794.9134  -15683761.82548 -11776403.06347
      1744.3634       1359.2394         48.2004         45.4004
  22982570.0354   22982569.4414   22982572.3624   -6195515.58747  -4810891.55646
       900.6844        701.8314         42.3004         39.9004
  23272074.9234   23272075.4234   23272077.0204   -7825253.10747  -6076852.49546
      2684.9074       2092.1364         43.6004         40.9004
  21674204.9704   21674204.9084   21674209.4394  -16850181.67847 -13091575.77247
      3019.5064       2352.8694         46.7004         43.9004
 10  1  5  0  8 30.0000000  0  7G28G15G 8G27G18G17G 9
  22082768.9944   22082768.8094   22082771.5274  -12607914.04947  -9807314.18747
     -2050.2004      -1597.5594         47.7004         44.5004
  20513623.6034   20513623.8994   20513626.7484  -20704857.57848 -16112093.15848
      -631.7514       -492.2804         51.7004         49.1004
  24114285.2524   24114283.0524   24114290.5044   -2973095.99145  -2293534.09245
     -3281.5254      -2557.0374         35.9004         34.1004
  21732854.4004   21732853.7624   21732857.8334  -15735980.19148 -11817092.70047
      1736.8524       1353.3914         48.4004         45.4004
  22977481.4384   22977481.6234   22977484.8194   -6222256.79547  -4831728.87146
       882.0154        687.2764         42.5004         39.7004
  23256778.1834   23256778.5584   23256782.6744   -7905636.33247  -6139488.72346
      2673.9584       2083.6034         43.9004         41.4004
  21656992.9034   21656993.3064   21656996.7554  -16940630.52047 -13162055.36647
      3010.4164       2345.7704         46.9004         43.9004
 10  1  5  0  9  0.0000000  0  7G28G15G 8G27G18G17G 9
  22094508.3944   22094507.0074   22094509.9344  -12546228.14047  -9759247.23447
     -2062.1794      -1606.8884         47.7004         44.7004
  20517280.6634   20517280.9934   20517283.6904  -20685639.09848 -16097117.73148
      -649.4904       -506.0984         51.7004         48.9004
  24133029.9374   24133029.5124   24133034.6734   -2874601.10346  -2216784.88845
     -3284.9414      -2559.6944         36.3004         34.8004
  21722960.3384   21722959.8664   21722963.6214  -15787973.47148 -11857606.94747
      1729.3614       1347.5574         48.2004         45.2004
  22972499.2224   22972500.2534   22972502.6744   -6248436.60847  -4852128.74446
       863.2934        672.7064         42.5004         39.9004
  23241545.6124   23241545.3454   23241548.3834   -7985688.39647  -6201866.95646
      2662.8624       2074.9494         44.1004         41.2004
  21639833.2104   21639832.9794   21639837.7414  -17030805.54047 -13232321.60547
      3001.2524       2338.6344         46.9004         43.9004
 10  1  5  0  9 30.0000000  0  7G28G15G 8G27G18G17G 9
  22106314.3044   22106313.7384   22106316.4254  -12484184.27847  -9710901.37247
     -2074.0864      -1616.1664         47.7004         44.7004
  20521038.9444   20521039.2434   20521042.1284  -20665888.19448 -16081727.42348
      -667.2314       -519.9204         51.5004         48.7004
  24151788.6944   24151787.6294   24151796.7284   -2776009.17446  -2139960.01945
     -3288.1484      -2562.1924         36.3004         34.3004
  21713107.9414   21713108.2554   21713112.6244  -15839741.37848 -11897945.57047
      1721.8204       1341.6824         48.2004         45.2004
  22967624.9284   22967624.9014   22967628.0274   -6274054.18247  -4872090.48846
       844.5024        658.0394         42.7004         40.2004
  23226373.7534   23226374.8434   23226377.9314   -8065406.83347  -6263985.20346
      2651.6764       2066.2404         43.9004         40.9004
  21622726.7084   21622726.0994   21622730.8734  -17120705.31547 -13302373.36447
      2992.0684       2331.4834         47.0004         44.0004
 10  1  5  0 10  0.0000000  0  7G28G15G 8G27G18G17G 9
  22118187.8514   22118187.5384   22118190.4264  -12421784.50547  -9662278.16447
     -2085.8984      -1625.3754         47.5004         44.5004
  20524898.9224   20524899.2124   20524902.0604  -20645605.02648 -16065922.36848
      -684.9794       -533.7484         51.5004         48.9004
  24170571.8204   24170569.6984   24170573.1954   -2677321.26045  -2063060.41245
     -3291.3124      -2564.6544         35.7004         34.0004
  21703300.9824   21703300.2064   21703304.6514  -15891283.48948 -11938108.24947
      1714.3054       1335.8184         48.2004         45.2004
  22962857.0614   22962857.0804   22962860.4714   -6299108.71847  -4891613.51646
       825.7744        643.4564         42.7004         39.9004
  23211268.7384   23211268.8354   23211273.1224   -8144788.85547  -6325841.32746
      2640.4094       2057.4644         43.9004         41.2004
  21605671.1844   21605671.6104   21605675.5034  -17210328.40647 -13372209.51947
      2982.7994       2324.2584         47.0004         44.0004
 10  1  5  0 10 30.0000000  0  7G28G15G 8G27G18G17G 9
  22130130.2694   22130129.3584   22130131.6834  -12359030.77347  -9613379.14347
     -2097.6794      -1634.5504         47.5004         44.4004
  20528859.9264   20528860.1254   20528863.1344  -20624789.73048 -16049702.67048
      -702.7374       -547.5854         51.5004         48.7004
  24189367.6214   24189367.3024   24189370.0244   -2578538.49245  -1986086.81845
     -3294.4804      -2567.1294         35.4004         33.6004
  21693535.9214   21693535.5044   21693539.2834  -15942599.23248 -11978094.54147
      1706.7434       1329.9284         48.2004         45.2004
  22958197.6074   22958196.8124   22958201.2314   -6323599.36247  -4910697.13746
       806.9414        628.7864         42.7004         39.9004
  23196228.2704   23196228.6704   23196231.6234   -8223831.47447  -6387432.95746
      2629.0434       2048.6024         44.1004         41.4004
  21588670.0994   21588669.7824   21588673.1064  -17299673.23047 -13441828.85147
      2973.5054       2317.0124         47.0004         44.2004
 10  1  5  0 11  0.0000000  0  7G28G15G 8G27G18G17G 9
  22142138.2124   22142138.2484   22142141.1064  -12295924.89747  -9564205.74747
     -2109.3764      -1643.6734         47.4004         44.4004
  20532921.3714   20532922.0894   20532925.3684  -20603442.18248 -16033068.23248
      -720.4514       -561.3904         51.5004         48.5004
  24208183.1524   24208183.5294   24208186.3114   -2479661.49845  -1909039.82745
     -3297.4014      -2569.3904         34.7004         33.1004
  21683813.9204   21683813.7454   21683817.4464  -15993688.22048 -12017904.13647
      1699.1574       1324.0104         48.4004         45.4004
  22953643.8134   22953644.4324   22953646.6684   -6347525.32247  -4929340.76946
       788.1024        614.1254         42.7004         40.2004
  23181250.6794   23181251.9034   23181254.4684   -8302531.84347  -6448757.91146
      2617.6124       2039.6944         43.9004         40.7004
  21571721.0434   21571721.1644   21571725.1264  -17388738.11447 -13511230.05747
      2964.1344       2309.7124         47.2004         44.4004
 10  1  5  0 11 30.0000000  0  7G28G15G 8G27G18G17G 9
  22154215.0744   22154213.7584   22154215.7404  -12232468.90547  -9514759.51247
     -2121.0164      -1652.7374         47.5004         44.5004
  20537086.1804   20537086.2104   20537088.8404  -20581562.69348 -16016019.29448
      -738.2044       -575.2244         51.5004         48.7004
  24227017.8314   24227014.4394   24227020.8994   -2380691.44745  -1831920.27345
     -3300.6264      -2571.9144         34.9004         33.4004
  21674135.0984   21674134.9784   21674138.5544  -16044549.79948 -12057536.53647
      1691.5704       1318.1084         48.4004         45.4004
  22949199.2344   22949198.9224   22949199.6484   -6370886.21747  -4947544.07046
       769.2264        599.4124         42.9004         40.4004
  23166341.7074   23166340.3674   23166342.8304   -8380887.22947  -6509814.02946
      2606.0304       2030.6744         43.7004         40.9004
  21554826.7344   21554826.4034   21554830.3034  -17477521.45647 -13580411.87647
      2954.7174       2302.3774         47.5004         44.7004
 10  1  5  0 12  0.0000000  0  7G28G15G 8G27G18G17G 9
  22166355.4374   22166354.8524   22166357.6004  -12168664.45547  -9465041.75747
     -2132.6184      -1661.7754         47.4004         44.2004
  20541350.7794   20541350.8914   20541353.9184  -20559151.12248 -15998555.74548
      -755.9264       -589.0314         51.5004         48.7004
  24245864.3094   24245865.1254   24245869.9264   -2281629.44845  -1754729.10045
     -3303.7354      -2574.3434         34.9004         33.4004
  21664500.1044   21664499.4864   21664503.2854  -16095183.71348 -12096991.52647
      1683.9934       1312.2014         48.4004         45.4004
  22944860.3914   22944860.3014   22944862.0804   -6393680.97847  -4965306.24346
       750.3734        584.7204         42.7004         39.9004
  23151497.1904   23151497.1514   23151499.1654   -8458894.76747  -6570599.11946
      2594.4084       2021.6204         43.7004         41.1004
  21537984.7714   21537985.0344   21537989.5114  -17566021.78347 -13649373.17047
      2945.2634       2295.0154         47.5004         44.7004
 10  1  5  0 12 30.0000000  0  7G28G15G 8G27G18G17G 9
  22178562.7194   22178562.5874   22178565.9764  -12104513.44747  -9415053.95847
     -2144.1144      -1670.7354         47.2004         44.4004
  20545716.6954   20545716.9104   20545719.9854  -20536207.66148 -15980677.72948
      -773.6494       -602.8464         51.5004         48.5004
  24264736.0364   24264735.3974   24264739.2674   -2182476.42345  -1677466.97845
     -3306.5854      -2576.5604         35.0004         33.6004
  21654907.8564   21654907.5914   21654911.9764  -16145589.38448 -12136268.67447
      1676.3844       1306.2704         48.4004         45.4004
  22940631.3474   22940630.1134   22940631.9414   -6415908.64947  -4982626.48346
       731.4424        569.9484         42.5004         39.7004
  23136719.2244   23136719.3084   23136722.4614   -8536551.83847  -6631111.12446
      2582.6934       2012.4954         43.7004         40.9004
  21521197.9434   21521197.9424   21521202.3514  -17654237.62847 -13718112.78747
      2935.7654       2287.6114         47.7004         44.7004
 10  1  5  0 13  0.0000000  0  7G28G15G 8G27G18G17G 9
  22190835.9994   22190835.3074   22190838.7814  -12040017.88847  -9364797.67947
     -2155.5524      -1679.6444         47.4004         44.5004
  20550183.7474   20550183.7744   20550187.4884  -20512732.61548 -15962385.49948
      -791.3604       -616.6454         51.4004         48.5004
  24283623.7884   24283622.7684   24283626.0774   -2083233.22046  -1600134.64945
     -3309.6624      -2578.9564         37.0004         35.5004
  21645359.9574   21645359.5564   21645363.4654  -16195766.32748 -12175367.58547
      1668.7504       1300.3254         48.4004         45.4004
  22936509.1934   22936509.3484   22936512.7624   -6437568.84247  -4999504.55746
       712.5494        555.2284         42.7004         40.2004
  23122007.7254   23122008.0874   23122012.6224   -8613855.55347  -6691347.76246
      2570.8404       2003.2314         43.9004         41.1004
  21504465.6694   21504465.3474   21504470.3584  -17742167.14347 -13786629.27547
      2926.2004       2280.1494         47.7004         44.5004
 10  1  5  0 13 30.0000000  0  7G28G15G 8G27G18G17G 9
  22203173.8034   22203173.6354   22203176.6734  -11975179.88347  -9314274.56447
     -2166.9714      -1688.5584         47.4004         44.2004
  20554751.7294   20554752.1814   20554755.4624  -20488726.25148 -15943679.25048
      -809.0814       -630.4524         51.4004         48.5004
  24302523.4204   24302520.0344   24302527.2994   -1983900.94646  -1522732.96445
     -3312.4934      -2581.1604         36.8004         34.5004
  21635854.6954   21635854.5004   21635858.4604  -16245714.08548 -12214287.90747
      1661.1004       1294.3614         48.4004         45.4004
  22932494.1504   22932494.9124   22932497.2294   -6458661.22147  -5015940.19546
       693.5704        540.4414         43.0004         40.4004
  23107367.0094   23107367.2014   23107369.5164   -8690802.96447  -6751306.77346
      2558.9684       1994.0034         44.1004         41.4004
  21487788.0824   21487787.7904   21487792.0584  -17829809.03547 -13854921.64247
      2916.5874       2272.6594         47.5004         44.5004
 10  1  5  0 14  0.0000000  0  7G28G15G 8G27G18G17G 9
  22215576.7374   22215577.0324   22215580.3464  -11910001.19047  -9263485.97647
     -2178.2704      -1697.3604         47.2004         44.4004
  20559421.2504   20559421.3494   20559424.5464  -20464188.45148 -15924558.89548
      -826.7794       -644.2424         51.4004         48.5004
  24321433.1574   24321437.5194   24321447.7974   -1884480.10355  -1445262.21955
     -3315.5314      -2583.5274         35.0004         33.1004
  21626393.6874   21626393.4984   21626397.4414  -16295432.25948 -12253029.34147
      1653.4304       1288.3794         48.4004         45.4004
  22928589.4004   22928589.3514   22928593.0064   -6479184.80747  -5031932.60946
       674.6444        525.6944         42.9004         40.0004
  23092790.2494   23092790.9794   23092795.2044   -8767391.50047  -6810986.13846
      2546.9414       1984.6464         43.9004         41.1004
  21471165.4994   21471165.4924   21471169.1574  -17917161.85447 -13922988.76247
      2906.9024       2265.1164         47.4004         44.4004
 10  1  5  0 14 30.0000000  0  7G28G15G 8G27G18G17G 9
  22228044.6904   22228044.4614   22228047.1034  -11844483.73947  -9212433.40647
     -2189.5484      -1706.1444         47.2004         44.0004
  20564191.7004   20564191.6954   20564195.3994  -20439119.54948 -15905024.70248
      -844.4924       -658.0474         51.4004         48.5004
  24340382.6514   24340382.6684   24340381.8174   -1784972.39545  -1367723.78345
     -3318.3454      -2585.7184         34.3004         33.1004
  21616976.7384   21616976.0164   21616979.6364  -16344920.44848 -12291591.55247
      1645.7604       1282.4074         48.2004         45.2004
  22924792.8034   22924791.0764   22924795.2264   -6499138.91247  -5047481.27946
       655.6404        510.8934         42.3004         39.5004
  23078285.8214   23078286.1094   23078290.1534   -8843618.61247  -6870383.87846
      2534.8504       1975.1994         44.1004         41.4004
  21454598.2224   21454598.2894   21454601.1434  -18004223.58247 -13990829.06947
      2897.1914       2257.5494         47.4004         44.2004
 10  1  5  0 15  0.0000000  0  7G28G15G 8G27G18G17G 9
  22240576.6764   22240576.3944   22240579.2464  -11778629.47847  -9161118.39347
     -2200.7394      -1714.8524         47.0004         44.2004
  20569063.1514   20569063.4544   20569066.8074  -20413519.56248 -15885076.67148
      -862.1984       -671.8354         51.4004         48.4004
  24359336.0724   24359333.8604   24359336.4974   -1685377.87345  -1290117.69745
     -3321.3124      -2588.0244         34.0004         32.9004
  21607602.9674   21607602.6964   21607606.7404  -16394178.15148 -12329974.17247
      1638.0584       1276.4064         48.4004         45.4004
  22921103.4884   22921102.4684   22921106.1314   -6518523.02847  -5062585.78646
       636.6384        496.0704         42.3004         39.7004
  23063848.8154   23063850.1114   23063853.0034   -8919481.24547  -6929497.60446
      2522.6584       1965.7184         44.1004         41.2004
  21438086.7864   21438086.8254   21438090.5124  -18090992.64147 -14058441.32047
      2887.4064       2249.9264         47.4004         44.5004
 10  1  5  0 15 30.0000000  0  7G28G15G 8G27G18G17G 9
  22253171.9994   22253171.2184   22253174.9944  -11712440.35047  -9109542.46247
     -2211.8494      -1723.5224         47.0004         43.9004
  20574035.8764   20574035.8504   20574039.3604  -20387388.98248 -15864715.19148
      -879.8614       -685.6074         51.2004         48.4004
  24378300.8304   24378301.5784   24378304.3184   -1585697.85645  -1212445.13245
     -3324.0454      -2590.1754         34.3004         33.3004
  21598272.3894   21598272.6634   21598277.5154  -16443204.97148 -12368176.87947
      1630.3664       1270.4104         48.4004         45.4004
  22917523.9044   22917524.4154   22917526.3424   -6537336.49047  -5077245.65646
       617.5964        481.2544         42.7004         39.9004
  23049484.5884   23049483.5204   23049486.8674   -8994976.98547  -6988325.44446
      2510.3454       1956.1234         44.2004         41.6004
  21421630.3584   21421630.7184   21421634.3314  -18177467.90247 -14125824.63447
      2877.5884       2242.2744         47.5004         44.4004
 10  1  5  0 16  0.0000000  0  7G28G15G 8G27G18G17G 9
  22265830.3764   22265830.1334   22265833.3464  -11645918.34947  -9057707.15347
     -2222.9314      -1732.1524         46.9004         43.9004
  20579109.0534   20579109.5654   20579112.7554  -20360728.29348 -15843940.64048
      -897.5584       -699.3974         51.2004         48.4004
  24397276.4364   24397280.4964                   -1485933.49355  -1134706.62455
     -3326.9704      -2592.4574         33.0004         31.7004
  21588988.1944   21588987.6214   21588991.7304  -16492000.41748 -12406199.29347
      1622.6464       1264.3944         48.4004         45.6004
  22914052.6704   22914052.0804   22914054.4594   -6555578.90247  -5091460.53246
       598.5664        466.4154         42.5004         39.9004
  23035186.7984   23035187.1624   23035190.4694   -9070102.53847  -7046864.82346
      2497.9764       1946.4704         44.1004         41.2004
  21405232.3934   21405231.7284   21405235.1644  -18263647.76147 -14192977.76247
      2867.7104       2234.5834         47.5004         44.7004
 10  1  5  0 16 30.0000000  0  7G28G15G 8G27G18G17G 9
  22278551.7524   22278551.3324   22278555.5544  -11579065.22247  -9005613.79647
     -2233.9384      -1740.7224         46.9004         43.9004
  20584283.7514   20584283.6434   20584286.9264  -20333537.06348 -15822752.68148
      -915.2274       -713.1634         51.2004         48.4004
  24416291.3254   24416283.5274   24416289.8674   -1386085.82745  -1056903.18545
     -3329.7464      -2594.6114         32.1004         31.7004
  21579747.3404   21579746.5634   21579750.3914  -16540564.06248 -12444041.10047
      1614.9144       1258.3724         48.6004         45.6004
  22910691.3494   22910690.3874   22910692.9134   -6573249.52947  -5105229.85846
       579.4574        451.5174         42.7004         40.2004
  23020962.4904   23020963.3324   23020966.0974   -9144855.46647  -7105113.83746
      2485.5284       1936.7804         44.2004         41.4004
  21388888.4704   21388888.8484   21388892.2244  -18349530.44447 -14259899.32447
      2857.7924       2226.8544         47.7004         44.9004
 10  1  5  0 17  0.0000000  0  7G28G15G 8G27G18G17G 9
  22291336.3774   22291335.1134   22291340.0954  -11511882.74447  -8953263.82247
     -2244.8834      -1749.2654         46.7004         43.7004
  20589558.3074   20589558.9924   20589562.2374  -20305815.91248 -15801151.80348
      -932.8654       -726.9124         51.2004         48.4004
  24435297.1874                   24435303.2944   -1286155.46045   -979035.47945
     -3332.5054      -2596.7524         32.3004         32.0004
  21570549.1414   21570549.1684   21570553.2794  -16588895.31448 -12481701.80847
      1607.1594       1252.3324         48.6004         45.6004
  22907437.2944   22907435.6654   22907437.6414   -6590348.12747  -5118553.45646
       560.4724        436.7184         42.9004         40.0004
  23006809.2784   23006809.8734   23006811.9364   -9219233.22247  -7163070.52146
      2472.9474       1926.9554         44.4004         41.6004
  21372602.2814   21372602.2134   21372606.4474  -18435114.42947 -14326588.14547
      2847.7934       2219.0564         47.9004         44.9004
 10  1  5  0 17 30.0000000  0  7G28G15G 8G27G18G17G 9
  22304182.2324   22304182.2544   22304186.5714  -11444373.23147  -8900658.99947
     -2255.7444      -1757.7304         46.7004         43.7004
  20594934.6454   20594934.7544   20594938.1164  -20277565.12648 -15779138.20248
      -950.5274       -740.6744         51.2004         48.4004
  24454333.8474   24454325.9394                   -1186143.57745   -901104.10545
     -3335.1694      -2598.8464         31.9004         31.5004
  21561396.4644   21561396.4784   21561400.8344  -16636993.67848 -12519181.05047
      1599.3764       1246.2624         48.6004         45.8004
  22904292.7504   22904291.8544   22904294.7154   -6606874.06947  -5131430.82046
       541.3094        421.8024         42.9004         40.2004
  22992726.4004   22992727.6884   22992730.5704   -9293232.82547  -7220732.53846
      2460.3214       1917.1294         44.2004         41.4004
  21356373.3394   21356373.0434   21356377.5044  -18520398.03847 -14393042.89147
      2837.7344       2211.2294         47.9004         44.9004
 10  1  5  0 18  0.0000000  0  7G28G15G 8G27G18G17G 9
  22317091.6414   22317090.8864   22317095.5254  -11376538.52747  -8847800.79847
     -2266.5474      -1766.1454         46.7004         43.9004
  20600411.6224   20600411.6674   20600414.8474  -20248785.08948 -15756712.21448
      -968.1544       -754.4064         51.2004         48.4004
  24473379.5194                                   -1086050.92645   -823109.84045
     -3337.9134      -2600.9564         31.9004         31.3004
  21552288.5724   21552288.3754   21552292.3784  -16684858.55548 -12556478.35447
      1591.5874       1240.1984         48.8004         45.8004
  22901256.9284   22901255.8624   22901258.6904   -6622826.65447  -5143861.42346
       522.1894        406.9044         43.0004         40.2004
  22978718.1444   22978718.6624   22978720.5814   -9366851.76747  -7278097.92946
      2447.5884       1907.1984         44.1004         41.2004
  21340202.3684   21340202.0474   21340205.8694  -18605379.79447 -14459262.42647
      2827.6634       2203.3664         47.9004         44.7004
 10  1  5  0 18 30.0000000  0  8G22G28G15G 8G27G18G17G 9
                                  24519462.416     -205428.08445    -99949.420 3
      2174.0294       1703.731          31.2004         21.300
  22330061.0884   22330060.6834   22330065.4214  -11308380.72647  -8794690.82447
     -2277.3044      -1774.5204         46.5004         43.5004
  20605988.4804   20605988.6534   20605991.8744  -20219476.34548 -15733874.23548
      -985.7654       -768.1294         51.2004         48.2004
  24492439.3174                                    -985878.93145   -745053.81445
     -3340.3274      -2602.8484         31.6004         31.2004
  21543224.6654   21543223.9164   21543228.5934  -16732489.71648 -12593593.53347
      1583.8054       1234.1314         48.8004         45.9004
  22898330.3564   22898330.2204   22898333.2664   -6638205.78447  -5155845.16846
       503.0844        392.0004         43.4004         40.9004
  22964781.4914   22964781.9854   22964785.0494   -9440087.45747  -7335164.70946
      2434.7804       1897.2384         43.9004         41.1004
  21324087.7074   21324087.6954   21324092.2334  -18690058.38047 -14525245.72947
      2817.5474       2195.4924         47.9004         44.9004
 10  1  5  0 19  0.0000000  0  8G22G28G15G 8G27G18G17G 9
                                  24496883.798      -37000.85044     -8054.427
      2159.7854       1684.140          26.4004          1.500
  22343093.1864   22343092.3344   22343095.9824  -11239901.57647  -8741330.45347
     -2287.9794      -1782.8334         46.5004         43.7004
  20611666.0414   20611666.5704   20611669.7054  -20189638.94048 -15710624.31448
     -1003.3904       -781.8644         51.0004         48.0004
  24511512.1644                                    -885627.88854     29378.78053
     -3343.1184      -2605.0284         26.4004         23.4004
  21534204.9954   21534204.8184   21534209.4324  -16779886.90948 -12630526.39947
      1575.9904       1228.0454         48.9004         45.9004
  22895513.0684   22895511.5734   22895515.0184   -6653010.95847  -5167381.68646
       483.9364        377.1144         43.4004         40.6004
  22950919.1864   22950919.1554   22950922.9864   -9512937.17947  -7391930.72746
      2421.8594       1887.1524         44.2004         41.6004
  21308032.4024   21308031.7914   21308036.3144  -18774432.25047 -14590991.59147
      2807.3724       2187.5614         47.9004         44.9004
 10  1  5  0 19 30.0000000  0  7G22G28G15G27G18G17G 9
  24483187.4314                                    -101576.00744    -64266.13344
      2145.2804       1671.7384         26.4004         27.7004
  22356184.9324   22356184.2864   22356187.3154  -11171102.99947  -8687721.17747
     -2298.5904      -1791.1174         46.5004         43.3004
  20617444.3824   20617444.7784   20617448.4164  -20159273.51348 -15686962.93648
     -1020.9914       -795.5794         51.0004         48.2004
  21525230.0094   21525229.9554   21525234.0444  -16827049.68448 -12667276.61447
      1568.1814       1221.9614         48.8004         45.8004
  22892804.0934   22892803.3354   22892807.3904   -6667241.83747  -5178470.67646
       464.7834        362.1534         43.2004         40.2004
  22937127.3104   22937128.8164   22937133.6764   -9585398.27647  -7448393.91346
      2408.8544       1877.0174         44.2004         41.4004
  21292035.0914   21292034.8604   21292038.8304  -18858499.57347 -14656498.57747
      2797.1034       2179.5624         47.9004         45.1004
 10  1  5  0 20  0.0000000  0  7G22G28G15G27G18G17G 9
                                  24481935.694     -165718.83644    -69279.698 1
      2130.9344       1670.652          26.4004          8.800
  22369337.5284   22369337.1094   22369339.9714  -11101987.30247  -8633864.78447
     -2309.1444      -1799.3374         46.3004         43.5004
  20623323.0934   20623323.5444   20623327.0734  -20128380.14848 -15662890.17348
     -1038.5644       -809.2704         51.0004         48.2004
  21516299.8244   21516300.1034   21516304.0284  -16873977.16048 -12703843.47547
      1560.3194       1215.8304         48.8004         45.8004
  22890206.2704   22890204.9854   22890208.7304   -6680897.70247  -5189111.61246
       445.6424        347.2384         43.2004         40.4004
  22923415.6214   22923414.6394   22923420.0674   -9657467.97447  -7504552.10346
      2395.7564       1866.8244         44.6004         41.9004
  21276095.3224   21276095.5214   21276099.4824  -18942258.68148 -14721765.38947
      2786.8084       2171.5354         48.1004         45.1004
 10  1  5  0 20 30.0000000  0  7G22G28G15G27G18G17G 9
  24458852.7944                                    -229427.79844     -9496.87043
      2116.3974       1649.1394         26.4004         23.4004
  22382550.9484   22382549.4674   22382551.6414  -11032556.06447  -8579762.53847
     -2319.6054      -1807.4864         46.5004         43.5004
  20629302.4464   20629302.4274   20629305.9704  -20096959.41048 -15638406.48548
     -1056.1244       -822.9574         50.8004         48.0004
  21507415.4314   21507414.7264   21507419.1204  -16920668.87948 -12740226.63247
      1552.4574       1209.7084         48.8004         45.8004
  22887717.0974   22887717.4474   22887719.1764   -6693978.66547  -5199304.57946
       426.4424        332.2884         43.4004         40.7004
  22909775.2694   22909776.1184   22909780.5254   -9729143.63647  -7560403.24646
      2382.5854       1856.5624         44.6004         41.9004
  21260215.7604   21260216.0684   21260219.7874  -19025708.03548 -14786790.84947
      2776.4614       2163.4804         48.1004         45.1004
 10  1  5  0 21  0.0000000  0  8G22G12G28G15G27G18G17G 9
  24446815.2834                                    -292700.52844    -58799.77445
      2101.8444       1637.7914         26.4004         35.7004
                                  24965230.317      -89917.62044    -37917.517
      3809.8084       2968.806          26.4004          1.500
  22395822.0024   22395821.4614   22395822.9554  -10962810.93447  -8525415.68147
     -2330.0554      -1815.6264         46.2004         43.2004
  20635381.4144   20635381.9244   20635385.6594  -20065011.53248 -15613512.02748
     -1073.7044       -836.6514         50.8004         48.0004
  21498575.1194   21498574.8474   21498578.8194  -16967124.65048 -12776425.94047
      1544.5804       1203.5664         48.8004         45.9004
  22885336.0564   22885335.9064   22885340.4714   -6706484.21147  -5209049.16646
       407.2414        317.3384         43.6004         40.9004
  22896212.3964   22896212.4644   22896214.9444   -9800422.69747  -7615945.34946
      2369.3404       1846.2294         44.8004         41.9004
  21244395.5824   21244395.1054   21244399.2564  -19108846.38748 -14851573.95547
      2766.0804       2155.3894         48.1004         45.1004
 10  1  5  0 21 30.0000000  0  8G22G12G28G15G27G18G17G 9
  24434857.4254                                    -355534.81644   -107761.64446
      2087.1824       1626.3794         26.4004         36.2004
                                  24956037.058     -204173.59644    -75022.355
      3807.2094       2969.044          26.4004          1.500
  22409153.4784   22409153.2554   22409155.5114  -10892754.24247  -8470826.04847
     -2340.3984      -1823.6874         46.3004         43.3004
  20641563.3094   20641562.4834   20641565.5024  -20032537.36248 -15588207.47348
     -1091.2544       -850.3274         50.8004         48.0004
  21489779.3554   21489779.3314   21489783.6744  -17013343.63948 -12812440.72747
      1536.6784       1197.4084         48.9004         45.9004
  22883066.7894   22883065.1114   22883068.9884   -6718413.95447  -5218345.07846
       388.0384        302.3614         43.4004         40.4004
  22882724.5034   22882724.7434   22882728.9304   -9871302.38447  -7671176.27347
      2355.9444       1835.8094         45.1004         42.3004
  21228634.7984   21228634.2654   21228637.8124  -19191671.88348 -14916113.29547
      2755.6174       2147.2344         48.1004         45.1004
 10  1  5  0 22  0.0000000  0  8G22G12G28G15G27G18G17G 9
  24422984.8814                   24422985.2884    -417928.87146   -156380.44945
      2072.4504       1614.9004         36.4004         35.9004
  24920539.0514                                    -318349.82144   -220374.85445
      3804.5064       2964.6314         26.4004         30.1004
  22422543.1904   22422542.7954   22422545.9374  -10822387.90747  -8415995.14247
     -2350.7074      -1831.7234         46.3004         43.3004
  20647841.4524   20647841.6334   20647845.4354  -19999537.09348 -15562492.98248
     -1108.7814       -863.9884         50.8004         48.0004
  21481028.9144   21481029.2374   21481033.6914  -17059325.30948 -12848270.58747
      1528.7494       1191.2374         48.9004         45.9004
  22880906.6514   22880904.9774   22880908.0404   -6729767.80947  -5227192.22046
       368.8454        287.3874         43.0004         40.0004
  22869312.6114   22869312.2714   22869316.2014   -9941780.31547  -7726094.12447
      2342.5574       1825.3784         45.3004         42.3004
  21212932.7254   21212932.8154   21212936.7344  -19274182.98548 -14980407.64947
      2745.0994       2139.0314         48.1004         45.2004
 10  1  5  0 22 30.0000000  0  8G22G12G28G15G27G18G17G 9
  24411197.7114   24411196.2374   24411197.7334    -479880.52846   -204654.42846
      2057.6764       1603.3864         38.3004         36.4004
  24898826.150
                                       -24.200         -24.200
  22435992.4694   22435992.1114   22435994.7974  -10751713.90347  -8360924.50247
     -2360.9244      -1839.6794         46.2004         43.3004
  20654221.3694   20654221.5194   20654225.0034  -19966010.97648 -15536368.72847
     -1126.2784       -877.6224         50.8004         47.8004
  21472325.1124   21472325.0364   21472328.9104  -17105069.37348 -12883915.30947
      1520.8264       1185.0564         48.9004         45.9004
  22878854.8024   22878854.3034   22878857.8824   -6740545.47347  -5235590.40646
       349.6394        272.4434         43.0004         40.0004
  22855977.7104   22855978.5264   22855982.1674  -10011853.67547  -7780696.74047
      2328.9884       1814.7914         45.1004         42.3004
  21197291.9694   21197291.8104   21197295.2754  -19356378.02448 -15044455.72347
      2734.5684       2130.8274         48.1004         45.1004
 10  1  5  0 23  0.0000000  0  8G22G12G28G15G27G18G17G 9
  24399491.0414   24399491.3084   24399494.3644    -541387.78756   -252582.15556
      2042.7444       1591.7494         38.9004         36.4004
  24877130.3654                                    -159087.50944    -77775.89842
      3798.9054       2960.2704         26.4004         15.2004
  22449499.0584   22449499.3604   22449501.9514  -10680734.11147  -8305615.57547
     -2371.0674      -1847.5864         46.3004         43.3004
  20660701.0234   20660701.2014   20660704.2144  -19931960.03848 -15509835.53847
     -1143.7874       -891.2644         50.7004         47.7004
  21463665.4684   21463665.2824   21463669.2894  -17150575.39548 -12919374.54747
      1512.8914       1178.8834         48.9004         45.9004
  22876914.0194   22876913.7854   22876915.6314   -6750746.52947  -5243539.29546
       330.4254        257.4734         43.0004         40.4004
  22842721.1004   22842721.9144   22842725.2114  -10081520.07547  -7834982.22647
      2315.3714       1804.1944         45.1004         42.3004
  21181710.9264   21181711.1034   21181714.7714  -19438255.52748 -15108256.35847
      2723.9694       2122.5804         48.1004         45.1004
 10  1  5  0 23 30.0000000  0  8G22G12G28G15G27G18G17G 9
  24387870.9204   24387871.3904   24387873.4684    -602448.99446   -300162.33046
      2027.9374       1580.2114         38.5004         36.4004
                                  24856537.532     -273013.30444   -162112.671 3
      3796.0634       2957.494          26.4004         23.700
  22463063.6804   22463063.9564   22463066.3594  -10609450.48847  -8250069.89447
     -2381.1604      -1855.4504         46.2004         43.0004
  20667280.2804   20667280.4464   20667284.2134  -19897384.10548 -15482893.25747
     -1161.2794       -904.8914         50.7004         47.7004
  21455051.7504   21455051.1264   21455054.7184  -17195842.80748 -12954647.85847
      1504.9224       1172.6584         48.9004         45.9004
  22875082.5734   22875082.5034   22875085.9474   -6760370.76647  -5251038.70646
       311.1654        242.4654         42.9004         40.0004
  22829542.3754   22829542.2024   22829546.4054  -10150776.70247  -7888948.41447
      2301.6904       1793.5274         45.5004         42.6004
  21166190.7314   21166190.9144   21166194.6934  -19519813.74348 -15171808.21347
      2713.2504       2114.2244         48.1004         45.1004
 10  1  5  0 24  0.0000000  0  8G22G12G28G15G27G18G17G 9
  24376339.0064   24376338.1704   24376340.6614    -663062.10546   -347393.32646
      2012.9684       1568.5484         39.9004         37.9004
  24833786.0594                   24833791.2324    -386852.32045   -255255.32045
      3793.0784       2955.6454         34.5004         35.7004
  22476686.5564   22476685.4754   22476689.4084  -10537864.95247  -8194288.95347
     -2391.2044      -1863.2824         46.0004         43.0004
  20673960.1994   20673960.2524   20673963.5624  -19862284.28648 -15455542.75547
     -1178.7334       -918.4924         50.7004         47.8004
  21446482.3164   21446482.3814   21446486.5164  -17240871.29748 -12989734.99047
      1496.9624       1166.4654         48.8004         45.8004
  22873360.1644   22873360.0254   22873362.3464   -6769418.18947  -5258088.67446
       291.9574        227.5044         42.7004         39.9004
  22816440.9464   22816440.3004   22816443.6994  -10219620.95447  -7942593.27947
      2287.9314       1782.8154         45.5004         42.3004
  21150731.8094   21150731.1914   21150735.9194  -19601051.20348 -15235110.11547
      2702.5484       2105.8924         48.2004         45.2004
 10  1  5  0 24 30.0000000  0  8G22G12G28G15G27G18G17G 9
  24364887.4304   24364889.0144   24364890.7334    -723224.68046   -394273.26146
      1997.8594       1556.7744         39.7004         36.9004
  24812143.5954   24812141.3414   24812146.5834    -500602.37946   -343891.69445
      3790.1694       2953.3744         37.3004         35.7004
  22490365.2764   22490365.4294   22490368.3094  -10465979.51747  -8138274.33947
     -2401.1464      -1871.0244         45.8004         42.6004
  20680738.5194   20680738.6734   20680741.8894  -19826661.07348 -15427784.41247
     -1196.1644       -932.0774         50.5004         47.7004
  21437959.3734   21437959.4174   21437963.2814  -17285660.28348 -13024635.50047
      1488.9674       1160.2324         48.8004         45.9004
  22871750.5124   22871749.1664   22871751.3524   -6777888.64247  -5264689.04546
       272.7144        212.4884         42.7004         40.2004
  22803419.7264   22803419.9394   22803422.5914  -10288050.69347  -7995915.13547
      2274.0384       1771.9744         45.3004         42.5004
  21135334.0074   21135333.9454   21135337.5684  -19681966.47748 -15298160.97447
      2691.7824       2097.4894         48.2004         45.4004
 10  1  5  0 25  0.0000000  0  8G22G12G28G15G27G18G17G 9
  24353526.7684   24353525.9414   24353527.6404    -782935.56646   -440801.24446
      1982.7494       1545.0044         39.0004         36.4004
  24790515.1604   24790512.4944   24790515.3894    -614262.00446   -432457.57345
      3787.0644       2950.9574         37.6004         35.3004
  22504101.2654   22504100.5314   22504103.7164  -10393796.26947  -8082027.65447
     -2411.0704      -1878.7444         45.6004         42.6004
  20687617.0354   20687617.2804   20687620.6854  -19790514.87248 -15399618.54447
     -1213.5904       -945.6514         50.5004         47.5004
  21429482.3044   21429481.9074   21429486.0594  -17330209.18248 -13059348.92947
      1480.9474       1153.9824         48.9004         45.9004
  22870244.5834   22870245.2324   22870249.0734   -6785781.99247  -5270839.72146
       253.4914        197.5534         42.5004         39.9004
  22790477.7644   22790476.5724   22790480.3414  -10356063.32547  -8048911.97547
      2260.0964       1761.1114         45.3004         42.3004
  21119998.3604   21119998.3674   21120002.0574  -19762558.15548 -15360959.68347
      2680.9734       2089.0674         48.6004         45.6004
 10  1  5  0 25 30.0000000  0  8G22G12G28G15G27G18G17G 9
  24342252.4004   24342250.9864   24342252.5984    -842192.40646   -486975.42146
      1967.6934       1533.2734         38.5004         36.0004
  24768899.5614   24768900.0744   24768904.3674    -727828.95046   -520951.26445
      3784.0044       2948.5724         37.3004         35.2004
  22517894.1084   22517893.3204   22517896.4754  -10321316.65747  -8025550.04747
     -2420.8964      -1886.4204         45.6004         42.6004
  20694595.1754   20694595.4964   20694598.4384  -19753846.12248 -15371045.49747
     -1231.0084       -959.2264         50.5004         47.5004
  21421050.5444   21421050.3184   21421054.7134  -17374517.60348 -13093874.97347
      1472.9134       1147.7214         48.9004         45.9004
  22868854.8604   22868854.3344   22868856.5534   -6793098.03647  -5276540.55046
       234.2294        182.4924         42.3004         39.5004
  22777614.9664   22777614.6554   22777617.6284  -10423655.73447  -8101581.38547
      2246.0524       1750.1784         45.1004         42.1004
  21104724.3224   21104723.8744   21104727.4644  -19842824.28548 -15423504.71047
      2670.0914       2080.5924         48.6004         45.4004
 10  1  5  0 26  0.0000000  0  8G22G12G28G15G27G18G17G 9
  24331061.9714   24331058.9124   24331062.8034    -900993.54946   -532794.47445
      1952.4814       1521.4184         37.6004         35.3004
  24747307.5444   24747308.0864   24747311.8124    -841301.61346   -609371.47445
      3780.8594       2946.1224         37.5004         35.3004
  22531742.5234   22531741.9794   22531745.0654  -10248543.07447  -7968843.35147
     -2430.6624      -1894.0144         45.6004         42.6004
  20701672.3314   20701672.3534   20701675.7144  -19716655.55348 -15342065.84347
     -1248.3804       -972.7634         50.5004         47.7004
  21412664.1704   21412664.1594   21412668.8514  -17418585.12448 -13128213.29847
      1464.8894       1141.4704         48.9004         45.9004
  22867572.0554   22867571.5434   22867574.4214   -6799836.76447  -5281791.51446
       215.0214        167.5614         42.3004         39.5004
  22764831.4524   22764832.6874   22764837.3414  -10490825.71747  -8153921.62347
      2231.9134       1739.1714         45.1004         42.3004
  21089511.9374   21089511.8504   21089516.1094  -19922763.26248 -15485794.81147
      2659.1704       2072.0824         48.6004         45.6004
 10  1  5  0 26 30.0000000  0  8G22G12G28G15G27G18G17G 9
