     2.11           OBSERVATION DATA    G (GPS)             RINEX VERSION / TYPE
teqc  2009Mar23     root                20100104 01:16:03UTCPGM / RUN BY / DATE
Linux 2.4.20-8|Pentium IV|gcc|Linux|486/DX+                 COMMENT
teqc  2009Mar23     root                20100103 01:00:00UTCCOMMENT
BIT 2 OF LLI FLAGS DATA COLLECTED UNDER A/S CONDITION       COMMENT
PTBB                                                        MARKER NAME
14234M001                                                   MARKER NUMBER
Automatic           BKG/GOWettzell+PTB                      OBSERVER / AGENCY
RT820013901         ASHTECH Z-XII3T     1L01-1D04           REC # / TYPE / VERS
CR15930             ASH700936E      SNOW                    ANT # / TYPE
  3844060.0000   709661.2700  5023129.5100                  APPROX POSITION XYZ
        0.0562        0.0000        0.0000                  ANTENNA: DELTA H/E/N
     1     1                                                WAVELENGTH FACT L1/2
     9    C1    P1    P2    L1    L2    D1    D2    S1    S2# / TYPES OF OBSERV
    30.0000                                                 INTERVAL
Forced Modulo Decimation to 30 seconds                      COMMENT
 SNR is mapped to RINEX snr flag value [0-9]                COMMENT
  L1 & L2: min(max(int(snr_dBHz/6), 0), 9)                  COMMENT
pseudorange smoothing corrections not applied               COMMENT
  2010     1     3     0     0    0.0000000     GPS         TIME OF FIRST OBS
                                                            END OF HEADER
 10  1  3  0  0  0.0000000  0  7G18G28G15G17G 9G27G 8
  23204295.2624   23204295.0324   23204297.1264   -5256107.93246  -4081449.39346
      1487.9434       1159.4294         41.6004         39.0004
  21731782.4854   21731782.1224   21731785.3544  -14840183.71848 -11530473.77647
     -1615.5464      -1258.8674         48.8004         45.8004
  20449552.2284   20449552.4694   20449555.6304  -21136958.07148 -16450966.12948
       -45.1944        -35.2164         52.4004         49.4004
  23794065.5714   23794067.4824   23794069.7734   -4630068.68346  -3584220.66946
      2985.5254       2326.3814         41.6004         39.0004
  22262318.1804   22262317.8024   22262323.9334  -14258680.33647 -10804312.74947
      3288.7094       2562.6144         44.9004         42.1004
  22086665.8014   22086665.9094   22086670.0734  -15239548.87747 -11840767.25547
      1978.8044       1541.9264         47.2004         44.2004
  23506301.3014   23506300.9094   23506306.3924   -6091113.25646  -4725386.66446
     -3155.3294      -2458.6964         41.1004         38.5004
 10  1  3  0  0 30.0000000  0  8G 5G18G28G15G17G 9G27G 8
  24728342.0014   24728342.8564   24728348.0804     730336.64046    582090.68345
     -3741.9114      -2915.7754         37.0004         34.8004
  23195850.7744   23195849.4924   23195851.8114   -5300484.89646  -4116028.86146
      1470.5644       1145.8914         41.1004         37.9004
  21741045.2494   21741044.8334   21741048.0354  -14791508.10948 -11492544.74047
     -1629.5104      -1269.7444         48.6004         45.6004
  20449860.1914   20449860.5074   20449863.2944  -21135340.52048 -16449705.70548
       -62.6684        -48.8294         52.2004         49.4004
  23777044.3704   23777045.7694   23777049.5404   -4719517.30147  -3653920.89846
      2977.6454       2320.2684         42.0004         39.3004
  22243565.5744   22243565.5374   22243569.5004  -14357230.24347 -10881104.87347
      3281.3004       2556.8584         44.9004         42.3004
  22075389.2124   22075389.3654   22075393.7254  -15298808.25547 -11886943.38547
      1971.8124       1536.4754         47.2004         44.4004
  23524327.4624   23524327.8664   23524329.3674   -5996387.42246  -4651574.37446
     -3159.7004      -2462.1024         41.1004         38.1004
 10  1  3  0  1  0.0000000  0  8G 5G18G28G15G17G 9G27G 8
  24749705.0894   24749706.0154   24749709.6844     842600.22146    669568.72245
     -3742.3794      -2916.1464         37.0004         35.0004
  23187503.6774   23187504.3074   23187507.9614   -5344338.93446  -4150200.86346
      1453.0644       1132.2654         40.6004         37.9004
  21750387.5314   21750387.1124   21750390.3044  -14742414.01548 -11454289.60347
     -1643.4364      -1280.5964         48.6004         45.6004
  20450267.9834   20450267.8894   20450271.0224  -21133198.61648 -16448036.69648
       -80.1334        -62.4414         52.2004         49.4004
  23760066.6144   23760067.7034   23760072.1544   -4808728.33146  -3723436.00446
      2969.7044       2314.0584         41.8004         38.8004
  22224855.0604   22224854.2264   22224857.9404  -14455556.16447 -10957722.45947
      3273.7564       2550.9704         45.1004         42.1004
  22064153.2234   22064152.4834   22064157.5214  -15357856.65747 -11932955.12747
      1964.7634       1530.9824         47.4004         44.4004
  23542376.3214   23542375.9294   23542381.2414   -5901530.54446  -4577659.94846
     -3164.0804      -2465.5214         40.8004         38.1004
 10  1  3  0  1 30.0000000  0  8G 5G18G28G15G17G 9G27G 8
  24771071.0524   24771071.9104   24771076.5424     954878.08346    757057.94545
     -3742.8304      -2916.4874         37.0004         35.0004
  23179260.1954   23179259.5114   23179262.1584   -5387668.38546  -4183964.09246
      1435.5104       1118.5824         40.6004         38.3004
  21759809.5084   21759809.0234   21759811.9554  -14692903.07848 -11415709.65547
     -1657.3004      -1291.4054         48.6004         45.6004
  20450775.0214   20450775.6124   20450778.4844  -21130532.20548 -16445958.97348
       -97.6314        -76.0774         52.4004         49.6004
  23743139.2794   23743139.2564   23743142.7084   -4897698.92346  -3792763.73946
      2961.6564       2307.7904         41.8004         39.5004
  22206186.8464   22206187.0624   22206191.5694  -14553656.52647 -11034164.29247
      3266.2424       2545.1134         45.3004         42.6004
  22052955.9554   22052955.8524   22052961.0354  -15416693.59647 -11978802.07647
      1957.6804       1525.4694         47.4004         44.4004
  23560452.9524   23560451.3804   23560458.6284   -5806543.60046  -4503644.21246
     -3168.3644      -2468.8424         40.6004         37.6004
 10  1  3  0  2  0.0000000  0  8G 5G18G28G15G17G 9G27G 8
  24792440.2034   24792440.9944   24792443.8464    1067167.49746    844556.16245
     -3743.0644      -2916.6724         37.1004         35.0004
  23171114.8084   23171114.6244   23171117.7474   -5430471.88546  -4217317.46046
      1417.9694       1104.9034         41.1004         38.8004
  21769310.1244   21769309.6214   21769312.8074  -14642977.09148 -11376806.28447
     -1671.0984      -1302.1544         48.8004         45.8004
  20451382.6334   20451382.7814   20451385.5824  -21127340.76948 -16443472.13648
      -115.1484        -89.7284         52.2004         49.4004
  23726256.1074   23726254.7854   23726257.5254   -4986426.02147  -3861901.70746
      2953.4554       2301.3874         42.3004         39.7004
  22187562.1154   22187562.4354   22187566.1144  -14651529.88147 -11110429.22147
      3258.6354       2539.1904         45.3004         42.5004
  22041800.2484   22041800.3204   22041804.8164  -15475318.81147 -12024484.06447
      1950.6164       1519.9634         47.2004         44.4004
  23578554.3234   23578551.4404   23578556.3154   -5711427.36046  -4429527.69946
     -3172.6894      -2472.2154         39.6004         36.7004
 10  1  3  0  2 30.0000000  0  8G 5G18G28G15G17G 9G27G 8
  24813812.2124   24813810.4684   24813815.4534    1179465.73846    932061.24645
     -3743.3634      -2916.9034         36.4004         34.3004
  23163069.4934   23163069.5624   23163071.5604   -5472747.66047  -4250259.64646
      1400.3704       1091.2014         42.0004         39.5004
  21778889.0944   21778888.5544   21778891.9224  -14592637.66448 -11337580.75947
     -1684.8614      -1312.8734         48.8004         45.8004
  20452089.6124   20452090.0314   20452092.7274  -21123623.68448 -16440575.71448
      -132.6844       -103.3844         52.2004         49.4004
  23709416.1274   23709417.1474   23709420.1794   -5074906.55947  -3930847.60546
      2945.2274       2294.9814         42.2004         39.2004
  22168980.7244   22168981.5534   22168985.8834  -14749174.55147 -11186515.99047
      3251.0094       2533.2624         45.5004         42.6004
  22030684.8754   22030684.4374   22030688.9854  -15533731.85747 -12070000.70947
      1943.5544       1514.4594         47.2004         44.4004
  23596676.5424   23596676.4424   23596682.9264   -5616183.26946  -4355311.53646
     -3176.9414      -2475.5374         39.4004         37.4004
 10  1  3  0  3  0.0000000  0  8G 5G18G28G15G17G 9G27G 8
  24835180.3044   24835179.4884   24835185.3744    1291769.69245   1019570.82145
     -3743.5254      -2917.0334         35.7004         33.8004
  23155125.1534   23155124.5294   23155129.1914   -5514494.46147  -4282789.61946
      1382.6614       1077.3904         42.0004         39.3004
  21788546.4064   21788545.8254   21788549.2164  -14541886.61748 -11298034.48647
     -1698.5424      -1323.5394         48.6004         45.4004
  20452897.4954   20452897.3794   20452900.7994  -21119380.36748 -16437269.23448
      -150.2224       -117.0584         52.2004         49.4004
  23692627.0804   23692625.7684   23692629.7654   -5163137.80847  -3999599.25646
      2936.9304       2288.5154         42.0004         39.3004
  22150443.9604   22150443.4624   22150448.5134  -14846588.97847 -11262423.32847
      3243.3134       2527.2374         45.5004         42.5004
  22019609.6174   22019609.1814   22019613.3524  -15591932.23647 -12115351.64247
      1936.4484       1508.9174         47.4004         44.4004
  23614827.9224   23614825.6514   23614830.3814   -5520812.33646  -4280996.56446
     -3181.1704      -2478.8394         40.1004         37.9004
 10  1  3  0  3 30.0000000  0  8G 5G18G28G15G17G 9G27G 8
  24856549.8794   24856549.2484   24856556.9574    1404077.75045   1107083.60945
     -3743.7604      -2917.2054         35.2004         33.8004
  23147281.3944   23147280.7494   23147285.9474   -5555710.85246  -4314906.29446
      1365.0004       1063.6304         41.6004         38.8004
  21798281.2584   21798281.7234   21798285.4144  -14490725.65548 -11258168.79847
     -1712.1824      -1334.1694         48.6004         45.6004
  20453805.3354   20453805.1894   20453808.2894  -21114610.45148 -16433552.41148
      -167.7844       -130.7424         52.2004         49.4004
  23675886.3194   23675885.3194   23675889.1534   -5251116.39547  -4068153.96946
      2928.3384       2281.8294         42.3004         39.9004
  22131950.8344   22131949.8564   22131954.3374  -14943771.62447 -11338150.05047
      3235.5464       2521.2014         45.3004         42.5004
  22008575.4774   22008574.9324   22008579.3424  -15649919.61447 -12160536.61047
      1929.3454       1503.3904         47.4004         44.5004
  23632998.9164   23632997.6884   23633002.0004   -5425315.93846  -4206583.82446
     -3185.2744      -2482.0284         40.4004         37.9004
 10  1  3  0  4  0.0000000  0  8G 5G18G28G15G17G 9G27G 8
  24877925.6694   24877925.4004   24877927.1444    1516386.39145   1194596.82645
     -3743.5994      -2917.0954         35.6004         34.0004
  23139540.4764   23139540.1504   23139542.8754   -5596395.38246  -4346608.52046
      1347.3074       1049.8454         41.8004         39.2004
  21808095.2834   21808094.8524   21808098.4274  -14439156.46148 -11217985.01247
     -1725.7644      -1344.7524         48.4004         45.2004
  20454812.9004   20454813.2004   20454815.9574  -21109313.83448 -16429425.18348
      -185.3454       -144.4274         52.2004         49.4004
  23659191.8094   23659190.6814   23659195.2154   -5338839.82247  -4136509.87846
      2919.8654       2275.2144         42.2004         39.2004
  22113501.2694   22113501.2984   22113505.2594  -15040721.23047 -11413695.20947
      3227.7514       2515.1494         45.1004         42.3004
  21997581.7464   21997581.0534   21997585.4624  -15707693.69947 -12205555.38047
      1922.2254       1497.8394         47.5004         44.7004
  23651192.5974   23651193.3124   23651199.3574   -5329694.78646  -4132073.85846
     -3189.4734      -2485.3054         40.1004         37.1004
 10  1  3  0  4 30.0000000  0  8G 5G18G28G15G17G 9G27G 8
  24899297.3614   24899293.0904   24899296.3474    1628693.16845   1282108.54345
     -3743.6254      -2917.1064         35.0004         33.4004
  23131900.7214   23131899.2324   23131902.5434   -5636546.77547  -4377895.30446
      1329.4844       1035.9694         42.2004         39.7004
  21817986.1954   21817985.5874   21817989.4554  -14387180.73048 -11177484.45447
     -1739.2834      -1355.2884         48.4004         45.4004
  20455921.1894   20455921.3294   20455924.3094  -21103489.62248 -16424886.83948
      -202.9354       -158.1334         52.2004         49.4004
  23642549.2834   23642547.7274   23642549.7444   -5426304.82047  -4204664.41746
      2911.1604       2268.4394         42.0004         39.3004
  22095096.8704   22095096.9984   22095101.5464  -15137436.14047 -11489057.46247
      3219.8914       2509.0064         45.1004         42.1004
  21986628.1334   21986627.9044   21986631.7284  -15765253.97547 -12250407.53847
      1915.1004       1492.2854         47.7004         44.9004
  23669414.1374   23669411.5624   23669417.1074   -5233950.08046  -4057467.64346
     -3193.5424      -2488.4744         39.4004         36.9004
 10  1  3  0  5  0.0000000  0  8G 5G18G28G15G17G 9G27G 8
  24920663.9244   24920662.3424   24920666.1504    1740995.09145   1369616.49545
     -3743.1334      -2916.7194         34.2004         32.6004
  23124361.7014   23124361.2474   23124364.6834   -5676163.39447  -4408765.43146
      1311.6444       1022.0654         42.5004         40.0004
  21827954.4244   21827953.8744   21827957.0334  -14334800.22448 -11136668.47647
     -1752.7414      -1365.7634         48.4004         45.4004
  20457130.5344   20457130.4124   20457133.2074  -21097137.48848 -16419937.12548
      -220.5354       -171.8424         52.2004         49.4004
  23625952.9174   23625953.6134   23625957.3834   -5513508.66247  -4272615.46946
      2902.4244       2261.6354         42.2004         39.5004
  22076738.8594   22076737.4064   22076741.7094  -15233914.89947 -11564235.69647
      3211.9924       2502.8554         45.1004         42.5004
  21975715.1704   21975715.0114   21975719.6624  -15822599.75147 -12295092.55347
      1907.9524       1486.7184         47.9004         44.9004
  23687656.4244   23687655.7674   23687660.3744   -5138082.38146  -3982765.55646
     -3197.6704      -2491.6994         39.4004         37.3004
 10  1  3  0  5 30.0000000  0  8G 5G18G28G15G17G 9G27G 8
  24942034.2404   24942034.0734   24942039.7704    1853289.74455   1457118.82355
     -3742.9524      -2916.5694         33.5004         32.4004
  23116924.7104   23116923.2294   23116928.1624   -5715244.40847  -4439218.18646
      1293.7504       1008.1284         42.9004         40.2004
  21837997.9504   21837997.9314   21838001.0984  -14282017.19248 -11095538.84147
     -1766.1354      -1376.2104         48.4004         45.4004
  20458439.0454   20458439.2894   20458442.3984  -21090257.36648 -16414575.99748
      -238.1464       -185.5694         52.2004         49.4004
  23609409.8834   23609410.2474   23609412.6284   -5600448.24947  -4340360.58946
      2893.5764       2254.7384         42.0004         39.2004
  22058423.7934   22058423.5504   22058427.2184  -15330156.12747 -11639228.86247
      3204.0654       2496.6674         45.3004         42.5004
  21964842.9154   21964842.7604   21964847.5944  -15879730.90447 -12339610.33747
      1900.7814       1481.1244         47.7004         44.7004
  23705921.9374   23705920.8624   23705928.8644   -5042093.52546  -3907969.06446
     -3201.6754      -2494.8164         39.9004         37.6004
 10  1  3  0  6  0.0000000  0  8G 5G18G28G15G17G 9G27G 8
  24963402.7344   24963400.7664   24963407.3074    1965574.50745   1544613.46845
     -3742.5504      -2916.2654         33.3004         32.4004
  23109589.7524   23109589.5154   23109592.2144   -5753788.24047  -4469252.34346
      1275.7634        994.1104         42.7004         40.0004
  21848118.9674   21848118.5454   21848121.8984  -14228833.25248 -11054096.81047
     -1779.4824      -1386.6114         48.4004         45.4004
  20459848.9974   20459849.5114   20459852.1924  -21082848.56348 -16408802.91348
      -255.7714       -199.2984         52.2004         49.4004
  23592915.2134   23592915.7894   23592919.7814   -5687120.87146  -4407897.67746
      2884.5974       2247.7424         41.8004         39.0004
  22040155.4364   22040155.2114   22040159.7094  -15426158.26247 -11714035.71347
      3196.0714       2490.4474         45.3004         42.5004
  21954013.4684   21954012.4254   21954016.5914  -15936647.02547 -12383960.55347
      1893.6074       1475.5394         47.5004         44.7004
  23724211.2324   23724212.9264   23724217.9094   -4945984.09546  -3833078.64946
     -3205.6284      -2497.8904         40.6004         38.5004
 10  1  3  0  6 30.0000000  0  8G 5G18G28G15G17G 9G27G 8
  24984764.9014   24984762.3504   24984770.1174    2077846.58855   1632098.17555
     -3742.0604      -2915.8984         32.8004         31.7004
  23102359.2754   23102357.6534   23102360.0764   -5791793.62247  -4498866.94846
      1257.8554        980.1494         42.5004         39.5004
  21858316.2454   21858315.3854   21858318.0414  -14175249.93948 -11012343.58847
     -1792.7434      -1396.9394         48.2004         45.2004
  20461360.1654   20461359.7064   20461362.7914  -21074911.04348 -16402617.83648
      -273.3974       -213.0344         52.2004         49.4004
  23576472.8444   23576473.2134   23576477.3714   -5773523.45646  -4475224.36546
      2875.5504       2240.6824         41.6004         38.8004
  22021932.1424   22021932.8434   22021936.6284  -15521919.62647 -11788654.94747
      3188.0054       2484.1624         45.3004         42.6004
  21943222.8644   21943222.9244   21943226.9304  -15993347.46047 -12428142.72147
      1886.3924       1469.9164         47.7004         44.7004
  23742526.4024   23742524.7344   23742527.3204   -4849755.23246  -3758095.13146
     -3209.6114      -2500.9984         40.4004         37.6004
 10  1  3  0  7  0.0000000  0  7G18G28G15G17G 9G27G 8
  23095227.3684   23095227.4504   23095229.6784   -5829259.33947  -4528061.03046
      1239.8314        966.0974         42.2004         39.3004
  21868587.8434   21868587.2484   21868590.6484  -14121269.10848 -10970280.59947
     -1805.9754      -1407.2514         48.4004         45.4004
  20462970.7424   20462970.8634   20462974.1004  -21066444.21948 -16396020.31648
      -291.0674       -226.8094         52.2004         49.4004
  23560084.7134   23560085.1454   23560086.3964   -5859653.19946  -4542338.43146
      2866.3904       2233.5394         41.8004         39.3004
  22003756.2274   22003756.3094   22003759.8204  -15617438.79347 -11863085.45647
      3179.9314       2477.8584         45.5004         42.5004
  21932473.5104   21932473.8574   21932478.4674  -16049831.89847 -12472156.57047
      1879.2234       1464.3274         47.7004         44.7004
  23760855.1294   23760855.3024   23760862.0004   -4753408.25646  -3683019.51846
     -3213.5674      -2504.0754         39.7004         36.9004
 10  1  3  0  7 30.0000000  0  7G18G28G15G17G 9G27G 8
  23088200.9354   23088200.1244   23088204.3224   -5866184.16946  -4556833.64346
      1221.8064        952.0764         41.8004         39.0004
  21878935.5094   21878935.2554   21878937.9334  -14066892.71548 -10927909.39447
     -1819.1254      -1417.4954         48.4004         45.4004
  20464682.4374   20464682.7864   20464686.2554  -21057447.85348 -16389010.17048
      -308.7204       -240.5624         52.2004         49.4004
  23543743.6134   23543746.8224   23543750.2244   -5945506.82946  -4609237.33146
      2857.0914       2226.2964         41.8004         39.2004
  21985624.8454   21985624.7594   21985629.0174  -15712714.35647 -11937326.14247
      3171.7594       2471.4954         45.3004         42.5004
  21921767.6584   21921766.6334   21921770.6914  -16106099.87547 -12516001.75647
      1871.9644       1458.6814         47.7004         44.7004
  23779213.4274   23779213.2474   23779219.4694   -4656943.88246  -3607852.49346
     -3217.4344      -2507.0834         39.6004         37.1004
 10  1  3  0  8  0.0000000  0  7G18G28G15G17G 9G27G 8
  23081277.7764   23081276.7544   23081280.2244   -5902566.86047  -4585183.75046
      1203.7014        937.9494         42.2004         39.7004
  21889357.3644   21889357.0184   21889360.3314  -14012122.41048 -10885231.23047
     -1832.2354      -1427.7154         48.4004         45.4004
  20466494.9954   20466495.6854   20466498.7454  -21047921.77148 -16381587.25348
      -326.3754       -254.3184         52.2004         49.4004
  23527462.0984   23527461.8014   23527465.4134   -6031081.54846  -4675918.94046
      2847.7684       2219.0474         41.6004         39.0004
  21967541.2334   21967541.8594   21967545.3904  -15807744.77147 -12011375.80847
      3163.5894       2465.1444         45.5004         42.6004
  21911101.1574   21911100.6994   21911104.1374  -16162150.96047 -12559677.93547
      1864.7514       1453.0534         47.7004         44.7004
  23797595.6154   23797593.7064   23797596.9104   -4560363.39846  -3532595.01946
     -3221.2864      -2510.0924         40.1004         37.6004
 10  1  3  0  8 30.0000000  0  7G18G28G15G17G 9G27G 8
  23074458.9424   23074458.4284   23074459.6974   -5938405.77247  -4613110.16646
      1185.5614        923.8014         42.7004         40.0004
  21899854.5184   21899854.1864   21899857.6954  -13956959.94648 -10842247.49347
     -1845.2714      -1437.8754         48.4004         45.4004
  20468409.3824   20468409.1764   20468412.6254  -21037865.56448 -16373751.25748
      -344.0554       -268.0974         52.2004         49.4004
  23511230.4024   23511231.8014   23511235.8844   -6116374.67646  -4742381.08846
      2838.3624       2211.6974         41.8004         39.3004
  21949505.4954   21949505.3654   21949509.5864  -15902528.54947 -12085233.30047
      3155.3334       2458.7014         45.6004         43.0004
  21900475.4484   21900475.4924   21900479.9594  -16217984.79747 -12603184.82447
      1857.5024       1447.4064         47.7004         44.9004
  23815994.0514   23815993.1864   23815999.0854   -4463667.65546  -3457247.69946
     -3225.0704      -2513.0494         40.1004         37.4004
 10  1  3  0  9  0.0000000  0  7G18G28G15G17G 9G27G 8
  23067742.0374   23067741.9684   23067743.3314   -5973700.15247  -4640612.28946
      1167.4254        909.6754         42.9004         40.2004
  21910425.9694   21910425.3054   21910428.7344  -13901407.23648 -10798959.66347
     -1858.2304      -1447.9804         48.4004         45.2004
  20470423.2224   20470423.8324   20470427.0724  -21027278.93348 -16365501.94448
      -361.7344       -281.8744         52.2004         49.4004
  23495056.6344   23495055.9054   23495058.6864   -6201382.89947  -4808621.25646
      2828.8254       2204.2774         42.2004         39.7004
  21931515.3104   21931515.3874   21931519.4154  -15997064.21847 -12158897.44347
      3146.9984       2452.2114         45.8004         43.0004
  21889892.4584   21889892.3334   21889896.8754  -16273600.96747 -12646522.09847
      1850.2554       1441.7524         47.9004         44.9004
  23834413.5574   23834413.7024   23834421.5554   -4366857.34546  -3381811.13846
     -3228.8784      -2516.0034         39.4004         36.6004
 10  1  3  0  9 30.0000000  0  7G18G28G15G17G 9G27G 8
  23061129.1004   23061127.9794   23061131.6264   -6008448.69647  -4667689.06646
      1149.1364        895.4134         42.9004         39.7004
  21921070.9714   21921070.6114   21921074.2184  -13845466.04548 -10755369.12047
     -1871.1604      -1458.0464         48.2004         45.2004
  20472539.2094   20472539.5144   20472542.4894  -21016161.83848 -16356839.27848
      -379.4184       -295.6484         52.2004         49.4004
  23478932.2494   23478932.8624   23478936.1264   -6286103.52447  -4874637.30346
      2819.2074       2196.7904         42.3004         39.7004
  21913574.5484   21913573.4484   21913577.2774  -16091349.97347 -12232366.84947
      3138.6734       2445.7294         46.0004         43.2004
  21879350.6314   21879350.1814   21879354.3264  -16328998.99047 -12689689.39447
      1842.9524       1436.0674         47.9004         44.9004
  23852859.9834   23852859.7324   23852863.0604   -4269934.20046  -3306286.56946
     -3232.6214      -2518.9284         38.9004         36.4004
 10  1  3  0 10  0.0000000  0  7G18G28G15G17G 9G27G 8
  23054621.3404   23054620.5974   23054623.5884   -6042650.36847  -4694339.71646
      1130.9254        881.2354         42.5004         40.0004
  21931790.0564   21931789.9044   21931792.4744  -13789138.39548 -10711477.45047
     -1884.0014      -1468.0554         48.2004         45.2004
  20474756.0214   20474755.7704   20474759.1204  -21004513.80448 -16347762.89448
      -397.1174       -309.4414         52.1004         49.4004
  23462868.7564   23462867.6974   23462869.8814   -6370533.76247  -4940427.09446
      2809.4544       2189.1914         42.5004         39.9004
  21895678.5254   21895678.7804   21895683.2914  -16185384.48747 -12305640.49547
      3130.2364       2439.1364         46.0004         43.2004
  21868849.9904   21868850.2804   21868854.1504  -16384178.34147 -12732686.27947
      1835.6434       1430.3664         47.9004         45.1004
  23871327.0134   23871324.5634   23871330.7874   -4172898.99546  -3230674.79146
     -3236.3294      -2521.8184         38.9004         36.0004
 10  1  3  0 10 30.0000000  0  7G18G28G15G17G 9G27G 8
  23048217.2894   23048216.3514   23048219.8084   -6076303.66247  -4720563.06546
      1112.5894        866.9574         42.9004         40.4004
  21942582.3974   21942581.6954   21942584.4924  -13732425.87948 -10667285.87447
     -1896.8114      -1478.0384         48.2004         45.1004
  20477072.9424   20477073.5864   20477076.6254  -20992334.51148 -16338272.54248
      -414.8184       -323.2324         52.1004         49.2004
  23446857.5574   23446856.4924   23446859.7524   -6454670.47947  -5005988.17246
      2799.6654       2181.5674         42.5004         39.9004
  21877834.4774   21877832.6124   21877836.3544  -16279166.03047 -12378717.01447
      3121.8404       2432.6074         46.0004         43.0004
  21858391.9354   21858391.8714   21858395.9494  -16439138.57647 -12775512.42547
      1828.3394       1424.6844         47.9004         44.9004
  23889808.8414   23889809.7594   23889817.3454   -4075753.03446  -3154976.61545
     -3240.0184      -2524.6934         38.3004         35.9004
 10  1  3  0 11  0.0000000  0  7G18G28G15G17G 9G27G 8
  23041917.9384   23041917.0884   23041920.0864   -6109407.80747  -4746358.52046
      1094.2844        852.7024         43.0004         40.2004
  21953447.1464   21953446.8934   21953449.6674  -13675330.18948 -10622795.73147
     -1909.5584      -1487.9714         48.1004         45.1004
  20479492.2114   20479492.4674   20479495.5464  -20979624.08048 -16328368.31648
      -432.5434       -337.0474         52.1004         49.4004
  23430902.0504   23430902.4054   23430906.3734   -6538510.84947  -5071318.29646
      2789.7354       2173.8054         42.9004         40.0004
  21860035.9454   21860036.1184   21860039.9014  -16372693.17447 -12451595.30047
      3113.3194       2425.9664         46.2004         43.5004
  21847974.9394   21847974.6604   21847978.8044  -16493879.12247 -12818167.38047
      1821.0094       1418.9624         47.9004         44.9004
  23908318.6114   23908318.9114   23908322.2504   -3978496.75246  -3079192.54045
     -3243.7124      -2527.5604         38.2004         35.7004
 10  1  3  0 11 30.0000000  0  7G18G28G15G17G 9G27G 8
  23035722.1544   23035721.8894   23035725.5944   -6141961.55447  -4771725.07046
      1075.9004        838.3574         42.9004         40.0004
  21964384.3494   21964384.1454   21964386.7484  -13617853.61048 -10578008.79447
     -1922.2074      -1497.8244         48.1004         45.1004
  20482011.9814   20482012.1844   20482015.4734  -20966382.10448 -16318049.89548
      -450.2544       -350.8504         52.1004         49.4004
  23415003.9174   23415004.7154   23415009.4704   -6622052.12147  -5136415.38946
      2779.6744       2165.9754         43.0004         40.4004
  21842287.2464   21842286.9874   21842290.6304  -16465964.61547 -12524274.34747
      3104.7624       2419.2934         46.3004         43.5004
  21837600.3634   21837600.0804   21837604.0934  -16548399.64847 -12860650.90247
      1813.6754       1413.2484         47.9004         44.9004
  23926844.5074   23926845.9194   23926850.7284   -3881130.83746  -3003323.00345
     -3247.2574      -2530.3264         38.0004         35.9004
 10  1  3  0 12  0.0000000  0  7G18G28G15G17G 9G27G 8
  23029632.9374   23029631.5684   23029635.1564   -6173964.19047  -4796662.18246
      1057.5244        824.0694         42.7004         39.9004
  21975394.1204   21975393.5904   21975396.1654  -13559997.88347 -10532926.41247
     -1934.8284      -1507.6524         47.9004         44.9004
  20484633.2044   20484633.3444   20484636.6004  -20952608.48048 -16307317.20048
      -467.9864       -364.6674         52.1004         49.4004
  23399165.8384   23399165.0824   23399168.2424   -6705291.06847  -5201276.86946
      2769.5564       2158.1184         43.0004         40.4004
  21824587.1154   21824587.1044   21824590.2204  -16558978.63347 -12596752.80747
      3096.1724       2412.6044         46.5004         43.5004
  21827266.8424   21827266.4354   21827271.0844  -16602699.81247 -12902962.70747
      1806.3144       1407.5224         47.9004         44.9004
  23945398.0334   23945394.8424   23945399.0264   -3783657.18246  -2927369.48245
     -3250.9514      -2533.2074         37.6004         35.3004
 10  1  3  0 12 30.0000000  0  7G18G28G15G17G 9G27G 8
  23023648.5844   23023648.0154   23023651.0154   -6205414.10547  -4821168.63046
      1039.1424        809.7134         42.7004         40.2004
  21986475.8234   21986474.5854   21986477.9674  -13501764.77247 -10487549.96347
     -1947.3814      -1517.4434         47.9004         44.7004
  20487355.4184   20487355.5904   20487358.7254  -20938303.09748 -16296170.16148
      -485.7144       -378.4744         52.2004         49.4004
  23383384.9724   23383383.6624   23383386.4714   -6788224.88447  -5265900.60546
      2759.3304       2150.1304         43.0004         40.4004
  21806935.8514   21806935.7474   21806939.6834  -16651733.81947 -12669029.57447
      3087.5104       2405.8474         46.5004         43.5004
  21816976.1294   21816975.3104   21816980.3074  -16656779.29247 -12945102.55147
      1798.9594       1401.7854         47.9004         45.1004
  23963964.6024   23963965.4424   23963970.7264   -3686076.95546  -2851333.01245
     -3254.4534      -2535.9424         37.6004         35.3004
 10  1  3  0 13  0.0000000  0  7G18G28G15G17G 9G27G 8
  23017768.6764   23017768.7054   23017771.9134   -6236310.64847  -4845243.86746
      1020.6094        795.2954         43.0004         40.4004
  21997627.9464   21997627.7954   21997631.3744  -13443156.12047 -10441880.88347
     -1959.8494      -1527.1584         47.7004         44.7004
  20490178.2064   20490178.7254   20490181.8124  -20923465.79148 -16284608.62848
      -503.4444       -392.2914         52.1004         49.2004
  23367659.8054   23367659.3944   23367663.3984   -6870850.82947  -5330284.44846
      2749.0224       2142.0844         43.2004         40.4004
  21789334.8264   21789334.9014   21789339.1584  -16744228.48347 -12741103.33947
      3078.8124       2399.0644         46.7004         43.7004
  21806726.4444   21806726.9854   21806731.6894  -16710637.48448 -12987069.95947
      1791.5774       1396.0444         48.1004         45.2004
  23982552.7094   23982552.0994   23982560.6144   -3588390.94846  -2775214.06445
     -3257.8994      -2538.6244         37.3004         34.8004
 10  1  3  0 13 30.0000000  0  7G18G28G15G17G 9G27G 8
  23011994.8064   23011995.0344   23011998.0334   -6266652.74747  -4868887.06446
      1002.1494        780.8874         43.0004         40.4004
  22008851.5084   22008851.2584   22008855.0854  -13384173.87147 -10395920.68647
     -1972.2764      -1536.8334         47.7004         44.5004
  20493103.6034   20493103.6074   20493106.5494  -20908096.73448 -16272632.74148
      -521.1764       -406.1114         52.1004         49.2004
  23351994.3964   23351995.5044   23351998.5664   -6953166.17647  -5394426.27446
      2738.6574       2134.0134         43.2004         40.4004
  21771782.1724   21771782.1104   21771787.5864  -16836461.25147 -12812973.00747
      3070.0514       2392.2384         46.7004         43.7004
  21796520.6124   21796520.0364   21796524.7214  -16764274.01648 -13028864.64047
      1784.1834       1390.2754         48.2004         45.2004
  24001161.6234   24001161.8704   24001166.7034   -3490599.56746  -2699013.00645
     -3261.3674      -2541.3264         36.3004         33.8004
 10  1  3  0 14  0.0000000  0  7G18G28G15G17G 9G27G 8
  23006327.5784   23006326.1064   23006328.9634   -6296439.31447  -4892097.36346
       983.5674        766.4294         43.0004         40.0004
  22020146.4154   22020146.4854   22020150.1564  -13324819.73847 -10349670.72647
     -1984.6374      -1546.4664         47.7004         44.9004
  20496128.9434   20496129.3254   20496132.6644  -20892195.60248 -16260242.24748
      -538.9144       -419.9304         52.1004         49.2004
  23336391.5844   23336390.7804   23336394.6294   -7035167.99147  -5458323.77346
      2728.1344       2125.8344         43.2004         40.4004
  21754281.8614   21754282.3114   21754287.0834  -16928430.48947 -12884637.34747
      3061.2204       2385.3734         46.7004         44.0004
  21786355.7324   21786355.5474   21786360.1944  -16817688.50048 -13070486.29747
      1776.7794       1384.4984         48.1004         45.1004
  24019792.1764   24019789.8034   24019797.0974   -3392704.44545  -2622731.15145
     -3264.8764      -2544.0594         35.7004         34.1004
 10  1  3  0 14 30.0000000  0  7G18G28G15G17G 9G27G 8
  23000764.2004   23000764.0664   23000766.5534   -6325669.01147  -4914873.77346
       965.0094        751.9414         42.9004         39.9004
  22031510.8864   22031511.0914   22031515.2274  -13265095.59847 -10303132.43347
     -1996.9534      -1556.0674         47.7004         44.7004
  20499255.9924   20499256.5354   20499259.8794  -20875762.32048 -16247437.09748
      -556.6694       -433.7684         52.1004         49.2004
  23320847.1084   23320847.5744   23320851.0854   -7116853.32547  -5521974.67446
      2717.5594       2117.5854         43.0004         40.6004
  21736832.7654   21736832.1774   21736836.2504  -17020134.40247 -12956094.93547
      3052.3524       2378.4634         47.0004         44.0004
  21776234.3244   21776234.0904   21776238.1464  -16870880.47448 -13111934.58547
      1769.3414       1378.7054         48.1004         45.1004
  24038437.2804   24038438.3434   24038443.7954   -3294706.54646  -2546369.20445
     -3268.3514      -2546.7604         36.1004         34.3004
 10  1  3  0 15  0.0000000  0  7G18G28G15G17G 9G27G 8
  22995307.2184   22995306.9034   22995311.2444   -6354341.41747  -4937215.88646
       946.4374        737.4794         42.9004         40.2004
  22042946.2284   22042946.3514   22042950.0934  -13205003.47147 -10256307.40347
     -2009.1804      -1565.5954         47.7004         44.7004
  20502485.0214   20502485.0364   20502488.3854  -20858796.63748 -16234217.08648
      -574.4034       -447.5884         52.1004         49.2004
  23305361.2904   23305362.9734   23305367.7754   -7198219.28147  -5585376.70446
      2706.8264       2109.2074         43.0004         40.0004
  21719432.1284   21719431.2154   21719436.6314  -17111571.70347 -13027344.75547
      3043.4624       2371.5294         47.2004         44.2004
  21766154.0314   21766154.1194   21766158.5074  -16923849.51748 -13153209.14547
      1761.9034       1372.9144         48.1004         45.1004
  24057107.7434   24057106.8314   24057112.2694   -3196606.81146  -2469927.85245
     -3271.6874      -2549.3684         37.0004         35.0004
 10  1  3  0 15 30.0000000  0  7G18G28G15G17G 9G27G 8
  22989957.8674   22989957.0734   22989960.8284   -6382455.49847  -4959122.94346
       927.7924        722.9544         42.7004         39.9004
  22054451.4764   22054451.4474   22054455.0954  -13144544.92947 -10209196.85147
     -2021.3684      -1575.0904         47.7004         44.7004
  20505814.8514   20505814.9544   20505817.9714  -20841298.44048 -16220582.13148
      -592.1464       -461.4124         52.1004         49.2004
  23289941.1204   23289941.9664   23289944.7124   -7279262.90847  -5648527.58146
      2696.0694       2100.8124         43.2004         40.2004
  21702082.4384   21702082.2294   21702087.3164  -17202740.74947 -13098385.55947
      3034.4734       2364.5224         47.0004         44.0004
  21756117.8794   21756117.2904   21756121.2994  -16976594.83248 -13194309.38647
      1754.4444       1367.1044         48.1004         45.1004
  24075795.3344   24075794.6244   24075801.6844   -3098405.85146  -2393407.66245
     -3275.0434      -2551.9804         37.3004         35.3004
 10  1  3  0 16  0.0000000  0  7G18G28G15G17G 9G27G 8
  22984715.5954   22984714.2174   22984717.8314   -6410010.23547  -4980594.14146
       909.1274        708.4004         42.7004         39.9004
  22066026.2204   22066025.6354   22066029.1524  -13083722.33347 -10161802.63247
     -2033.4574      -1584.5174         47.7004         44.5004
  20509245.5504   20509245.8244   20509249.1834  -20823267.88648 -16206532.35048
      -609.8794       -475.2304         52.1004         49.1004
  23274581.5804   23274581.2864   23274585.5374   -7359981.37147  -5711425.07646
      2685.1784       2092.3544         43.4004         40.9004
  21684785.8744   21684785.0834   21684789.4354  -17293640.17647 -13169216.27647
      3025.4624       2357.4984         47.0004         44.0004
  21746122.1354   21746122.3824   21746126.5874  -17029116.18748 -13235235.10547
      1746.9614       1361.2734         48.1004         45.2004
  24094504.2894   24094501.4474   24094506.4074   -3000105.02746  -2316809.69645
     -3278.3424      -2554.5444         37.1004         35.0004
 10  1  3  0 16 30.0000000  0  7G18G28G15G17G 9G27G 8
  22979577.5844   22979577.3224   22979580.3584   -6437004.78347  -5001628.85146
       890.4964        693.9054         42.7004         39.5004
  22077670.0224   22077669.4664   22077671.8154  -13022537.29747 -10114125.98347
     -2045.5264      -1593.9074         47.7004         44.5004
  20512778.2644   20512778.4004   20512781.4914  -20804705.42748 -16192068.10348
      -627.6264       -489.0584         51.9004         49.1004
  23259283.7544   23259285.1164   23259287.7194   -7440372.07547  -5774067.16846
      2674.1754       2083.7734         43.9004         41.2004
  21667538.8704   21667539.0944   21667543.5344  -17384268.35847 -13239835.61847
      3016.4104       2350.4494         46.9004         43.9004
  21736171.6944   21736171.3504   21736174.4674  -17081413.14248 -13275985.97947
      1739.4804       1355.4454         48.1004         45.2004
  24113223.5264   24113224.5834   24113231.0964   -2901705.71146  -2240134.87545
     -3281.6664      -2557.1474         36.3004         34.0004
 10  1  3  0 17  0.0000000  0  7G18G28G15G17G 9G27G 8
  22974547.7294   22974547.6954   22974549.9444   -6463438.21647  -5022226.32246
       871.7444        679.2854         42.7004         40.0004
  22089381.1274   22089380.9014   22089383.5644  -12960991.76147 -10066168.42347
     -2057.5124      -1603.2534         47.7004         44.7004
  20516411.6994   20516412.2054   20516414.7214  -20785610.36448 -16177188.83748
      -645.3754       -502.8924         51.9004         49.1004
  23244049.4504   23244048.2774   23244052.7664   -7520432.19247  -5836451.65246
      2663.1324       2075.1634         43.9004         41.1004
  21650344.5634   21650344.5184   21650349.2344  -17474624.02947 -13310242.61647
      3007.3054       2343.3484         46.9004         43.9004
  21726261.9724   21726261.8164   21726265.7024  -17133485.27248 -13316561.65747
      1731.9794       1349.5954         48.1004         45.1004
  24131967.5684   24131967.2684   24131973.7774   -2803208.36445  -2163383.70745
     -3284.8714      -2559.6454         35.9004         34.1004
 10  1  3  0 17 30.0000000  0  7G18G28G15G17G 9G27G 8
  22969624.4304   22969624.4144   22969627.4314   -6489309.74347  -5042385.93846
       853.0004        664.6724         42.9004         40.2004
  22101161.3694   22101161.0934   22101163.8034  -12899087.65447 -10017931.46547
     -2069.4434      -1612.5504         47.5004         44.7004
  20520146.5224   20520146.7604   20520149.7194  -20765983.07048 -16161894.84048
      -663.1154       -516.7114         51.7004         48.9004
  23228875.7384   23228876.6694   23228881.0404   -7600158.58847  -5898576.13346
      2651.9434       2066.4434         43.9004         40.9004
  21633203.8664   21633203.3164   21633207.4794  -17564705.36647 -13380435.84947
      2998.1244       2336.1994         46.9004         44.2004
  21716395.5534   21716395.5324   21716399.4094  -17185332.14648 -13356961.80947
      1724.4514       1343.7194         48.1004         45.1004
  24150731.6064   24150731.3104   24150735.8854   -2704613.73745  -2086556.76445
     -3288.0864      -2562.1424         35.9004         34.3004
 10  1  3  0 18  0.0000000  0  7G18G28G15G17G 9G27G 8
  22964808.7954   22964808.1854   22964811.1754   -6514618.56347  -5062107.10746
       834.2384        650.0474         42.9004         39.9004
  22113009.0554   22113008.5564   22113011.5824  -12836826.56847  -9969416.33047
     -2081.3054      -1621.7984         47.7004         44.5004
  20523982.6164   20523983.2274   20523986.1204  -20745823.42848 -16146186.03148
      -680.8664       -530.5484         51.7004         48.9004
  23213771.0904   23213770.0704   23213773.9844   -7679548.42747  -5960438.36446
      2640.6944       2057.6824         43.9004         41.2004
  21616114.0954   21616113.7714   21616117.5924  -17654510.68247 -13450413.99747
      2988.8884       2329.0134         47.0004         44.0004
  21706572.9294   21706572.0114   21706576.3044  -17236953.23748 -13397186.02947
      1716.9394       1337.8704         48.1004         45.1004
  24169510.7894   24169512.0394   24169517.1434   -2605922.95746  -2009654.94745
     -3291.2754      -2564.6264         36.1004         34.1004
 10  1  3  0 18 30.0000000  0  7G18G28G15G17G 9G27G 8
  22960100.3414   22960100.1974   22960101.9464   -6539363.84847  -5081389.12746
       815.4144        635.4034         42.7004         40.0004
  22124924.2574   22124923.9434   22124927.1834  -12774210.66347  -9920624.71747
     -2093.0934      -1630.9854         47.5004         44.4004
  20527921.0444   20527920.8574   20527923.5234  -20725131.81448 -16130062.70448
      -698.5924       -544.3584         51.7004         48.9004
  23198726.4414   23198726.7984   23198730.8914   -7758599.21947  -6022036.40246
      2629.3344       2048.8154         43.9004         41.1004
  21599077.2574   21599077.1124   21599081.3094  -17744038.56347 -13520175.96647
      2979.6174       2321.7824         47.0004         44.2004
  21696793.1514   21696792.6344   21696795.7914  -17288348.10548 -13437233.97547
      1709.3814       1331.9844         48.1004         45.2004
  24188309.7884   24188309.4204   24188316.4164   -2507137.25146  -1932679.06845
     -3294.4664      -2567.1144         36.1004         34.1004
 10  1  3  0 19  0.0000000  0  7G18G28G15G17G 9G27G 8
  22955498.6534   22955498.6514   22955501.9604   -6563544.73947  -5100231.36746
       796.6094        620.7204         42.7004         40.0004
  22136906.7694   22136906.4334   22136909.7154  -12711241.91247  -9871558.16647
     -2104.8114      -1640.1224         47.4004         44.5004
  20531958.4584   20531959.0874   20531962.0864  -20703908.11248 -16113524.75748
      -716.3264       -558.1754         51.7004         48.7004
  23183749.3874   23183749.2314   23183751.8594   -7837308.16347  -6083368.03546
      2617.9024       2039.9284         43.7004         40.7004
  21582093.7504   21582093.6134   21582097.2344  -17833287.39147 -13589720.50347
      2970.2914       2314.5124         47.2004         44.2004
  21687056.2234   21687055.3354   21687059.2374  -17339516.45048 -13477105.41747
      1701.8324       1326.1054         48.2004         45.2004
  24207124.4294   24207124.0524   24207128.9914   -2408257.64945  -1855629.99745
     -3297.6944      -2569.6394         34.7004         32.7004
 10  1  3  0 19 30.0000000  0  7G18G28G15G17G 9G27G 8
  22951003.9614   22951003.4964   22951006.7274   -6587160.40347  -5118633.18946
       777.7824        606.0884         42.9004         40.2004
  22148956.4324   22148956.1284   22148959.2244  -12647922.27247  -9822218.19047
     -2116.4894      -1649.2144         47.4004         44.5004
  20536099.3184   20536099.5474   20536102.1744  -20682152.24648 -16096572.14448
      -734.0604       -571.9944         51.5004         48.7004
  23168836.6264   23168836.8024   23168839.9034   -7915672.28347  -6144430.99546
      2606.3904       2030.9544         43.7004         40.9004
  21565164.0874   21565163.7844   21565167.7484  -17922255.57147 -13659046.35647
      2960.9334       2307.2184         47.4004         44.4004
  21677361.9914   21677361.9834   21677365.3384  -17390457.74448 -13516799.93147
      1694.2484       1320.1924         48.4004         45.4004
  24225962.1794   24225960.3114   24225965.0084   -2309284.69145  -1778508.24845
     -3300.5984      -2571.8914         34.7004         33.4004
 10  1  3  0 20  0.0000000  0  7G18G28G15G17G 9G27G 8
  22946618.6764   22946617.6354   22946621.0614   -6610210.28747  -5136594.14246
       758.9064        591.3374         43.0004         40.2004
  22161072.0174   22161071.4834   22161074.6384  -12584253.45947  -9772606.13247
     -2128.1014      -1658.2564         47.4004         44.2004
  20540340.4024   20540340.5034   20540343.8174  -20659864.18448 -16079204.82648
      -751.8044       -585.8214         51.7004         48.9004
  23153990.8874   23153991.1234   23153993.3654   -7993688.59547  -6205222.94046
      2594.7114       2021.8634         43.6004         40.6004
  21548288.0244   21548286.7034   21548291.2194  -18010942.01247 -13728152.67047
      2951.4834       2299.8494         47.5004         44.5004
  21667711.7524   21667711.2434   21667714.5844  -17441171.48348 -13556317.13047
      1686.6524       1314.2764         48.4004         45.4004
  24244811.3554   24244809.7884   24244814.3364   -2210219.87445  -1701314.87445
     -3303.6124      -2574.2494         35.2004         33.6004
 10  1  3  0 20 30.0000000  0  7G18G28G15G17G 9G27G 8
  22942339.9774   22942338.9394   22942341.0934   -6632693.65847  -5154113.64146
       739.9994        576.6334         42.9004         40.0004
  22173253.1554   22173253.3204   22173256.0324  -12520237.32847  -9722723.44247
     -2139.6454      -1667.2544         47.2004         44.0004
  20544682.4014   20544683.1154   20544686.4404  -20637044.36448 -16061423.15048
      -769.5364       -599.6374         51.7004         48.9004
  23139211.1084   23139211.9284   23139215.1324   -8071354.50647  -6265741.84646
      2582.9924       2012.7214         43.6004         40.9004
  21531464.0504   21531464.1944   21531468.8694  -18099344.74047 -13797037.89747
      2942.0134       2292.4734         47.5004         44.7004
  21658103.9634   21658103.6024   21658107.8994  -17491657.08648 -13595656.56447
      1679.0404       1308.3424         48.4004         45.2004
  24263678.2874   24263675.2694   24263684.3414   -2111064.27345  -1624050.72645
     -3306.7114      -2576.6624         34.7004         33.3004
 10  1  3  0 21  0.0000000  0  7G18G28G15G17G 9G27G 8
  22938168.2514   22938168.0144   22938170.9424   -6654609.73147  -5171191.08146
       721.0564        561.8934         42.7004         40.0004
  22185501.7634   22185500.9624   22185503.8604  -12455876.15447  -9672571.87847
     -2151.1094      -1676.1864         47.2004         44.4004
  20549126.7904   20549126.8134   20549129.9384  -20613692.86448 -16043227.17748
      -787.2324       -613.4284         51.7004         48.9004
  23124499.5324   23124498.6484   23124502.5194   -8148667.36847  -6325985.61446
      2571.1734       2003.5164         43.6004         40.7004
  21514696.2264   21514696.0474   21514700.5404  -18187462.21547 -13865700.85347
      2932.4744       2285.0534         47.5004         44.5004
  21648540.6364   21648540.8284   21648544.1514  -17541914.27048 -13634818.00147
      1671.4134       1302.4024         48.4004         45.4004
  24282564.6724   24282565.0524   24282572.1454   -2011818.79245  -1546716.52045
     -3309.7634      -2579.0334         35.6004         34.3004
 10  1  3  0 21 30.0000000  0  7G18G28G15G17G 9G27G 8
  22934106.1814   22934105.2904   22934108.5934   -6675957.82147  -5187825.94146
       702.1264        547.1034         42.9004         40.2004
  22197814.7304   22197813.5974   22197816.9524  -12391171.58447  -9622152.73547
     -2162.5304      -1685.0894         47.2004         44.2004
  20553670.7594   20553671.3744   20553674.6794  -20589809.80148 -16024617.00748
      -804.9564       -627.2364         51.7004         48.7004
  23109853.9554   23109854.2984   23109859.0444   -8225624.21447  -6385952.00446
      2559.2354       1994.2184         43.7004         40.9004
  21497982.6564   21497982.5524   21497986.9784  -18275293.07847 -13934140.46347
      2922.9044       2277.5894         47.5004         44.5004
  21639020.7394   21639020.1684   21639024.1684  -17591942.49548 -13673801.02747
      1663.7784       1296.4534         48.4004         45.4004
  24301470.7334   24301469.6744   24301473.4614   -1912483.75746  -1469312.65145
     -3312.6774      -2581.3004         36.8004         35.2004
 10  1  3  0 22  0.0000000  0  7G18G28G15G17G 9G27G 8
  22930150.6104   22930150.8784   22930154.4384   -6696737.18647  -5204017.66346
       683.1514        532.3274         43.0004         40.2004
  22210192.6834   22210192.2134   22210194.9154  -12326125.34747  -9571467.37147
     -2173.8794      -1693.9234         47.2004         44.2004
  20558317.3734   20558317.5424   20558320.6854  -20565395.49948 -16005592.88248
      -822.6484       -641.0244         51.5004         48.7004
  23095278.5534   23095278.6154   23095283.2204   -8302222.11047  -6445638.67146
      2547.2364       1984.8514         43.7004         41.1004
  21481324.1994   21481324.2654   21481327.5394  -18362835.51847 -14002355.34347
      2913.2694       2270.0734         47.4004         44.4004
  21629544.0144   21629544.0164   21629547.5154  -17641741.42448 -13712605.38247
      1656.1294       1290.4864         48.4004         45.4004
  24320386.6894   24320386.1024   24320394.2234   -1813060.40345  -1391839.93945
     -3315.4384      -2583.4544         35.7004         33.4004
 10  1  3  0 22 30.0000000  0  7G18G28G15G17G 9G27G 8
  22926305.4414   22926304.6644   22926307.8444   -6716947.33947  -5219765.82446
       664.1594        517.5154         42.7004         39.9004
  22222635.3654   22222635.0174   22222637.8434  -12260739.37647  -9520517.27247
     -2185.1614      -1702.7214         47.2004         44.2004
  20563064.2454   20563064.2564   20563067.8154  -20540450.04848 -15986154.87648
      -840.3874       -654.8454         51.5004         48.7004
  23080771.4534   23080771.4294   23080775.6824   -8378458.67347  -6505043.79946
      2535.1574       1975.4494         44.1004         41.4004
  21464720.2734   21464720.3944   21464723.7664  -18450088.07647 -14070344.34347
      2903.5484       2262.5054         47.4004         44.4004
  21620111.1454   21620110.8704   21620114.8324  -17691310.52148 -13751230.64347
      1648.4624       1284.5154         48.4004         45.4004
  24339322.7704   24339323.3234   24339329.6404   -1713549.85645  -1314299.25545
     -3318.4474      -2585.8014         34.3004         32.9004
 10  1  3  0 23  0.0000000  0  7G18G28G15G17G 9G27G 8
  22922568.4134   22922567.4984   22922571.1074   -6736587.63247  -5235069.92546
       645.1734        502.7184         42.3004         39.5004
  22235141.9364   22235141.2044   22235144.1784  -12195016.19047  -9469304.39047
     -2196.3644      -1711.4524         47.2004         44.2004
  20567912.0224   20567912.2064   20567915.5264  -20514973.53548 -15966303.06748
      -858.0684       -668.6214         51.5004         48.7004
  23066333.4114   23066332.6264   23066338.1964   -8454331.49747  -6564165.49246
      2522.9964       1965.9764         44.1004         41.2004
  21448172.8544   21448172.3234   21448176.3044  -18537049.12947 -14138106.19947
      2893.8074       2254.9114         47.5004         44.5004
  21610722.2744   21610721.8084   21610725.9384  -17740649.32548 -13789676.46447
      1640.7804       1278.5254         48.4004         45.4004
  24358277.3184   24358282.0244   24358280.9034   -1613952.85445  -1236691.20045
     -3321.3784      -2588.0864         34.2004         32.9004
 10  1  3  0 23 30.0000000  0  7G18G28G15G17G 9G27G 8
  22918939.9294   22918939.3474   22918942.2534   -6755657.76647  -5249929.80046
       626.1104        487.8954         42.3004         39.7004
  22247711.6734   22247711.4484   22247715.0334  -12128957.36347  -9417829.98947
     -2207.5334      -1720.1574         47.0004         43.9004
  20572861.3554   20572861.3834   20572864.6404  -20488966.44448 -15946037.81248
      -875.7584       -682.4084         51.5004         48.7004
  23051963.9374   23051964.9124   23051969.0974   -8529837.08347  -6623001.02046
      2510.6804       1956.3774         44.1004         40.9004
  21431680.5764   21431680.4534   21431683.2864  -18623717.00447 -14205639.60947
      2884.0344       2247.3084         47.5004         44.5004
  21601377.4854   21601377.0884   21601381.7184  -17789757.32848 -13827942.43447
      1633.0744       1272.5284         48.4004         45.6004
  24377249.4394   24377247.7594   24377252.0474   -1514270.88845  -1159017.01945
     -3324.1124      -2590.2084         34.9004         33.6004
 10  1  3  0 24  0.0000000  0  7G18G28G15G17G 9G27G 8
  22915419.5674   22915418.4234   22915421.8564   -6774156.86347  -5264344.70146
       607.1354        473.0924         42.3004         39.7004
  22260345.0084   22260345.6024   22260348.7384  -12062564.35447  -9366095.19947
     -2218.6634      -1728.8264         46.7004         43.7004
  20577911.2634   20577911.2444   20577914.5534  -20462428.81948 -15925359.15548
      -893.4424       -696.1854         51.5004         48.5004
  23037666.9124   23037667.9704   23037670.1454   -8604972.91247  -6681548.42846
      2498.3474       1946.7524         43.9004         41.1004
  21415243.9254   21415243.9884   21415247.4984  -18710090.39047 -14272943.55647
      2874.1974       2239.6374         47.5004         44.7004
  21592076.9554   21592075.6654   21592080.7534  -17838634.00648 -13866028.14247
      1625.3564       1266.5164         48.6004         45.6004
  24396231.7904   24396230.3364   24396234.9264   -1414504.54945  -1081277.02545
     -3327.0764      -2592.5294         34.5004         32.6004
 10  1  3  0 24 30.0000000  0  7G18G28G15G17G 9G27G 8
  22912009.5244   22912008.5634   22912010.6544   -6792084.30147  -5278314.14846
       588.0204        458.1884         42.5004         39.9004
  22273043.4684   22273043.2254   22273046.1434  -11995839.64247  -9314101.91047
     -2229.6644      -1737.4024         46.9004         43.9004
  20583061.7684   20583061.8824   20583065.2324  -20435360.84948 -15904267.24748
      -911.1074       -709.9554         51.4004         48.5004
  23023441.0784   23023440.3034   23023443.4824   -8679736.40347  -6739805.67546
      2485.8574       1937.0224         44.1004         41.4004
  21398863.6534   21398863.4624   21398867.0694  -18796167.76847 -14340016.83347
      2864.3034       2231.9294         47.5004         44.5004
  21582819.7014   21582819.4164   21582823.7944  -17887278.88148 -13903933.23447
      1617.6144       1260.4724         48.6004         45.6004
  24415233.2684   24415231.3314   24415238.9394   -1314654.73145  -1003471.97445
     -3329.6384      -2594.5264         33.1004         31.9004
 10  1  3  0 25  0.0000000  0  7G18G28G15G17G 9G27G 8
  22908706.3374   22908706.1944   22908707.9814   -6809439.67847  -5291837.83146
       568.9604        443.3604         42.7004         40.2004
  22285802.8874   22285802.8734   22285806.4694  -11928785.40547  -9261851.86247
     -2240.6354      -1745.9544         46.7004         43.7004
  20588313.0684   20588313.9574   20588317.1524  -20407762.81948 -15882762.30848
      -928.7724       -723.7204         51.4004         48.5004
  23009284.1814   23009284.4094   23009288.2624   -8754124.68747  -6797770.60746
      2473.3254       1927.2574         44.2004         41.2004
  21382540.3904   21382540.1444   21382544.4324  -18881947.19247 -14406857.95147
      2854.3454       2224.1594         47.7004         44.7004
  21573606.7394   21573607.0884   21573610.9714  -17935691.62448 -13941657.44447
      1609.8644       1254.4324         48.6004         45.4004
  24434243.5534   24434251.3404   24434252.0764   -1214722.65045   -925602.78245
     -3332.4154      -2596.6854         33.1004         32.0004
 10  1  3  0 25 30.0000000  0  7G18G28G15G17G 9G27G 8
  22905511.7194   22905511.4634   22905515.8914   -6826222.43647  -5304915.33446
       549.8994        428.4814         42.9004         40.0004
  22298624.3634   22298624.8654   22298629.0694  -11861403.02947  -9209346.11947
     -2251.5334      -1754.4384         46.5004         43.5004
  20593666.5554   20593666.6154   20593669.4704  -20379635.11748 -15860844.62948
      -946.4004       -737.4524         51.4004         48.5004
  22995200.8884   22995201.4444   22995204.3984   -8828135.10447  -6855441.05746
      2460.6814       1917.4204         44.2004         41.4004
  21366274.1404   21366274.3694   21366278.1894  -18967427.21247 -14473465.76147
      2844.3214       2216.3524         47.7004         44.7004
  21564438.5924   21564438.1264   21564442.9304  -17983871.67148 -13979200.33747
      1602.1184       1248.4114         48.6004         45.6004
  24453282.3694   24453277.9494                   -1114708.84345   -847669.95145
     -3335.0394      -2598.7244         32.3004         31.3004
 10  1  3  0 26  0.0000000  0  7G18G28G15G17G 9G27G 8
  22902427.9194   22902426.6094   22902428.9924   -6842432.23047  -5317546.36946
       530.7934        413.6004         42.9004         40.2004
  22311510.3384   22311509.6744   22311513.9634  -11793694.70847  -9156586.39147
     -2262.3734      -1762.8864         46.7004         43.7004
  20599119.0324   20599119.6434   20599123.0054  -20350978.33348 -15838514.67748
      -964.0524       -751.2104         51.4004         48.5004
  22981189.6844   22981189.4514   22981192.6134   -8901764.99947  -6912815.01246
      2447.9334       1907.4824         44.1004         41.1004
  21350064.5344   21350065.1994   21350068.8054  -19052606.40047 -14539839.15747
      2834.2554       2208.5114         47.7004         44.9004
  21555314.7094   21555314.5084   21555318.6084  -18031818.68648 -14016561.64847
      1594.3284       1242.3384         48.6004         45.8004
