     2.11           OBSERVATION DATA    G (GPS)             RINEX VERSION / TYPE
teqc  2009Mar23     root                20100105 01:16:03UTCPGM / RUN BY / DATE
Linux 2.4.20-8|Pentium IV|gcc|Linux|486/DX+                 COMMENT
teqc  2009Mar23     root                20100104 01:00:00UTCCOMMENT
BIT 2 OF LLI FLAGS DATA COLLECTED UNDER A/S CONDITION       COMMENT
PTBB                                                        MARKER NAME
14234M001                                                   MARKER NUMBER
Automatic           BKG/GOWettzell+PTB                      OBSERVER / AGENCY
RT820013901         ASHTECH Z-XII3T     1L01-1D04           REC # / TYPE / VERS
CR15930             ASH700936E      SNOW                    ANT # / TYPE
  3844060.0000   709661.2700  5023129.5100                  APPROX POSITION XYZ
        0.0562        0.0000        0.0000                  ANTENNA: DELTA H/E/N
     1     1                                                WAVELENGTH FACT L1/2
     9    C1    P1    P2    L1    L2    D1    D2    S1    S2# / TYPES OF OBSERV
    30.0000                                                 INTERVAL
Forced Modulo Decimation to 30 seconds                      COMMENT
 SNR is mapped to RINEX snr flag value [0-9]                COMMENT
  L1 & L2: min(max(int(snr_dBHz/6), 0), 9)                  COMMENT
pseudorange smoothing corrections not applied               COMMENT
  2010     1     4     0     0    0.0000000     GPS         TIME OF FIRST OBS
                                                            END OF HEADER
 10  1  4  0  0  0.0000000  0  7G 5G15G28G 9G27G18G 8
  24883325.1774   24883323.1244   24883325.4924    1301907.11645   1029148.87945
     -3743.3444      -2916.8984         35.7004         34.1004
  20454948.6934   20454948.9424   20454951.7064  -21128104.02048 -16214932.84448
      -187.3614       -145.9974         52.2004         49.4004
  21810262.6844   21810262.1204   21810265.8344  -14546512.76148 -11319693.73047
     -1728.4084      -1346.8084         48.4004         45.4004
  22107859.7764   22107860.7874   22107865.5464  -14523025.61047 -11290049.73247
      3225.1784       2513.1384         44.9004         42.3004
  21995739.1744   21995738.9954   21995743.2494  -14783288.02047 -11505524.29547
      1920.9884       1496.8724         47.7004         44.9004
  23137946.4294   23137944.8954   23137948.2914   -5371094.24346  -4176373.53946
      1343.2774       1046.7144         41.8004         39.3004
  23651701.8764   23651701.4104   23651705.9194   -5591350.92846  -4337879.14846
     -3189.4524      -2485.2864         40.1004         37.1004
 10  1  4  0  0 30.0000000  0  8G17G 5G15G28G 9G27G18G 8
  23641272.1444   23641270.3474   23641272.5284   -6355237.58147  -4936903.32646
      2911.1534       2268.4314         42.3004         39.5004
  24904693.8564   24904692.5924   24904694.8194    1414206.78545   1116655.08445
     -3743.2924      -2916.8594         35.2004         33.6004
  20456068.3224   20456068.5654   20456071.5274  -21122219.49248 -16210347.50048
      -204.9534       -159.7024         52.2004         49.4004
  21820168.9044   21820167.6754   21820171.5954  -14494458.41848 -11279131.90247
     -1741.8934      -1357.3184         48.4004         45.4004
  22089470.8964   22089471.5914   22089476.5764  -14619662.76547 -11365351.39247
      3217.2954       2506.9714         45.1004         42.1004
  21984793.1934   21984792.7464   21984796.9894  -14840810.69647 -11550347.14947
      1913.8504       1491.3244         47.9004         44.9004
  23130329.4024   23130328.0664   23130331.3084   -5411125.65647  -4207566.83346
      1325.4764       1032.8414         42.2004         39.7004
  23669920.1214   23669920.1164   23669925.3134   -5495606.53146  -4263273.16746
     -3193.4984      -2488.4424         39.2004         36.4004
 10  1  4  0  1  0.0000000  0  8G17G 5G15G28G 9G27G18G 8
  23624675.7424   23624677.3324   23624681.0584   -6442441.16547  -5004854.17146
      2902.3664       2261.5884         42.3004         39.7004
  24926063.3734   24926056.0694   24926070.8604    1526501.29145   1204157.32545
     -3742.9844      -2916.6084         34.2004         32.6004
  20457288.8814   20457289.0824   20457291.9914  -21115806.91448 -16205350.69048
      -222.5614       -173.4244         52.2004         49.4004
  21830151.5364   21830150.8154   21830154.0514  -14441999.72748 -11238254.99847
     -1755.3544      -1367.8054         48.4004         45.4004
  22071127.2934   22071127.1264   22071131.8004  -14716063.25047 -11440468.61447
      3209.3694       2500.7994         45.1004         42.5004
  21973887.2154   21973887.2484   21973891.4234  -14898119.03247 -11595002.98047
      1906.6704       1485.7174         47.9004         44.9004
  23122813.2774   23122812.5944   23122814.8174   -5450622.19347  -4238343.39446
      1307.5944       1018.8984         42.7004         40.2004
  23688164.5794   23688164.0034   23688169.0884   -5399739.48446  -4188571.58746
     -3197.7064      -2491.7194         39.4004         37.1004
 10  1  4  0  1 30.0000000  0  8G17G 5G15G28G 9G27G18G 8
  23608133.4564   23608132.6234   23608136.6004   -6529380.63447  -5072599.19846
      2893.5464       2254.6924         42.2004         39.3004
  24947425.9674   24947427.4904   24947432.8634    1638787.72155   1291653.24055
     -3742.7494      -2916.4274         33.8004         32.9004
  20458609.6584   20458609.6044   20458612.8014  -21108865.99048 -16199942.17748
      -240.1654       -187.1394         52.2004         49.4004
  21840209.9094   21840209.8954   21840212.9384  -14389138.60448 -11197064.51247
     -1768.7254      -1378.2314         48.4004         45.4004
  22052828.0954   22052827.8664   22052832.4694  -14812225.34247 -11515400.10347
      3201.4054       2494.6074         45.3004         42.3004
  21963022.2274   21963021.9804   21963026.7754  -14955212.45047 -11639491.34247
      1899.5314       1480.1554         47.7004         44.7004
  23115398.7364   23115398.0054   23115401.9704   -5489582.68847  -4268702.24346
      1289.6944       1004.9664         42.9004         40.0004
  23706429.6204   23706429.6484   23706434.7914   -5303750.98046  -4113775.39046
     -3201.6414      -2494.7874         39.7004         37.4004
 10  1  4  0  2  0.0000000  0  8G17G 5G15G28G 9G27G18G 8
  23591637.1024   23591638.1244   23591642.9374   -6616052.87647  -5140135.98246
      2884.5684       2247.7284         42.0004         39.2004
  24968795.0454   24968795.0294   24968797.2684    1751063.50045   1379140.89745
     -3742.3194      -2916.0974         33.7004         32.4004
  20460030.8894   20460031.1544   20460034.0624  -21101396.52848 -16194121.82748
      -257.8064       -200.8894         52.2004         49.4004
  21850345.8354   21850345.1284   21850348.4784  -14335876.78548 -11155561.79947
     -1782.0564      -1388.6214         48.4004         45.4004
  22034575.4794   22034574.1734   22034579.5974  -14908147.85747 -11590144.88747
      3193.3804       2488.3414         45.3004         42.3004
  21952199.1024   21952198.9784   21952203.5474  -15012090.55547 -11683811.93447
      1892.3504       1474.5554         47.7004         44.9004
  23108088.2544   23108087.0964   23108089.1924   -5528005.71647  -4298642.28346
      1271.7874        991.0004         42.9004         40.2004
  23724718.5144   23724720.0684   23724723.4684   -5207642.25046  -4038885.50746
     -3205.5884      -2497.8614         40.3004         38.1004
 10  1  4  0  2 30.0000000  0  8G17G 5G15G28G 9G27G18G 8
  23575195.9454   23575196.6934   23575201.3504   -6702454.82446  -5207462.19146
      2875.4794       2240.6354         41.8004         39.2004
  24990155.3234   24990152.1194                    1863325.49655   1466617.68455
     -3741.7294      -2915.6204         32.6004         31.2004
  20461553.5164   20461553.1684   20461556.1144  -21093398.06748 -16187889.26248
      -275.4254       -214.6184         52.2004         49.4004
  21860557.4054   21860556.5214   21860559.4864  -14282216.03048 -11113748.22447
     -1795.3294      -1398.9604         48.4004         45.4004
  22016366.4564   22016366.8444   22016372.0244  -15003829.53047 -11664702.00347
      3185.3654       2482.1004         45.3004         42.5004
  21941416.8244   21941415.8594   21941420.6864  -15068753.15247 -11727964.60247
      1885.1534       1468.9514         47.7004         44.7004
  23100879.2654   23100877.2284   23100880.9964   -5565890.02947  -4328162.55446
      1253.7714        976.9604         42.7004         39.3004
  23743033.6994   23743030.7634   23743035.3064   -5111414.37246  -3963902.76146
     -3209.6074      -2500.9844         40.1004         37.3004
 10  1  4  0  3  0.0000000  0  8G17G 5G15G28G 9G27G18G 8
  23558807.1874   23558808.1294   23558810.6794   -6788583.52147  -5274575.44646
      2866.3494       2233.5214         42.0004         39.3004
  25011522.5504                                    1975573.60745   1554083.90245
     -3741.2794      -2915.2924         31.0004         31.0004
  20463175.6644   20463175.8454   20463179.1954  -21084870.43448 -16181244.36048
      -293.0774       -228.3694         52.2004         49.6004
  21870843.8124   21870842.9104   21870847.0074  -14228158.38148 -11071625.37647
     -1808.5114      -1409.2284         48.4004         45.6004
  21998205.5064   21998205.7964   21998209.0324  -15099268.73047 -11739070.18347
      3177.2514       2475.7884         45.3004         42.3004
  21930674.3444   21930674.4824   21930679.4974  -15125199.71547 -11771948.92347
      1877.9414       1463.3244         47.7004         44.7004
  23093770.6254   23093771.0014   23093773.8044   -5603234.47547  -4357262.15046
      1235.7714        962.9434         42.2004         39.2004
  23761360.4944   23761362.4924   23761370.5264   -5015067.95946  -3888827.61046
     -3213.4984      -2504.0274         39.4004         36.7004
 10  1  4  0  3 30.0000000  0  8G17G 5G15G28G 9G27G18G 8
  23542467.6274   23542469.4064   23542474.5804   -6874436.37346  -5341473.73846
      2857.1484       2226.3394         41.8004         39.0004
  25032872.3544                                    2087801.38455   1641534.25055
     -3740.7004      -2914.8334         31.0004         30.8004
  20464898.9084   20464899.4114   20464902.8754  -21075813.06748 -16174186.68148
      -310.7444       -242.1374         52.2004         49.6004
  21881205.7114   21881205.5674   21881208.5814  -14173705.47348 -11029194.54147
     -1821.6584      -1419.4764         48.4004         45.4004
  21980091.1104   21980091.6244   21980094.7734  -15194463.78447 -11813248.12747
      3169.0554       2469.3894         45.3004         42.8004
  21919975.1184   21919974.4694   21919978.9344  -15181429.65047 -11815764.45147
      1870.6984       1457.6844         47.7004         44.9004
  23086767.6704   23086766.4854   23086771.1264   -5640037.68946  -4385939.97746
      1217.7384        948.8924         41.8004         39.0004
  23779722.0014   23779720.6994   23779726.5774   -4918603.63346  -3813660.65146
     -3217.4024      -2507.0614         39.2004         37.3004
 10  1  4  0  4  0.0000000  0  8G17G 5G15G28G 9G27G18G 8
  23526186.1444   23526186.1604   23526188.9084   -6960010.27546  -5408154.70846
      2847.7754       2219.0514         41.8004         39.2004
  25054224.2394                                    2200008.19555   1728968.11855
     -3740.2754      -2914.5004         31.0004         31.0004
  20466723.6254   20466723.9384   20466727.0124  -21066225.93248 -16166716.19548
      -328.4044       -255.8964         52.2004         49.4004
  21891642.4274   21891642.0964   21891645.7894  -14118858.87248 -10986456.92747
     -1834.7764      -1429.6964         48.4004         45.2004
  21962022.6854   21962022.5754   21962026.1364  -15289413.25047 -11887234.71047
      3160.9214       2463.0544         45.6004         42.8004
  21909315.9254   21909315.4164   21909319.6244  -15237442.65347 -11859410.94047
      1863.4804       1452.0624         47.9004         44.9004
  23079868.2024   23079868.0604   23079871.3504   -5676298.53147  -4414195.18346
      1199.6544        934.8064         42.5004         39.9004
  23798102.1284   23798101.0674   23798104.3004   -4822023.12746  -3738403.16846
     -3221.2804      -2510.0914         40.1004         37.8004
 10  1  4  0  4 30.0000000  0  7G17G15G28G 9G27G18G 8
  23509954.9504   23509955.5814   23509959.0994   -7045302.37147  -5474616.06846
      2838.3624       2211.7064         42.0004         39.5004
  20468648.9134   20468648.9044   20468652.2954  -21056108.83448 -16158832.74948
      -346.0734       -269.6714         52.2004         49.4004
  21902154.5174   21902154.0044   21902157.2364  -14063620.42148 -10943413.97547
     -1847.7704      -1439.8144         48.4004         45.4004
  21944002.1284   21944001.8754   21944005.8184  -15384115.42647 -11961028.59247
      3152.5464       2456.5184         45.8004         43.0004
  21898698.2914   21898698.0724   21898702.6264  -15293238.15247 -11902887.94847
      1856.2114       1446.3964         47.9004         44.9004
  23073072.5454   23073071.7744   23073073.3724   -5712015.79647  -4442026.82446
      1181.5004        920.6554         42.9004         40.2004
  23816501.2474   23816500.7814   23816505.9854   -4725327.27646  -3663055.78046
     -3225.0944      -2513.0514         40.1004         37.4004
 10  1  4  0  5  0.0000000  0  7G17G15G28G 9G27G18G 8
  23493780.0624   23493779.3734   23493782.6994   -7130309.76747  -5540855.61346
      2828.7374       2204.2054         42.3004         39.9004
  20470674.5434   20470675.3004   20470678.6104  -21045461.24948 -16150535.94548
      -363.7654       -283.4524         52.2004         49.4004
  21912739.8124   21912739.5024   21912742.5854  -14007992.31448 -10900067.38847
     -1860.7474      -1449.9384         48.4004         45.2004
  21926026.8074   21926027.1884   21926031.6594  -15478568.91847 -12034628.70047
      3144.2904       2450.0874         45.8004         43.2004
  21888121.9904   21888122.0084   21888126.7514  -15348815.75247 -11946195.15247
      1848.9584       1440.7444         47.9004         45.1004
  23066378.5454   23066378.3184   23066380.0834   -5747188.14047  -4469433.85246
      1163.2994        906.4614         43.0004         40.2004
  23834920.8714   23834920.7894   23834927.9934   -4628517.38946  -3587619.55246
     -3228.9354      -2516.0574         39.2004         36.2004
 10  1  4  0  5 30.0000000  0  7G17G15G28G 9G27G18G 8
  23477657.2034   23477656.2754   23477659.7204   -7215029.18247  -5606870.72146
      2819.1374       2196.7324         42.5004         39.7004
  20472802.3494   20472802.5834   20472805.6424  -21034283.13648 -16141825.73448
      -381.4544       -297.2374         52.2004         49.4004
  21923399.2014   21923398.6434   21923402.4114  -13951976.08948 -10856418.38547
     -1873.6594      -1460.0004         48.4004         45.4004
  21908102.4744   21908100.8104   21908105.0244  -15572772.13347 -12108033.77947
      3135.9264       2443.5954         46.0004         43.2004
  21877587.5964   21877587.4244   21877591.8774  -15404175.01748 -11989332.23847
      1841.6654       1435.0644         48.1004         45.1004
  23059787.7174   23059787.1934   23059791.1954   -5781814.47647  -4496415.42846
      1145.0604        892.2414         42.7004         39.9004
  23853366.6124   23853367.0064   23853370.0794   -4531594.83046  -3512095.47246
     -3232.6124      -2518.9304         38.7004         36.2004
 10  1  4  0  6  0.0000000  0  7G17G15G28G 9G27G18G 8
  23461591.6914   23461592.2854   23461595.3154   -7299458.14247  -5672659.51246
      2809.4274       2189.1464         42.7004         40.0004
  20475030.2564   20475030.4304   20475033.6334  -21022574.52348 -16132702.14548
      -399.1554       -311.0324         52.2004         49.4004
  21934132.9664   21934132.4424   21934135.4184  -13895573.54048 -10812468.34247
     -1886.5014      -1469.9994         48.4004         45.4004
  21890222.3364   21890222.4364   21890226.7434  -15666723.66047 -12181242.75247
      3127.5024       2437.0284         46.0004         43.2004
  21867094.9324   21867094.6344   21867098.9184  -15459315.58048 -12032298.90647
      1834.3854       1429.3904         48.1004         44.9004
  23053303.9004   23053304.8684   23053306.6424   -5815893.56847  -4522970.56646
      1126.8174        878.0164         42.7004         40.0004
  23871834.4374   23871832.3254   23871837.9084   -4434560.01346  -3436483.99346
     -3236.3204      -2521.8124         38.5004         36.0004
 10  1  4  0  6 30.0000000  0  7G17G15G28G 9G27G18G 8
  23445580.9414   23445581.1214   23445585.0334   -7383593.48447  -5738219.51746
      2799.5874       2181.4794         42.9004         40.2004
  20477359.3834   20477359.8804   20477362.8104  -21010334.43448 -16123164.42848
      -416.8694       -324.8344         52.2004         49.4004
  21944938.8924   21944938.2564   21944941.2594  -13838786.56348 -10768218.74847
     -1899.2834      -1479.9544         48.2004         45.1004
  21872392.6164   21872391.9654   21872396.7494  -15760421.86647 -12254254.31747
      3119.0394       2430.4214         46.0004         43.2004
  21856643.8674   21856643.5214   21856647.8264  -15514237.22348 -12075094.98347
      1827.0544       1423.6754         48.1004         45.1004
  23046922.6594   23046922.0004   23046925.7574   -5849424.36947  -4549098.49146
      1108.5584        863.8184         42.9004         40.2004
  23890316.2044   23890316.2434   23890324.1784   -4337414.40046  -3360786.11245
     -3240.0044      -2524.6714         38.2004         35.7004
 10  1  4  0  7  0.0000000  0  7G17G15G28G 9G27G18G 8
  23429627.0134   23429627.5584   23429631.0384   -7467432.43647  -5803548.55346
      2789.6524       2173.7554         43.2004         40.6004
  20479790.3234   20479790.2244   20479793.4584  -20997562.72148 -16113212.46048
      -434.5944       -338.6474         52.2004         49.4004
  21955817.8304   21955817.4734   21955820.0244  -13781617.08848 -10723671.10547
     -1912.0074      -1489.8814         48.1004         45.1004
  21854611.9134   21854611.3934   21854614.9824  -15853865.23247 -12327067.31147
      3110.4844       2423.7514         46.3004         43.5004
  21846233.9794   21846234.1284   21846237.9814  -15568939.28548 -12117719.96847
      1819.7314       1417.9744         48.1004         44.9004
  23040646.5814   23040646.6654   23040649.4484   -5882405.74447  -4574798.26346
      1090.2844        849.5764         42.9004         40.0004
  23908826.5904   23908825.7164   23908831.9724   -4240158.53246  -3285002.36045
     -3243.6914      -2527.5444         38.0004         35.7004
 10  1  4  0  7 30.0000000  0  7G17G15G28G 9G27G18G 8
  23413729.7124   23413730.5744   23413734.7904   -7550971.92247  -5868644.26746
      2779.6094       2165.9344         43.2004         40.6004
  20482321.3804   20482321.6074   20482324.8674  -20984259.54748 -16102846.36548
      -452.3094       -352.4484         52.2004         49.4004
  21966769.4584   21966768.9434   21966771.7114  -13724067.04548 -10678826.92947
     -1924.6684      -1499.7384         48.1004         45.1004
  21836877.7464   21836877.5114   21836881.8004  -15947052.28047 -12399680.56747
      3101.9464       2417.0944         46.5004         43.7004
  21835866.9854   21835866.6694   21835870.6584  -15623421.40947 -12160173.56147
      1812.4044       1412.2624         47.9004         44.9004
  23034475.9854   23034474.2934   23034478.7764   -5914836.60447  -4600069.08846
      1071.8484        835.2044         42.9004         40.2004
  23927350.3404   23927353.2084   23927357.3434   -4142793.60446  -3209133.61045
     -3247.2774      -2530.3584         37.8004         35.5004
 10  1  4  0  8  0.0000000  0  7G17G15G28G 9G27G18G 8
  23397890.4384   23397891.2094   23397892.8864   -7634209.13747  -5933504.41246
      2769.4904       2158.0424         43.4004         40.6004
  20484954.2724   20484954.2594   20484957.5724  -20970424.96048 -16092066.18148
      -470.0154       -366.2444         52.2004         49.4004
  21977792.5324   21977792.0144   21977795.2644  -13666138.10148 -10633687.49647
     -1937.2634      -1509.5544         48.1004         44.9004
  21819193.9414   21819194.0934   21819197.6504  -16039981.52447 -12472092.94947
      3093.3104       2410.3684         46.5004         43.7004
  21825541.0524   21825540.6334   21825545.2464  -15677683.04047 -12202455.34847
      1805.0394       1406.5164         47.9004         45.1004
  23028409.3404   23028408.0924   23028411.8724   -5946715.88247  -4624910.10746
      1053.4024        820.8484         42.9004         40.0004
  23945904.7794   23945901.9234   23945904.9454   -4045320.31546  -3133180.36545
     -3250.8584      -2533.1404         37.5004         35.3004
 10  1  4  0  8 30.0000000  0  7G17G15G28G 9G27G18G 8
  23382110.5624   23382110.6604   23382111.8844   -7717141.35947  -5998126.91346
      2759.3174       2150.1404         43.2004         40.2004
  20487687.9024   20487688.3714   20487691.4614  -20956058.67248 -16080871.69348
      -487.7554       -380.0674         52.2004         49.4004
  21988887.9294   21988887.3834   21988890.3014  -13607832.27047 -10588254.38347
     -1949.8014      -1519.3274         47.9004         44.7004
  21801559.0504   21801559.5544   21801563.7864  -16132651.40547 -12544303.22447
      3084.6464       2403.6204         46.5004         43.7004
  21815257.3734   21815257.0754   21815261.4464  -15731723.65248 -12244564.92047
      1797.6504       1400.7684         48.1004         45.1004
  23022447.8434   23022447.7354   23022450.8664   -5978042.49447  -4649320.47446
      1034.9864        806.4924         43.0004         40.4004
  23964472.7304   23964470.7724   23964476.8874   -3947740.18646  -3057143.99845
     -3254.5344      -2536.0054         37.6004         35.7004
 10  1  4  0  9  0.0000000  0  7G17G15G28G 9G27G18G 8
  23366386.0344   23366386.9274   23366389.4814   -7799765.49747  -6062509.34446
      2748.9624       2142.0554         43.2004         40.6004
  20490522.7444   20490523.0744   20490526.2054  -20941160.43648 -16069262.69048
      -505.4944       -393.8934         52.1004         49.2004
  22000054.3604   22000054.1824   22000057.0414  -13549151.23247 -10542528.89447
     -1962.2694      -1529.0364         47.9004         44.9004
  21783973.2594   21783973.8394   21783978.4164  -16225060.37647 -12616310.18747
      3075.9194       2396.8184         46.7004         43.7004
  21805015.1724   21805015.7404   21805020.3304  -15785542.77848 -12286501.89547
      1790.2694       1395.0154         48.2004         45.2004
  23016591.7504   23016591.0684   23016594.7264   -6008815.16647  -4673299.20446
      1016.5194        792.0934         43.2004         40.6004
  23983058.8154   23983059.9494   23983064.7154   -3850054.18546  -2981025.06045
     -3257.9534      -2538.6674         37.1004         34.8004
 10  1  4  0  9 30.0000000  0  7G17G15G28G 9G27G18G 8
  23350722.2734   23350722.6834   23350726.1064   -7882078.99547  -6126649.73746
      2738.5624       2133.9404         43.4004         40.6004
  20493459.4314   20493459.4494   20493462.6674  -20925729.95648 -16057238.95648
      -523.2154       -407.7034         52.1004         49.2004
  22011291.4164   22011291.4514   22011295.2614  -13490096.70847 -10496512.37947
     -1974.6884      -1538.7234         47.7004         44.7004
  21766438.9064   21766438.8654   21766443.4654  -16317206.59647 -12688112.40947
      3067.1474       2389.9784         46.7004         43.7004
  21794816.7994   21794816.6074   21794821.0054  -15839140.14048 -12328266.07147
      1782.8774       1389.2514         48.2004         45.2004
  23010841.2084   23010840.6584   23010843.9794   -6039033.25347  -4696845.77246
       998.0144        777.6794         43.0004         40.2004
  24001665.6884   24001666.6984   24001672.0744   -3752263.32346  -2904824.43445
     -3261.4714      -2541.4024         36.3004         33.8004
 10  1  4  0 10  0.0000000  0  7G17G15G28G 9G27G18G 8
  23335118.3164   23335117.1914   23335121.9204   -7964078.58247  -6190545.49146
      2728.0764       2125.7674         43.2004         40.2004
  20496496.6814   20496497.0054   20496500.3914  -20909767.44948 -16044800.64348
      -540.9574       -421.5234         52.1004         49.4004
  22022600.0654   22022599.8444   22022603.9954  -13430670.96347 -10450206.62047
     -1987.0394      -1548.3414         47.7004         44.9004
  21748954.5454   21748954.7914   21748959.6004  -16409088.96347 -12759709.04847
      3058.3424       2383.1324         46.9004         44.0004
  21784659.6574   21784659.5604   21784663.8424  -15892515.33648 -12369857.13747
      1775.4474       1383.4694         48.2004         45.2004
  23005197.0864   23005195.7794   23005200.8034   -6068695.77247  -4719959.42946
       979.4474        763.2164         43.0004         40.0004
  24020299.7364   24020295.5904   24020300.0904   -3654368.53545  -2828542.75945
     -3264.8944      -2544.0744         35.7004         34.0004
 10  1  4  0 10 30.0000000  0  7G17G15G28G 9G27G18G 8
  23319575.0384   23319575.1454   23319578.7644   -8045761.46047  -6254194.48446
      2717.4594       2117.4944         43.4004         40.7004
  20499635.8344   20499635.9364   20499639.2844  -20893272.87448 -16031947.73448
      -558.6884       -435.3374         52.1004         49.2004
  22033977.9374   22033977.8574   22033982.4864  -13370875.54147 -10403612.77947
     -1999.3374      -1557.9224         47.7004         44.5004
  21731522.0034   21731521.7464   21731525.7204  -16500705.87647 -12831098.82247
      3049.4474       2376.1944         47.0004         44.4004
  21774545.3174   21774544.8464   21774549.7424  -15945667.98848 -12411274.79347
      1768.0444       1377.6944         48.2004         45.2004
  22999658.0074   22999658.1614   22999661.5914   -6097801.67047  -4742639.36546
       960.9054        748.7524         42.9004         40.2004
  24038944.3494   24038945.6134   24038948.8364   -3556371.15146  -2752181.23545
     -3268.2574      -2546.6834         36.1004         34.5004
 10  1  4  0 11  0.0000000  0  7G17G15G28G 9G27G18G 8
  23304088.6594   23304090.1454   23304095.1164   -8127124.99847  -6317594.64846
      2706.7194       2109.1264         43.2004         40.2004
  20502875.9134   20502876.0544   20502879.3554  -20876246.09848 -16018680.12848
      -576.4274       -449.1604         52.1004         49.2004
  22045427.2164   22045427.2524   22045430.7204  -13310712.52947 -10356732.50947
     -2011.5334      -1567.4234         47.7004         44.7004
  21714137.0654   21714137.3164   21714142.0204  -16592055.96447 -12902280.67647
      3040.5494       2369.2524         47.2004         44.2004
  21764472.7934   21764472.6334   21764477.1344  -15998597.63148 -12452518.67347
      1760.5894       1371.8824         48.2004         45.2004
  22994225.3984   22994225.8674   22994229.1844   -6126349.91247  -4764884.72946
       942.3044        734.2774         42.9004         40.0004
  24057613.7684   24057612.5004   24057618.0784   -3458271.64646  -2675740.04445
     -3271.6274      -2549.3254         36.4004         34.8004
 10  1  4  0 11 30.0000000  0  7G17G15G28G 9G27G18G 8
  23288670.5164   23288670.9644   23288673.0214   -8208166.12847  -6380743.56046
      2695.9594       2100.7444         43.2004         40.6004
  20506217.3474   20506217.5174   20506220.5034  -20858687.02548 -16004997.74448
      -594.1894       -463.0044         52.1004         49.2004
  22056945.9614   22056945.2174   22056949.1864  -13250183.80047 -10309567.27547
     -2023.7214      -1576.9214         47.7004         44.7004
  21696804.6684   21696805.3034   21696810.1724  -16683137.38747 -12973253.19447
      3031.5264       2362.2264         47.0004         44.2004
  21754443.8254   21754443.1674   21754447.4434  -16051303.69948 -12493588.33347
      1753.1124       1366.0614         48.1004         45.2004
  22988899.3544   22988899.2424   22988903.1464   -6154339.40647  -4786694.72246
       923.6934        719.7724         42.7004         40.0004
  24076302.9834   24076302.3344   24076306.3004   -3360071.08046  -2599220.14645
     -3275.0374      -2551.9704         37.1004         35.3004
 10  1  4  0 12  0.0000000  0  7G17G15G28G 9G27G18G 8
  23273310.5514   23273311.3304   23273313.8174   -8288881.96847  -6443638.99846
      2685.1104       2092.2844         43.6004         40.9004
  20509659.8614   20509659.9204   20509663.4404  -20840595.44148 -15990900.40948
      -611.9264       -476.8234         52.1004         49.2004
  22068533.4654   22068533.0564   22068536.4954  -13189290.94747 -10262118.30347
     -2035.8044      -1586.3484         47.7004         44.7004
  21679524.3804   21679523.8194   21679528.6364  -16773948.70647 -13044015.23647
      3022.5264       2355.2064         47.0004         43.9004
  21744456.1614   21744456.0184   21744460.6904  -16103785.76648 -12534483.45247
      1745.6574       1360.2544         48.1004         45.2004
  22983681.3994   22983679.1254   22983682.1494   -6181769.67847  -4808068.94646
       905.0124        705.2124         42.7004         40.0004
  24095010.0554   24095007.3204   24095012.0664   -3261770.44446  -2522622.30645
     -3278.2954      -2554.5184         37.1004         34.8004
 10  1  4  0 12 30.0000000  0  7G17G15G28G 9G27G18G 8
  23258014.0744   23258014.7774   23258016.9864   -8369269.98947  -6506278.98246
      2674.0904       2083.7164         44.1004         41.4004
  20513203.9524   20513204.1854   20513207.4034  -20821971.39348 -15976388.16748
      -629.6844       -490.6604         51.9004         49.1004
  22080190.2634   22080189.5924   22080192.4944  -13128036.14547 -10214387.28547
     -2047.8414      -1595.7174         47.5004         44.5004
  21662295.1354   21662295.1994   21662299.1494  -16864488.33547 -13114565.57747
      3013.4504       2348.1484         46.9004         44.0004
  21734512.7894   21734512.0794   21734515.8534  -16156043.34048 -12575203.64647
      1738.1654       1354.4174         48.2004         45.2004
  22978565.7194   22978566.7854   22978569.3684   -6208639.46347  -4829006.44846
       886.3034        690.6274         42.7004         39.7004
  24113730.1654   24113729.6834   24113737.5084   -3163370.99046  -2445947.35545
     -3281.6104      -2557.1054         36.1004         34.1004
 10  1  4  0 13  0.0000000  0  7G17G15G28G 9G27G18G 8
  23242779.8144   23242778.9704   23242782.7654   -8449327.55347  -6568661.48146
      2663.0254       2075.0954         44.1004         41.1004
  20516849.3504   20516849.6954   20516852.2154  -20802815.01048 -15961461.12048
      -647.4144       -504.4794         51.9004         49.1004
  22091914.9644   22091914.4414   22091917.7754  -13066421.38747 -10166375.79347
     -2059.8104      -1605.0484         47.5004         44.5004
  21645117.9794   21645118.0414   21645122.0314  -16954754.56547 -13184902.88347
      3004.3054       2341.0074         46.9004         44.0004
  21724610.7754   21724610.5564   21724614.6414  -16208076.02148 -12615748.58947
      1730.6604       1348.5644         48.1004         45.2004
  22973560.2374   22973560.6834   22973562.8354   -6234947.98447  -4849506.59046
       867.5784        676.0374         42.9004         40.0004
  24132475.3434   24132473.5994   24132478.2454   -3064873.59445  -2369196.13545
     -3284.8854      -2559.6514         35.9004         34.3004
 10  1  4  0 13 30.0000000  0  7G17G15G28G 9G27G18G 8
  23227606.3214   23227606.9774   23227611.7034   -8529051.16047  -6630783.78346
      2651.8364       2066.3654         43.7004         41.1004
  20520595.7714   20520595.9144   20520598.9544  -20783126.30948 -15946119.28148
      -665.1564       -518.3044         51.9004         48.9004
  22103708.0924   22103707.4154   22103710.4754  -13004448.34147 -10118085.11047
     -2071.7044      -1614.3184         47.5004         44.7004
  21627994.2294   21627993.6724   21627997.6914  -17044745.88047 -13255025.96547
      2995.1264       2333.8654         47.0004         44.2004
  21714750.9494   21714751.3874   21714755.8334  -16259883.22648 -12656117.83447
      1723.1504       1342.7204         48.1004         45.1004
  22968661.3844   22968661.1994   22968664.5494   -6260694.47547  -4869568.81446
       848.8394        661.4344         42.9004         40.4004
  24151237.5004   24151235.7664   24151242.4094   -2966278.94846  -2292369.15945
     -3288.1174      -2562.1664         36.1004         34.5004
 10  1  4  0 14  0.0000000  0  7G17G15G28G 9G27G18G 8
  23212501.4474   23212500.2154   23212505.4954   -8608438.22547  -6692643.83846
      2640.5604       2057.5714         43.9004         41.2004
  20524443.9514   20524444.1314   20524446.8314  -20762905.61448 -15930362.89948
      -682.8874       -532.1204         51.7004         48.9004
  22115569.0104   22115568.3244   22115571.4564  -12942119.11047 -10069516.87947
     -2083.5384      -1623.5364         47.7004         44.5004
  21610921.0634   21610920.9584   21610925.0604  -17134461.07547 -13324933.88647
      2985.8664       2326.6424         47.0004         44.0004
  21704936.8524   21704936.0834   21704940.3794  -16311464.65648 -12696311.15347
      1715.6054       1336.8364         48.1004         45.1004
  22963869.1214   22963868.5044   22963871.7604   -6285878.29547  -4889192.55646
       830.0544        646.7694         42.9004         40.0004
  24170019.2924   24170019.1814   24170023.1074   -2867588.67645  -2215467.75445
     -3291.3184      -2564.6634         35.9004         34.1004
 10  1  4  0 14 30.0000000  0  7G17G15G28G 9G27G18G 8
  23197457.8754   23197458.4174   23197462.6484   -8687486.07947  -6754239.55946
      2629.2154       2048.7534         43.9004         40.9004
  20528393.3284   20528393.2694   20528396.0304  -20742152.60448 -15914191.72648
      -700.6354       -545.9504         51.7004         48.9004
  22127497.1804   22127496.4964   22127499.6814  -12879435.30247 -10020672.34947
     -2095.3474      -1632.7404         47.5004         44.4004
  21593901.6064   21593901.7164   21593906.2204  -17223898.40347 -13394625.29847
      2976.5844       2319.4154         47.0004         44.2004
  21695164.5084   21695163.8564   21695167.3794  -16362819.83148 -12736328.16747
      1708.0444       1330.9444         48.1004         45.2004
  22959184.5384   22959182.8964   22959186.3484   -6310498.69747  -4908377.29046
       811.2624        632.1424         42.7004         39.9004
  24188816.2244   24188815.2284   24188821.4524   -2768803.48545  -2138492.32645
     -3294.5014      -2567.1384         35.6004         33.6004
 10  1  4  0 15  0.0000000  0  7G17G15G28G 9G27G18G 8
  23182482.1284   23182481.1674   23182483.8064   -8766191.40147  -6815568.33246
      2617.7754       2039.8144         43.6004         40.7004
  20532442.4324   20532443.2874   20532446.3024  -20720867.27448 -15897605.75948
      -718.3924       -559.7854         51.7004         48.7004
  22139492.4764   22139492.1624   22139495.2464  -12816398.65147  -9971552.89547
     -2107.0794      -1641.8824         47.5004         44.4004
  21576935.3864   21576935.3244   21576939.6084  -17313056.19247 -13464098.90547
      2967.2314       2312.1244         47.2004         44.2004
  21685435.0564   21685434.2124   21685437.9414  -16413948.26348 -12776168.50247
      1700.4874       1325.0604         48.2004         45.2004
  22954606.2944   22954605.8574   22954609.0944   -6334554.35647  -4927121.97646
       792.4154        617.4754         42.7004         39.9004
  24207629.7964   24207625.8344   24207636.1134   -2669924.11945  -2061443.43445
     -3297.5094      -2569.4914         34.5004         32.7004
 10  1  4  0 15 30.0000000  0  7G17G15G28G 9G27G18G 8
  23167569.3794   23167569.5454   23167573.0984   -8844551.87847  -6876628.42646
      2606.2334       2030.8384         43.6004         40.7004
  20536595.6784   20536595.5274   20536598.2744  -20699049.71348 -15880605.06448
      -736.1094       -573.5894         51.7004         48.9004
  22151555.6794   22151554.4614   22151557.6624  -12753011.51947  -9922160.32647
     -2118.7334      -1650.9644         47.5004         44.5004
  21560022.9434   21560023.0414   21560027.0674  -17401933.00247 -13533353.56547
      2957.8764       2304.8444         47.4004         44.5004
  21675748.2304   21675748.0874   21675751.6764  -16464849.44948 -12815831.76747
      1692.9104       1319.1464         48.4004         45.4004
  22950135.9374   22950136.2924   22950137.5054   -6358044.70247  -4945426.16446
       773.5674        602.7744         42.9004         40.2004
  24226468.5204   24226467.3144   24226472.9534   -2570951.14645  -1984321.69545
     -3300.5894      -2571.8874         34.2004         33.1004
 10  1  4  0 16  0.0000000  0  7G17G15G28G 9G27G18G 8
  23152724.8754   23152723.8444   23152727.2654   -8922564.72847  -6937417.64646
      2594.6194       2021.7894         43.6004         40.7004
  20540847.8024   20540848.0744   20540851.5584  -20676700.62448 -15863190.18548
      -753.8254       -587.3984         51.7004         48.9004
  22163683.7854   22163683.2034   22163685.5974  -12689275.59047  -9872495.96847
     -2130.3384      -1660.0114         47.4004         44.2004
  21543163.5254   21543163.1824   21543168.3804  -17490527.41547 -13602388.16247
      2948.4174       2297.4754         47.5004         44.5004
  21666105.3324   21666105.1364   21666108.8264  -16515522.99448 -12855317.63147
      1685.3234       1313.2404         48.2004         45.2004
  22945773.5104   22945772.0814   22945775.8094   -6380969.04647  -4963289.31446
       754.6944        588.1104         42.9004         39.9004
  24245318.1364   24245318.3524   24245319.6874   -2471886.33945  -1907128.34145
     -3303.6604      -2574.2804         35.0004         33.6004
 10  1  4  0 16 30.0000000  0  7G17G15G28G 9G27G18G 8
  23137945.5864   23137945.7564   23137949.2634   -9000227.28147  -6997933.91246
      2582.8834       2012.6354         43.6004         41.1004
  20545201.6944   20545202.3854   20545205.7824  -20653819.88248 -15845361.02648
      -771.5724       -601.2264         51.7004         48.9004
  22175877.9084   22175877.3974   22175880.1154  -12625192.79747  -9822561.32547
     -2141.8534      -1668.9784         47.2004         44.4004
  21526358.6294   21526358.7494   21526363.3034  -17578837.60147 -13671201.28747
      2938.9064       2290.0554         47.7004         44.7004
  21656506.3714   21656505.8064   21656509.9784  -16565968.54548 -12894625.84947
      1677.7144       1307.3074         48.4004         45.4004
  22941518.7074   22941518.6774   22941520.5754   -6403326.84947  -4980710.97446
       735.8114        573.3634         42.7004         40.0004
  24264184.1594   24264181.8974   24264190.0154   -2372730.60645  -1829864.13545
     -3306.5934      -2576.5644         34.5004         32.9004
 10  1  4  0 17  0.0000000  0  7G17G15G28G 9G27G18G 8
  23123234.8164   23123234.0794   23123237.9664   -9077536.59447  -7058174.89246
      2571.0604       2003.4384         43.7004         40.9004
  20549657.8244   20549657.6384   20549660.7884  -20630407.26548 -15827117.42948
      -789.2704       -615.0164         51.7004         48.9004
  22188138.8374   22188138.1654   22188140.6894  -12560764.94647  -9772357.80247
     -2153.3134      -1677.9064         47.2004         44.4004
  21509608.3144   21509608.2884   21509613.1034  -17666862.04447 -13739791.73747
      2929.3714       2282.6314         47.5004         44.5004
  21646949.8144   21646949.6864   21646953.5704  -16616185.44048 -12933755.88547
      1670.0804       1301.3554         48.4004         45.4004
  22937372.0844   22937371.1844   22937375.0304   -6425117.13747  -4997690.39946
       716.8294        558.5564         42.7004         40.0004
  24283070.8184   24283071.6404   24283076.7994   -2273484.80445  -1752529.68845
     -3309.6764      -2578.9744         35.7004         34.5004
 10  1  4  0 17 30.0000000  0  7G17G15G28G 9G27G18G 8
  23108589.5104   23108590.1174   23108594.5374   -9154489.65647  -7118138.30546
      2559.1044       1994.1114         43.7004         40.7004
  20554213.3154   20554213.9784   20554217.1504  -20606462.92948 -15808459.51148
      -807.0024       -628.8324         51.7004         48.7004
  22200463.7174   22200463.2814   22200465.6234  -12495994.41947  -9721887.26647
     -2164.7184      -1686.7924         47.4004         44.2004
  21492912.2424   21492912.9054   21492916.7204  -17754599.19847 -13808158.33447
      2919.7664       2275.1394         47.5004         44.7004
  21637437.2544   21637437.1954   21637441.5984  -16666173.40348 -12972707.52347
      1662.4434       1295.4064         48.4004         45.4004
  22933332.5694   22933333.0924   22933336.8134   -6446339.30747  -5014227.16546
       697.8874        543.8154         43.0004         40.4004
  24301978.3594   24301976.7934   24301979.3604   -2174149.51146  -1675125.65145
     -3312.6534      -2581.2794         37.0004         35.2004
 10  1  4  0 18  0.0000000  0  8G17G15G28G 9G27G22G18G 8
  23094014.6814   23094014.7194   23094018.8324   -9231083.95647  -7177822.15846
      2547.1114       1984.7514         43.6004         41.1004
  20558871.4264   20558871.5964   20558874.9784  -20581987.28248 -15789387.58048
      -824.7204       -642.6364         51.5004         48.7004
  22212853.8904   22212853.3894   22212857.1814  -12430882.74747  -9671150.91047
     -2176.0554      -1695.6254         47.2004         44.2004
  21476272.5984   21476271.8864   21476275.7224  -17842047.51247 -13876299.86347
      2910.0884       2267.6084         47.5004         44.5004
  21627968.4524   21627968.5024   21627972.5254  -16715931.95748 -13011480.40647
      1654.8054       1289.4604         48.4004         45.4004
                                                   -186929.58344
      2302.8714                         26.4004        -24.200
  22929402.8574   22929402.6054   22929406.1584   -6466993.02747  -5030320.98346
       678.9484        529.0574         43.0004         40.0004
  24320891.0144   24320893.0834   24320897.6074   -2074726.02345  -1597652.87545
     -3315.8244      -2583.7604         35.9004         33.8004
 10  1  4  0 18 30.0000000  0  7G17G15G28G 9G27G18G 8
  23079508.0584   23079508.5134   23079511.4134   -9307316.63847  -7237224.23046
      2535.0244       1975.3374         44.1004         41.2004
  20563630.0164   20563629.9364   20563633.8434  -20556980.49348 -15769901.77648
      -842.4114       -656.4234         51.5004         48.7004
  22225309.0874   22225309.2764   22225311.4044  -12365432.09647  -9620150.40047
     -2187.3154      -1704.4074         47.2004         44.2004
  21459686.5784   21459686.6084   21459690.0784  -17929205.43747 -13944215.13047
      2900.3994       2260.0524         47.5004         44.5004
  21618543.8294   21618543.2424   21618547.4314  -16765460.49548 -13050074.04747
      1647.1094       1283.4624         48.4004         45.4004
  22925581.1984   22925579.6904   22925583.6654   -6487077.38147  -5045971.12746
       659.9324        514.2444         42.7004         39.7004
  24339828.1884   24339827.7334   24339834.4724   -1975215.42145  -1520112.11845
     -3318.3224      -2585.6974         34.5004         32.6004
 10  1  4  0 19  0.0000000  0  7G17G15G28G 9G27G18G 8
  23065070.8804   23065070.6984   23065074.9104   -9383185.05447  -7296342.45346
      2522.8324       1965.8514         44.1004         41.2004
  20568489.3034   20568489.8254   20568492.9054  -20531442.98548 -15750002.43248
      -860.1044       -670.2114         51.5004         48.7004
  22237827.8454   22237827.4384   22237830.9104  -12299644.33347  -9568887.20247
     -2198.5244      -1713.1374         47.2004         44.2004
  21443156.8714   21443156.0764   21443160.2354  -18016071.35147 -14011902.84247
      2890.6464       2252.4564         47.5004         44.5004
  21609162.3814   21609162.2594   21609166.6644  -16814758.52748 -13088488.08347
      1639.4274       1277.4734         48.4004         45.4004
  22921867.9504   22921867.7734   22921870.2134   -6506591.92847  -5061177.26746
       641.0144        499.4874         42.5004         39.7004
  24358790.1074   24358789.8464   24358789.8094   -1875618.25745  -1442503.95845
     -3321.4194      -2588.1184         34.0004         32.7004
 10  1  4  0 19 30.0000000  0  7G17G15G28G 9G27G18G 8
  23050703.6814   23050703.8424   23050707.5044   -9458686.48447  -7355174.72446
      2510.5374       1956.2434         44.1004         41.2004
  20573450.1644   20573450.1914   20573453.9554  -20505374.66648 -15729689.46048
      -877.7734       -683.9794         51.5004         48.7004
  22250409.8514   22250409.4954   22250413.7504  -12233521.08847  -9517362.59347
     -2209.6824      -1721.8314         47.0004         43.9004
  21426682.2604   21426681.7564   21426685.7934  -18102643.59347 -14079361.73147
      2880.8214       2244.7924         47.5004         44.4004
  21599824.9154   21599825.0944   21599829.9604  -16863825.78048 -13126722.29247
      1631.7244       1271.4794         48.6004         45.8004
  22918263.7644   22918261.6224   22918266.1224   -6525536.05847  -5075938.95246
       621.9494        484.6464         42.5004         39.9004
  24377754.1304   24377753.9994   24377757.5664   -1775936.01345  -1364829.64045
     -3324.2304      -2590.3144         34.7004         33.4004
 10  1  4  0 20  0.0000000  0  7G17G15G28G 9G27G18G 8
  23036405.6704   23036406.7904   23036409.3214   -9533818.52147  -7413719.17546
      2498.2084       1946.6544         43.9004         41.1004
  20578512.0064   20578512.1804   20578515.3994  -20478775.71448 -15708963.01748
      -895.4814       -697.7774         51.5004         48.7004
  22263055.8404   22263056.3224   22263059.0774  -12167064.36747  -9465578.15547
     -2220.7574      -1730.4724         46.9004         43.9004
  21410263.9694   21410263.9914   21410267.7964  -18188920.88347 -14146590.78547
      2870.9814       2237.1274         47.5004         44.5004
  21590532.2704   21590531.6984   21590536.1134  -16912661.87748 -13164776.37647
      1624.0114       1265.4614         48.6004         45.6004
  22914766.6394   22914766.5564   22914769.8424   -6543908.95747  -5090255.52546
       602.8734        469.7844         42.5004         39.7004
  24396737.2494   24396733.8974   24396746.3904   -1676169.49845  -1287089.45745
     -3326.8704      -2592.3654         34.0004         32.2004
 10  1  4  0 20 30.0000000  0  7G17G15G28G 9G27G18G 8
  23022180.7724   23022180.4284   23022182.8664   -9608577.76247  -7471973.09546
      2485.7244       1936.9374         44.1004         41.4004
  20583674.1104   20583674.2984   20583677.7564  -20451646.65648 -15687823.50848
      -913.1494       -711.5474         51.4004         48.5004
  22275766.3944   22275765.7244   22275769.2444  -12100276.36647  -9413535.54347
     -2231.7884      -1739.0604         46.9004         44.0004
  21393902.2494   21393902.2094   21393905.8764  -18274901.71247 -14213588.82747
      2861.0554       2229.3934         47.5004         44.7004
  21581283.9554   21581283.0764   21581287.1404  -16961266.23048 -13202649.89547
      1616.2744       1259.4394         48.6004         45.6004
  22911381.1254   22911379.3184   22911382.6104   -6561710.14547  -5104126.56846
       583.8654        454.9434         42.5004         40.0004
  24415738.9294   24415741.9004   24415744.5534   -1576319.42345  -1209284.16145
     -3329.6104      -2594.4864         32.8004         32.0004
 10  1  4  0 21  0.0000000  0  7G17G15G28G 9G27G18G 8
  23008025.2794   23008025.3444   23008028.8904   -9682961.75247  -7529934.64346
      2473.2094       1927.1604         44.1004         41.2004
  20588936.6424   20588937.6044   20588941.2404  -20423987.88548 -15666271.23748
      -930.7704       -725.2744         51.4004         48.5004
  22288537.4324   22288537.4694   22288541.6124  -12033158.63947  -9361236.01747
     -2242.7314      -1747.5834         46.7004         43.7004
  21377597.3944   21377597.7924   21377601.3624  -18360584.29847 -14280354.47347
      2851.0904       2221.6304         47.7004         44.7004
  21572078.2114   21572077.8764   21572082.3604  -17009638.41148 -13240342.49647
      1608.5404       1253.4064         48.6004         45.6004
  22908102.4174   22908101.9714   22908103.9364   -6578939.45247  -5117552.02446
       564.7554        440.0864         42.9004         40.2004
  24434751.6744   24434751.0304   24434763.6204   -1476386.78645  -1131414.54645
     -3332.5564      -2596.8124         32.8004         31.9004
 10  1  4  0 21 30.0000000  0  8G17G15G28G 9G27G22G18G 8
  22993941.8794   22993942.6914   22993945.9064   -9756967.81647  -7587601.68246
      2460.5354       1917.3144         44.1004         41.4004
  20594302.2174   20594302.0464   20594305.1954  -20395799.25848 -15644306.08648
      -948.4574       -739.0594         51.4004         48.5004
  22301371.4534   22301372.1634   22301376.0034  -11965713.40447  -9308681.29047
     -2253.6184      -1756.0714         46.5004         43.7004
  21361349.6864   21361349.5864   21361353.6084  -18445967.18047 -14346886.58547
      2841.0734       2213.8234         47.7004         44.7004
  21562916.7714   21562917.1294   21562921.7854  -17057777.85348 -13277853.74047
      1600.7574       1247.3434         48.6004         45.6004
  24535520.5584                                     -69200.58044    -45266.24544
      2205.5614       1718.4304         26.4004         25.8004
  22904930.7794   22904931.2344   22904934.3484   -6595596.19247  -5130531.30146
       545.6624        425.1784         43.0004         40.2004
  24453789.1804   24453787.6524                   -1376372.91545  -1053481.70645
     -3335.1884      -2598.8454         32.1004         31.5004
 10  1  4  0 22  0.0000000  0  8G17G15G28G 9G27G22G18G 8
  22979932.4974   22979932.3944   22979934.7844   -9830592.96647  -7644971.90446
      2447.7974       1907.3764         44.1004         41.1004
  20599766.0134   20599766.5854   20599770.2024  -20367081.56548 -15621928.67048
      -966.0924       -752.8024         51.4004         48.5004
  22314269.1014   22314268.1984   22314272.8554  -11897942.83747  -9255873.05247
     -2264.4164      -1764.4804         46.7004         43.7004
  21345160.1354   21345159.5714   21345163.5124  -18531048.52647 -14413183.73347
      2831.0104       2205.9824         47.9004         44.9004
  21553801.5764   21553801.3964   21553805.4834  -17105683.87248 -13315183.09647
      1592.9724       1241.2734         48.8004         45.8004
                                  24524849.322     -135156.70844    -88968.208 2
      2191.5104       1709.128          26.4004         15.800
  22901872.1174   22901871.0194   22901873.3224   -6611679.59847  -5143063.84446
       526.5624        410.3214         43.0004         40.6004
  24472831.7034                                   -1276278.60145   -975486.17345
     -3337.7944      -2600.8744         31.6004         31.3004
 10  1  4  0 22 30.0000000  0  8G17G15G28G 9G27G22G18G 8
  22965994.6014   22965995.6224   22965998.0304   -9903835.22747  -7702043.79446
      2434.9894       1897.4074         44.1004         41.6004
  20605332.4294   20605332.3924   20605335.6974  -20337834.66848 -15599138.88748
      -983.7234       -766.5364         51.4004         48.5004
  22327227.0334   22327225.9164   22327230.0974  -11829848.64047  -9202812.63647
     -2275.1754      -1772.8514         46.5004         43.3004
  21329026.7014   21329025.8004   21329030.6534  -18615827.26547 -14479245.08947
      2820.8974       2198.1054         47.7004         44.9004
  21544729.3264   21544729.2854   21544733.9654  -17153356.27748 -13352330.41647
      1585.1834       1235.2124         48.8004         45.8004
                                  24524849.322     -200687.34044    -88968.208 2
      2177.2974       1709.128          26.4004         15.800
  22898920.1194   22898919.7214   22898922.1294   -6627189.50847  -5155149.49146
       507.4354        395.4094         43.2004         40.6004
  24491898.0394                                   -1176104.57245   -897428.52045
     -3340.4384      -2602.9514         31.0004         31.0004
 10  1  4  0 23  0.0000000  0  7G17G15G28G 9G27G18G 8
  22952129.9754   22952130.3094   22952135.7344   -9976691.31947  -7758814.76546
      2422.0684       1887.2914         44.4004         41.6004
  20610997.5584   20610998.1484   20611001.4214  -20308059.18348 -15575937.22448
     -1001.3184       -780.2484         51.4004         48.4004
  22340245.7174   22340245.2314   22340248.5564  -11761432.75047  -9149501.55547
     -2285.8714      -1781.2024         46.3004         43.5004
  21312950.7684   21312950.8054   21312955.4874  -18700301.59847 -14545069.23147
      2810.7154       2190.1634         47.9004         44.9004
  21535702.0964   21535701.8414   21535706.6474  -17200794.66648 -13389295.37447
      1577.3674       1229.1154         48.8004         45.9004
  22896078.7724   22896077.6074   22896080.1194   -6642125.47647  -5166787.92846
       488.2674        380.4904         43.6004         40.7004
  24510972.3914                                   -1075851.44844     28025.79643
     -3343.0774      -2604.9954         26.4004         23.4004
 10  1  4  0 23 30.0000000  0  8G17G15G28G 9G27G22G18G 8
  22938340.6674   22938340.3424   22938344.8824  -10049158.97547  -7815283.04846
      2409.0604       1877.1904         44.4004         41.6004
  20616764.4044   20616764.9964   20616768.5594  -20277755.52748 -15552323.99548
     -1018.9264       -793.9644         51.2004         48.4004
  22353326.4524   22353325.6164   22353328.7214  -11692696.88247  -9095941.13347
     -2296.4854      -1789.4754         46.5004         43.5004
  21296934.0694   21296934.4254   21296938.6784  -18784469.68947 -14610654.74047
      2800.4724       2182.1844         47.9004         45.1004
  21526718.7264   21526719.6414   21526723.7694  -17247998.47648 -13426077.56247
      1569.5444       1223.0244         48.8004         45.8004
  24485810.9994                                     -39766.01544    -23946.59343
      2148.5404       1674.1864         26.4004         23.4004
  22893343.4024   22893343.5984   22893347.3114   -6656487.26147  -5177978.93046
       469.1334        365.5434         43.4004         40.6004
  24530064.1604                                    -975521.12354    106173.08354
     -3345.8734      -2605.1044         26.4004         29.6004
 10  1  4  0 24  0.0000000  0  7G17G15G28G 9G27G22G18
  22924624.5364   22924624.7994   22924627.9304  -10121235.19247  -7871446.31246
      2395.9794       1866.9954         44.4004         41.6004
  20622631.7554   20622631.7804   20622635.5074  -20246924.05948 -15528299.47248
     -1036.5064       -807.6644         51.2004         48.4004
  22366466.4474   22366466.4354   22366468.4234  -11623643.06847  -9042132.96347
     -2307.0904      -1797.7334         46.3004         43.5004
  21280976.6804   21280976.4414   21280980.8794  -18868330.05347 -14676000.45347
      2790.1984       2174.1794         47.9004         45.1004
  21517781.9394   21517781.9834   21517786.2324  -17294967.08548 -13462676.47447
      1561.6574       1216.8804         48.8004         45.9004
                                  24480502.250     -104006.85544    -45679.720 2
      2134.1624       1669.413          28.3004         14.000
  22890722.6194   22890720.7274   22890723.7894   -6670274.38847  -5188722.15046
       449.9814        350.6394         43.4004         40.6004
 10  1  4  0 24 30.0000000  0  7G17G15G28G 9G27G22G18
  22910985.8584   22910985.2994   22910988.7804  -10192917.27547  -7927302.45246
      2382.8074       1856.7394         44.8004         41.9004
  20628598.7164   20628599.0044   20628602.6524  -20215565.52248 -15503864.26348
     -1054.0844       -821.3664         51.2004         48.2004
  22379667.8804   22379667.1324   22379669.9024  -11554273.40447  -8988078.68647
     -2317.5664      -1805.8914         46.5004         43.5004
  21265076.9004   21265077.0394   21265081.4224  -18951881.45948 -14741105.43047
      2779.8904       2166.1474         48.1004         45.2004
  21508888.7224   21508888.5854   21508892.9294  -17341700.16648 -13499091.85747
      1553.8474       1210.7854         48.8004         45.8004
                                  24480502.250     -167814.04745    -45679.720 2
      2119.6594       1669.413          34.9004         14.000
  22888207.0354   22888206.3074   22888209.3384   -6683486.22047  -5199017.08946
       430.7864        335.6744         43.4004         40.7004
 10  1  4  0 25  0.0000000  0  7G17G15G28G 9G27G22G18
  22897418.0244   22897418.8014   22897422.8364  -10264203.06047  -7982849.79946
      2369.5474       1846.4204         44.8004         41.9004
  20634666.1344   20634666.7474   20634670.4834  -20183679.64548 -15479018.13848
     -1071.6584       -835.0584         51.0004         48.2004
  22392927.6194   22392927.7044   22392928.9284  -11484589.72047  -8933779.71847
     -2327.9994      -1814.0284         46.3004         43.0004
  21249237.8274   21249237.2254   21249241.0784  -19035121.83248 -14805968.03647
      2769.4784       2158.0354         48.1004         45.2004
  21500040.7394   21500040.7584   21500045.1144  -17388197.28848 -13535323.38547
      1545.9424       1204.6324         48.8004         45.9004
  24449379.5664   24449381.5924   24449384.0444    -231185.35746   -173104.51745
      2105.0494       1640.3044         36.8004         35.5004
  22885803.1654   22885801.4034   22885804.9854   -6696122.75847  -5208863.73746
       411.6094        320.7264         43.4004         40.9004
 10  1  4  0 25 30.0000000  0  7G17G15G28G 9G27G22G18
  22883929.7324   22883929.6324   22883933.8554  -10335089.72347  -8038086.15547
      2356.2104       1836.0174         45.3004         42.5004
  20640835.1314   20640835.0824   20640838.4944  -20151266.91948 -15453761.48348
     -1089.1924       -848.7164         51.0004         48.2004
  22406249.0404   22406247.7334   22406249.6584  -11414594.03347  -8879237.60647
     -2338.3694      -1822.1014         46.2004         43.3004
  21233456.5084   21233456.2844   21233460.4984  -19118049.72248 -14870587.15747
      2759.0294       2149.8954         48.1004         45.1004
  21491237.8574   21491237.3994   21491242.0164  -17434457.66248 -13571370.42347
      1538.0584       1198.4864         48.8004         45.8004
  24437404.8044   24437405.1354   24437409.1954    -294118.42646   -222143.31146
      2090.4724       1628.9464         38.7004         36.7004
  22883505.8544   22883505.9904   22883510.1814   -6708183.46247  -5218261.70346
       392.4144        305.7774         43.6004         40.6004
 10  1  4  0 26  0.0000000  0  7G17G15G28G 9G27G22G18
  22870517.2544   22870517.1714   22870520.2884  -10405574.40947  -8093009.28547
      2342.7334       1825.4864         45.1004         42.1004
  20647102.7224   20647103.0864   20647106.2874  -20118328.10648 -15428094.89548
     -1106.7494       -862.4044         51.0004         48.2004
  22419626.2744   22419625.4634   22419629.0744  -11344288.33347  -8824453.93847
     -2348.6684      -1830.1274         46.3004         43.5004
  21217735.9914   21217735.4364   21217739.5404  -19200663.64848 -14934961.63647
      2748.5374       2141.7164         48.2004         45.2004
  21482479.1254   21482479.2654   21482483.9174  -17480481.15148 -13607232.86947
      1530.1534       1192.3224         48.8004         45.8004
  24425514.0764   24425512.5844   24425513.2354    -356611.76746   -270839.46246
      2075.7654       1617.4824         38.5004         36.2004
