     2.11           OBSERVATION DATA    G (GPS)             RINEX VERSION / TYPE
teqc  2009Mar23     root                20100102 01:16:03UTCPGM / RUN BY / DATE
Linux 2.4.20-8|Pentium IV|gcc|Linux|486/DX+                 COMMENT
teqc  2009Mar23     root                20100101 01:00:00UTCCOMMENT
BIT 2 OF LLI FLAGS DATA COLLECTED UNDER A/S CONDITION       COMMENT
PTBB                                                        MARKER NAME
14234M001                                                   MARKER NUMBER
Automatic           BKG/GOWettzell+PTB                      OBSERVER / AGENCY
RT820013901         ASHTECH Z-XII3T     1L01-1D04           REC # / TYPE / VERS
CR15930             ASH700936E      SNOW                    ANT # / TYPE
  3844060.0000   709661.2700  5023129.5100                  APPROX POSITION XYZ
        0.0562        0.0000        0.0000                  ANTENNA: DELTA H/E/N
     1     1                                                WAVELENGTH FACT L1/2
     9    C1    P1    P2    L1    L2    D1    D2    S1    S2# / TYPES OF OBSERV
    30.0000                                                 INTERVAL
Forced Modulo Decimation to 30 seconds                      COMMENT
 SNR is mapped to RINEX snr flag value [0-9]                COMMENT
  L1 & L2: min(max(int(snr_dBHz/6), 0), 9)                  COMMENT
pseudorange smoothing corrections not applied               COMMENT
  2010     1     1     0     0    0.0000000     GPS         TIME OF FIRST OBS
                                                            END OF HEADER
 10  1  1  0  0  0.0000000  0  7G 5G15G 9G17G18G28G 8
  24355909.0284   24355908.5614   24355912.5454    -131624.01646    -78402.95546
     -3718.2674      -2897.3534         39.7004         37.4004
  20458302.5954   20458302.3144   20458305.3464  -21424953.48748 -16677391.98348
       235.3514        183.3924         52.2004         49.4004
  22579666.4914   22579665.4384   22579669.9694  -12486289.41847  -9434983.03246
      3405.3084       2653.4934         43.6004         40.7004
  24074938.9674   24074943.2874   24074946.3944   -3912927.85246  -3024304.05146
      3097.5554       2413.6794         39.7004         37.3004
  23356799.0574   23356797.3794   23356800.8114   -4530279.50046  -3521251.42746
      1766.4544       1376.4554         40.6004         38.3004
  21591102.6094   21591102.3364   21591105.6774  -15534414.99848 -12089815.65847
     -1378.5854      -1074.2184         49.3004         46.5004
  23220626.6674   23220626.5514   23220630.8354   -7494275.07747  -5818986.94046
     -3079.8824      -2399.9084         42.3004         39.2004
 10  1  1  0  0 30.0000000  0  8G27G 5G15G 9G17G18G28G 8
  22264499.9194   22264499.3684   22264502.9214  -14255150.66347 -11093256.78147
      2084.7544       1624.4794         46.9004         44.2004
  24377138.2104   24377140.2074   24377145.6064     -20042.89846      8543.33646
     -3720.4304      -2899.0364         39.6004         36.9004
  20457007.0194   20457007.4364   20457010.5914  -21431757.53348 -16682693.83748
       218.2544        170.0704         52.2004         49.2004
  22560244.6594   22560243.7774   22560248.9504  -12588349.10147  -9514510.02546
      3398.6604       2648.2924         43.7004         41.2004
  24057278.9474   24057277.2294   24057280.6944   -4005760.87846  -3096641.46546
      3091.2984       2408.8084         39.7004         37.3004
  23346760.8554   23346760.5774   23346763.0114   -4583023.67746  -3562350.79046
      1749.9004       1363.5474         40.8004         38.3004
  21599015.7104   21599014.6404   21599018.1654  -15492834.34448 -12057415.14847
     -1393.4414      -1085.7964         49.3004         46.3004
  23238223.2884   23238220.8334   23238227.6514   -7401804.34946  -5746931.82246
     -3084.8534      -2403.7864         41.6004         38.6004
 10  1  1  0  1  0.0000000  0  8G27G 5G15G 9G17G18G28G 8
  22252616.4684   22252616.4934   22252621.0464  -14317591.72947 -11141912.15547
      2077.9374       1619.1774         47.0004         44.0004
  24398384.1034   24398385.8334   24398390.9314      91600.35846     95538.08646
     -3722.4614      -2900.6164         39.6004         37.3004
  20455810.5534   20455810.4394   20455813.1564  -21438047.99948 -16687595.50848
       201.1044        156.7064         52.1004         49.2004
  22540862.1774   22540860.6264   22540865.1234  -12690209.14447  -9593881.46446
      3391.9894       2643.1024         44.1004         41.4004
  24039646.7204   24039647.2934   24039651.8464   -4098404.38546  -3168831.19146
      3084.8604       2403.7854         39.9004         37.6004
  23336819.7984   23336817.8484   23336822.3124   -4635271.41446  -3603063.29346
      1733.3384       1350.6504         40.8004         38.1004
  21607012.4734   21607012.2354   21607014.9414  -15450808.13448 -12024667.44447
     -1408.2874      -1097.3684         49.3004         46.1004
  23255846.2994   23255846.2304   23255850.1534   -7309184.65146  -5674760.63646
     -3089.7854      -2407.6214         41.5004         39.0004
 10  1  1  0  1 30.0000000  0  8G27G 5G15G 9G17G18G28G 8
  22240773.0894   22240773.5514   22240777.4034  -14379828.44647 -11190408.28947
      2071.1624       1613.8954         46.9004         44.0004
  24419642.7754   24419643.7504   24419647.9314     203303.07946    182579.15946
     -3724.3954      -2902.1304         40.3004         37.8004
  20454711.2144   20454711.3314   20454714.1824  -21443823.80248 -16692096.14448
       183.9464        143.3334         52.1004         49.2004
  22521514.8154   22521515.0174   22521519.3564  -12791867.91147  -9673096.08546
      3385.2824       2637.8934         43.9004         40.9004
  24022054.1714   24022055.2294   24022058.9034   -4190855.42646  -3240870.95746
      3078.3984       2398.7524         40.9004         38.6004
  23326970.4384   23326970.1974   23326973.3444   -4687020.93946  -3643387.58946
      1716.6864       1337.6744         40.6004         37.9004
  21615094.5834   21615094.0864   21615097.1754  -15408338.00948 -11991573.83947
     -1423.0584      -1108.8754         49.3004         46.1004
  23273502.5704   23273500.9284   23273504.6804   -7216417.09347  -5602474.27046
     -3094.7044      -2411.4504         42.0004         39.3004
 10  1  1  0  2  0.0000000  0  8G27G 5G15G 9G17G18G28G 8
  22228968.4574   22228968.6804   22228973.2964  -14441860.12747 -11238744.64647
      2064.3204       1608.5604         46.9004         43.9004
  24440910.6814   24440910.9344   24440914.0254     315062.57846    269664.48346
     -3726.2034      -2903.5364         40.1004         37.6004
  20453710.6744   20453710.5164   20453713.6624  -21449084.21848 -16696195.17048
       166.7454        129.9344         52.2004         49.4004
  22502209.7024   22502209.3234   22502213.5794  -12893323.98147  -9752152.74146
      3378.4664       2632.5884         43.9004         41.2004
  24004500.1784   24004499.7874   24004503.0734   -4283110.79346  -3312758.21846
      3071.9184       2393.6984         41.1004         38.5004
  23317218.5684   23317218.5214   23317221.9564   -4738270.29446  -3683322.11646
      1699.9034       1324.5944         40.6004         37.9004
  21623259.5234   21623259.8034   21623263.1114  -15365425.32148 -11958135.37747
     -1437.7944      -1120.3594         49.1004         46.1004
  23291180.9274   23291182.0394   23291185.4144   -7123502.58047  -5530073.33946
     -3099.6094      -2415.2654         42.0004         39.2004
 10  1  1  0  2 30.0000000  0  8G27G 5G15G 9G17G18G28G 8
  22217202.7494   22217202.9004   22217208.2844  -14503686.47947 -11286921.00847
      2057.4524       1603.2014         47.0004         44.0004
  24462187.3564   24462187.2864   24462192.1884     426876.11746    356791.89146
     -3727.9814      -2904.9174         39.7004         37.1004
  20452807.2504   20452807.5164   20452810.8214  -21453828.61648 -16699892.12148
       149.5404        116.5224         52.4004         49.4004
  22482941.6484   22482942.0204   22482945.6754  -12994575.71147  -9831050.15746
      3371.6244       2627.2264         43.9004         41.2004
  23986979.5324   23986981.7234   23986985.2564   -4375167.61946  -3384490.82046
      3065.2714       2388.5254         40.9004         38.3004
  23307562.8704   23307561.8724   23307563.9724   -4789017.78646  -3722865.60546
      1683.1474       1311.5404         40.3004         37.6004
  21631510.4674   21631509.7794   21631513.2714  -15322071.72548 -11924353.35347
     -1452.4484      -1131.7804         49.1004         46.1004
  23308890.9874   23308889.8824   23308895.2414   -7030442.58646  -5457559.08046
     -3104.4154      -2419.0274         41.5004         38.6004
 10  1  1  0  3  0.0000000  0  8G27G 5G15G 9G17G18G28G 8
  22205477.8194   22205477.3144   22205482.1314  -14565307.09747 -11334937.05047
      2050.5844       1597.8554         47.0004         44.2004
  24483472.8274   24483475.1244   24483478.8414     538740.82146    443959.23246
     -3729.6654      -2906.2364         39.6004         37.1004
  20452003.2014   20452003.5074   20452006.1234  -21458056.24048 -16703186.37048
       132.2934        103.0884         52.2004         49.6004
  22463713.5004   22463712.5624   22463716.8944  -13095621.96047  -9909787.46946
      3364.7704       2621.9084         44.1004         41.2004
  23969502.2214   23969502.0354   23969505.9764   -4467023.01246  -3456066.44146
      3058.4404       2383.1954         40.8004         38.5004
  23297999.4524   23297999.3934   23298001.7704   -4839261.63946  -3762016.65046
      1666.3884       1298.4944         39.9004         37.1004
  21639843.1654   21639842.6904   21639846.7824  -15278279.04548 -11890229.17747
     -1467.0524      -1143.1584         49.1004         46.1004
  23326627.7504   23326625.7564   23326630.8794   -6937238.30446  -5384932.36046
     -3109.2144      -2422.7634         41.5004         38.8004
 10  1  1  0  3 30.0000000  0  8G27G 5G15G 9G17G18G28G 8
  22193790.8924   22193790.9234   22193795.2244  -14626721.80447 -11382792.66247
      2043.7264       1592.5134         47.2004         44.4004
  24504772.9734   24504772.2334   24504776.1104     650653.98446    531164.26946
     -3731.2684      -2907.4774         39.4004         36.9004
  20451297.4844   20451297.3814   20451300.1684  -21461766.58048 -16706077.55348
       115.0484         89.6444         52.4004         49.6004
  22444524.0454   22444524.5574   22444528.2704  -13196461.17147  -9988363.47346
      3357.8314       2616.4894         44.1004         41.4004
  23952062.3594   23952062.6264   23952065.1624   -4558674.11346  -3527482.86146
      3051.5744       2377.8484         41.1004         38.8004
  23288535.6444   23288535.8824   23288538.3404   -4889000.51846  -3800774.25046
      1649.4944       1285.3344         39.9004         37.6004
  21648260.1154   21648260.1404   21648263.1024  -15234048.94148 -11855764.15947
     -1481.6194      -1154.5064         49.1004         46.1004
  23344389.6704   23344389.3744   23344393.2224   -6843890.30546  -5312193.70646
     -3113.9444      -2426.4374         41.5004         38.6004
 10  1  1  0  4  0.0000000  0  8G27G 5G15G 9G17G18G28G 8
  22182142.2844   22182142.8074   22182147.3164  -14687929.99547 -11430487.33747
      2036.8304       1587.1394         47.0004         43.9004
  24526078.3534   24526076.0124   24526081.0344     762612.67146    618404.81446
     -3732.6384      -2908.5484         39.2004         36.7004
  20450690.1554   20450689.8764   20450692.9894  -21464958.57648 -16708564.83148
        97.7554         76.1714         52.4004         49.6004
  22425375.1234   22425374.8304   22425379.1494  -13297092.00247 -10066777.05446
      3350.8664       2611.0704         44.1004         41.1004
  23934660.5974   23934660.7734   23934664.1144   -4650117.33046  -3598737.32546
      3044.5354       2372.3644         41.3004         38.6004
  23279169.2554   23279167.0514   23279169.7024   -4938232.46946  -3839136.82846
      1632.5784       1272.1384         40.3004         37.9004
  21656759.6064   21656759.2814   21656762.9694  -15189382.96648 -11820959.50047
     -1496.1134      -1165.8044         48.9004         46.1004
  23362181.1384   23362181.1444   23362183.8954   -6750400.19846  -5239344.30446
     -3118.6924      -2430.1404         41.5004         39.0004
 10  1  1  0  4 30.0000000  0  8G27G 5G15G 9G17G18G28G 8
  22170534.5924   22170534.4794   22170538.9904  -14748931.35847 -11478020.84947
      2029.9374       1581.7774         47.0004         43.9004
  24547391.4054   24547388.8054   24547394.6344     874614.24246    705678.76846
     -3734.1194      -2909.7054         38.9004         36.4004
  20450181.2134   20450181.1854   20450183.9994  -21467632.04648 -16710648.05548
        80.4554         62.6924         52.4004         49.6004
  22406264.0184   22406264.8094   22406268.8514  -13397512.50947 -10145026.78246
      3343.8184       2605.5854         44.1004         41.1004
  23917299.8924   23917299.8974   23917302.9424   -4741350.11246  -3669827.82546
      3037.5214       2366.9034         41.3004         38.6004
  23269894.2394   23269895.1794   23269898.7464   -4986955.88946  -3877103.13446
      1615.6484       1258.9484         40.8004         38.3004
  21665342.1914   21665342.0234   21665345.4834  -15144282.41748 -11785816.21247
     -1510.5814      -1177.0804         49.1004         45.9004
  23379999.2224   23379998.4504   23380001.4644   -6656769.21947  -5166385.12846
     -3123.3654      -2433.7854         42.0004         39.5004
 10  1  1  0  5  0.0000000  0  8G27G 5G15G 9G17G18G28G 8
  22158966.6184   22158966.2364   22158970.1834  -14809725.41047 -11525392.82347
      2023.0164       1576.3764         46.9004         44.0004
  24568708.8094   24568710.7104   24568712.9914     986655.91046    792983.99746
     -3735.3094      -2910.6324         38.5004         36.0004
  20449770.8384   20449771.0434   20449774.0884  -21469786.02048 -16712326.48748
        63.1344         49.1994         52.4004         49.6004
  22387195.7134   22387196.0424   22387199.9304  -13497721.49847 -10223111.69746
      3336.7514       2600.0494         44.2004         41.4004
  23899977.6284   23899979.2794   23899982.5724   -4832369.54846  -3740752.01446
      3030.3944       2361.3414         41.1004         38.6004
  23260721.8474   23260720.7064   23260723.3344   -5035169.26746  -3914672.02046
      1598.6044       1245.6674         41.1004         38.5004
  21674006.8734   21674006.5464   21674010.0794  -15098749.08748 -11750335.69547
     -1524.9734      -1188.2884         48.9004         45.9004
  23397842.4194   23397842.0764   23397846.9604   -6562998.17147  -5093316.79946
     -3128.0274      -2437.4224         42.2004         39.2004
 10  1  1  0  5 30.0000000  0  8G27G 5G15G 9G17G18G28G 8
  22147437.7894   22147436.6164   22147441.6244  -14870311.74447 -11572602.94347
      2016.0474       1570.9464         46.9004         44.0004
  24590037.9924   24590037.8174   24590041.6794    1098735.13146    880318.46245
     -3736.6124      -2911.6584         38.3004         35.9004
  20449460.0764   20449460.1144   20449463.2904  -21471420.05748 -16713599.76348
        45.8014         35.6904         52.2004         49.4004
  22368166.9414   22368167.3374   22368171.1954  -13597717.61547 -10301030.69846
      3329.6434       2594.5454         44.2004         41.6004
  23882699.2594   23882698.8804   23882702.8944   -4923172.67646  -3811507.69846
      3023.0304       2355.5964         41.6004         39.0004
  23251642.7754   23251641.9924   23251646.2394   -5082870.98146  -3951842.15046
      1581.5234       1232.3524         41.1004         38.3004
  21682754.0264   21682753.2424   21682756.6274  -15052784.86348 -11714519.41247
     -1539.3084      -1199.4614         48.8004         45.8004
  23415713.3464   23415714.1354   23415715.7034   -6469088.30046  -5020140.28046
     -3132.6044      -2440.9654         41.8004         38.5004
 10  1  1  0  6  0.0000000  0  8G27G 5G15G 9G17G18G28G 8
  22135947.8734   22135947.1424   22135951.9934  -14930689.72347 -11619650.68547
      2009.0994       1565.5334         47.0004         44.0004
  24611372.9164   24611373.9524   24611377.2244    1210849.02346    967679.90345
     -3737.6884      -2912.4814         37.8004         35.3004
  20449248.3054   20449248.4864   20449251.3884  -21472533.22248 -16714467.16948
        28.4234         22.1444         52.2004         49.4004
  22349179.2734   22349179.1764   22349184.2024  -13697499.38647 -10378782.69746
      3322.4974       2588.9494         44.6004         41.9004
  23865461.6304   23865462.3724   23865465.1764   -5013756.36746  -3882092.40546
      3015.7614       2349.9454         41.8004         39.2004
  23242664.5004   23242663.7414   23242666.7644   -5130059.10646  -3988612.13846
      1564.3524       1218.9704         41.5004         39.0004
  21691582.4884   21691581.7214   21691585.4134  -15006391.20848 -11678368.50147
     -1553.6004      -1210.6034         48.9004         45.9004
  23433607.8724   23433608.7684   23433614.6124   -6375040.44046  -4946856.21746
     -3137.2394      -2444.5884         40.9004         37.9004
 10  1  1  0  6 30.0000000  0  8G27G 5G15G 9G17G18G28G 8
  22124497.3724   22124497.5034   22124502.2624  -14990858.99447 -11666535.82047
      2002.1684       1560.1124         47.0004         44.2004
  24632713.8524   24632712.3434   24632717.9084    1322994.99346   1055066.39645
     -3738.7514      -2913.3154         36.8004         34.3004
  20449135.9474   20449135.7264   20449138.7264  -21473125.21748 -16714928.46848
        11.0254          8.5884         52.2004         49.4004
  22330233.4174   22330233.4664   22330236.4474  -13797065.20547 -10456366.42146
      3315.2664       2583.3244         44.6004         41.9004
  23848266.5964   23848267.8664   23848270.7654   -5104117.51447  -3952503.66646
      3008.4394       2344.2404         42.0004         39.2004
  23233782.6924   23233781.6424   23233785.6234   -5176731.99746  -4024980.62146
      1547.1694       1205.5874         41.6004         39.0004
  21700491.3164   21700491.1604   21700494.5164  -14959569.35148 -11641883.94247
     -1567.8384      -1221.6864         48.8004         45.6004
  23451531.8584   23451533.2204   23451537.1074   -6280855.95246  -4873465.70846
     -3141.7824      -2448.1374         41.1004         38.8004
 10  1  1  0  7  0.0000000  0  8G27G 5G15G 9G17G18G28G 8
  22113087.9974   22113087.5994   22113092.0784  -15050819.28047 -11713258.11847
      1995.1494       1554.6654         47.0004         44.2004
  24654055.0294   24654057.8824   24654062.0964    1435170.17246   1142475.58345
     -3739.6304      -2913.9974         36.3004         34.1004
  20449122.1194   20449122.4944   20449125.2214  -21473195.20548 -16714983.01248
        -6.3664         -4.9634         52.2004         49.4004
  22311327.4804   22311327.3024   22311332.3124  -13896413.85147 -10533780.89946
      3307.9824       2577.6404         44.8004         41.9004
  23831116.7104   23831116.0854   23831117.8504   -5194253.21946  -4022739.27646
      3000.7604       2338.2624         41.8004         39.2004
  23224998.7784   23224998.2564   23225002.7714   -5222888.53047  -4060946.73046
      1529.9354       1192.1544         42.0004         39.3004
  21709483.4174   21709482.6104   21709485.7914  -14912321.69148 -11605067.58147
     -1581.9954      -1232.7244         48.8004         45.8004
  23469479.4994   23469479.8604   23469484.3184   -6186535.91446  -4799969.58546
     -3146.2594      -2451.6344         41.5004         38.6004
 10  1  1  0  7 30.0000000  0  8G27G 5G15G 9G17G18G28G 8
  22101717.4714   22101717.5174   22101721.2594  -15110570.24647 -11759817.30647
      1988.2174       1549.2534         47.0004         44.0004
  24675408.3694   24675408.3854   24675414.2594    1547371.37046   1229905.06445
     -3740.5624      -2914.7154         36.4004         34.6004
  20449208.2334   20449208.3194   20449211.0934  -21472742.99748 -16714630.64648
       -23.7964        -18.5444         52.2004         49.4004
  22292463.7154   22292463.3644   22292467.6034  -13995543.55247 -10611024.81146
      3300.6494       2571.9324         44.8004         41.9004
  23814005.1314   23814004.9174   23814008.3284   -5284160.78546  -4092797.08946
      2993.1334       2332.3184         41.5004         38.6004
  23216314.8584   23216313.5664   23216316.2304   -5268527.07347  -4096509.22746
      1512.6044       1178.6684         42.0004         39.3004
  21718554.5244   21718553.8704   21718557.5474  -14864649.77548 -11567920.63047
     -1596.1214      -1243.7274         48.8004         45.8004
  23487453.8654   23487455.4444   23487458.3254   -6092081.63446  -4726368.88546
     -3150.6584      -2455.0594         41.3004         38.6004
 10  1  1  0  8  0.0000000  0  8G27G 5G15G 9G17G18G28G 8
  22090387.8554   22090387.2754   22090391.5294  -15170111.29247 -11806212.92747
      1981.1864       1543.7774         47.2004         44.2004
  24696761.6524   24696766.4204   24696771.4664    1659596.30446   1317353.06045
     -3741.1884      -2915.2104         36.8004         35.0004
  20449393.6014   20449393.9624   20449396.9444  -21471767.73548 -16713870.71248
       -41.2304        -32.1304         52.2004         49.4004
  22273641.9664   22273641.3144   22273646.4974  -14094452.79347 -10688096.91347
      3293.2824       2566.1834         44.8004         42.1004
  23796939.5364   23796941.4214   23796944.6044   -5373836.93046  -4162674.60046
      2985.3034       2326.2074         41.5004         39.0004
  23207727.5254   23207728.4494   23207730.8944   -5313646.04646  -4131666.83946
      1495.3084       1165.1654         41.6004         38.6004
  21727706.1304   21727706.3174   21727709.7724  -14816555.30048 -11530444.40947
     -1610.1794      -1254.6874         48.8004         45.8004
  23505455.3824   23505454.2304   23505459.0704   -5997493.77946  -4652664.08546
     -3155.1674      -2458.5744         41.3004         38.8004
 10  1  1  0  8 30.0000000  0  8G27G 5G15G 9G17G18G28G 8
  22079096.5704   22079096.9084   22079100.7764  -15229441.97247 -11852444.62847
      1974.1714       1538.3154         47.2004         44.2004
  24718126.8234   24718126.3274   24718131.6124    1771842.64046   1404817.74445
     -3741.8564      -2915.7264         37.0004         34.8004
  20449679.3014   20449679.2834   20449682.0984  -21470269.04748 -16712702.90848
       -58.6884        -45.7314         52.2004         49.4004
  22254861.3804   22254861.3784   22254866.7544  -14193140.32147 -10764996.25146
      3285.8654       2560.4144         44.9004         41.9004
  23779921.0904   23779920.4574   23779925.0744   -5463278.82346  -4232369.58646
      2977.4624       2320.0984         41.6004         38.8004
  23199242.0904   23199241.4594   23199244.2804   -5358243.77846  -4166418.35246
      1477.8734       1151.5774         40.9004         38.1004
  21736938.8884   21736937.8944   21736941.5724  -14768039.95448 -11492640.24147
     -1624.1674      -1265.5854         48.8004         45.6004
  23523480.0094   23523478.5184   23523483.1034   -5902773.54746  -4578856.14646
     -3159.5164      -2461.9604         41.5004         38.8004
 10  1  1  0  9  0.0000000  0  8G27G 5G15G 9G17G18G28G 8
  22067847.3094   22067846.8314   22067851.2774  -15288561.91447 -11898512.12247
      1967.1324       1532.8344         47.2004         44.4004
  24739485.9634   24739488.9754   24739494.4664    1884107.28146   1492296.65945
     -3742.3814      -2916.1394         36.6004         34.6004
  20450063.9194   20450064.0654   20450067.1394  -21468246.37648 -16711126.81248
       -76.1624        -59.3444         52.2004         49.4004
  22236126.2674   22236125.2824   22236129.1164  -14291604.46247 -10841721.54247
      3278.3974       2554.5944         44.9004         42.1004
  23762944.3534   23762944.6614   23762948.1314   -5552483.40046  -4301879.64246
      2969.5614       2313.9484         41.5004         38.6004
  23190853.0314   23190851.4884   23190855.1594   -5402318.82346  -4200762.53346
      1460.4834       1138.0394         40.4004         37.4004
  21746250.7924   21746250.3314   21746253.4004  -14719105.25348 -11454509.30847
     -1638.1324      -1276.4644         48.6004         45.6004
  23541529.1334   23541527.5654   23541531.9594   -5807922.49146  -4504946.23846
     -3163.9014      -2465.3794         40.9004         38.5004
 10  1  1  0  9 30.0000000  0  8G27G 5G15G 9G17G18G28G 8
  22056636.5594   22056636.7794   22056641.1104  -15347470.55847 -11944414.95447
      1960.1014       1527.3534         47.2004         44.2004
  24760854.4084   24760855.6294   24760858.8574    1996387.54546   1579787.78445
     -3742.9004      -2916.5464         36.8004         34.8004
  20450548.7384   20450549.2134   20450551.9044  -21465699.10748 -16709141.93448
       -93.6704        -72.9884         52.2004         49.4004
  22217431.0184   22217431.0404   22217434.5004  -14389844.00547 -10918271.80347
      3270.8774       2548.7484         44.9004         42.3004
  23746016.7304   23746016.8344   23746020.2234   -5641447.78646  -4371202.49346
      2961.3824       2307.5764         41.8004         39.7004
  23182566.1774   23182565.7524   23182570.3674   -5445869.58246  -4234698.22346
      1442.8884       1124.3384         40.1004         37.9004
  21755642.8514   21755641.9044   21755645.3294  -14669752.88448 -11416052.90547
     -1652.0364      -1287.2974         48.8004         45.8004
  23559603.6564   23559602.6774   23559607.2374   -5712941.43946  -4430935.06146
     -3168.1424      -2468.6854         40.9004         38.1004
 10  1  1  0 10  0.0000000  0  8G27G 5G15G 9G17G18G28G 8
  22045466.8914   22045466.8864   22045471.0314  -15406167.70747 -11990152.99547
      1953.0394       1521.8454         47.2004         44.0004
  24782224.2344   24782224.0654   24782227.3974    2108680.50746   1667288.75645
     -3743.2854      -2916.8484         36.8004         34.8004
  20451133.8424   20451133.7574   20451136.3644  -21462626.59948 -16706747.77648
      -111.1604        -86.6174         52.2004         49.4004
  22198780.1054   22198779.2474   22198783.1104  -14487857.25047 -10994645.73747
      3263.3044       2542.8284         45.3004         42.5004
  23729134.0584   23729133.0804   23729136.3274   -5730168.98147  -4440335.86746
      2953.3054       2301.2814         42.0004         39.2004
  23174380.2724   23174378.1544   23174383.4424   -5488894.66346  -4268224.25546
      1425.3744       1110.6884         40.6004         38.3004
  21765113.7354   21765112.8024   21765115.6404  -14619984.65848 -11377272.45647
     -1665.8464      -1298.0634         48.8004         45.8004
  23577700.8674   23577699.6294   23577705.2534   -5617831.16746  -4356823.21246
     -3172.4754      -2472.0584         39.9004         37.1004
 10  1  1  0 10 30.0000000  0  8G27G 5G15G 9G17G18G28G 8
  22034337.9474   22034337.2844   22034342.0114  -15464652.94647 -12035725.90647
      1945.9784       1516.3504         47.0004         44.2004
  24803598.9694   24803598.0444   24803600.7584    2220983.32046   1754797.45445
     -3743.6974      -2917.1684         36.6004         34.5004
  20451817.2524   20451817.7354   20451821.0844  -21459028.76448 -16703944.27348
      -128.7024       -100.2894         52.2004         49.2004
  22180171.8174   22180171.3164   22180175.8574  -14585642.73847 -11070842.19647
      3255.6964       2536.8954         45.3004         42.6004
  23712295.4924   23712298.2034   23712300.9634   -5818644.00047  -4509277.44246
      2945.0464       2294.8294         42.0004         39.3004
  23166292.1784   23166292.5574   23166296.3354   -5531392.69646  -4301339.59246
      1407.7914       1096.9774         41.3004         39.0004
  21774662.5864   21774662.0134   21774665.8084  -14569802.41148 -11338169.40947
     -1679.6144      -1308.7874         48.8004         45.8004
  23595825.7364   23595825.6614   23595829.3934   -5522593.16946  -4282611.74746
     -3176.6894      -2475.3324         39.4004         37.1004
 10  1  1  0 11  0.0000000  0  8G27G 5G15G 9G17G18G28G 8
  22023248.6004   22023248.7924   22023252.3624  -15522925.62847 -12081133.18747
      1938.8684       1510.8054         47.2004         44.2004
  24824971.0314   24824968.5214   24824972.0504    2333293.57245   1842311.94845
     -3743.6564      -2917.1294         35.7004         33.6004
  20452602.4504   20452602.7654   20452606.0674  -21454904.94348 -16700730.91848
      -146.2474       -113.9594         52.2004         49.4004
  22161606.5854   22161606.9694   22161610.5024  -14683199.04847 -11146860.08147
      3248.0144       2530.9124         45.5004         42.6004
  23695509.1084   23695508.4174   23695511.4524   -5906869.99147  -4578024.96446
      2936.6754       2288.3214         42.0004         39.3004
  23158306.5964   23158306.3104   23158308.7154   -5573362.54646  -4334043.38146
      1390.1544       1083.2474         41.8004         39.5004
  21784290.6674   21784289.6014   21784292.7084  -14519207.83248 -11298745.05547
     -1693.3584      -1319.5024         48.8004         45.6004
  23613972.3214   23613971.9384   23613977.7664   -5427228.56746  -4208301.70746
     -3180.8974      -2478.6214         39.9004         37.8004
 10  1  1  0 11 30.0000000  0  8G27G 5G15G 9G17G18G28G 8
  22012200.8424   22012200.4314   22012204.9104  -15580985.40747 -12126374.57747
      1931.7684       1505.2714         47.2004         44.4004
  24846336.1904   24846340.0134   24846343.8574    2445608.70545   1929830.23745
     -3743.8544      -2917.2974         34.9004         33.3004
  20453487.4044   20453487.7074   20453490.6494  -21450254.80148 -16697107.43348
      -163.7944       -127.6314         52.2004         49.4004
  22143087.2424   22143087.3404   22143090.7404  -14780524.77147 -11222698.27147
      3240.3224       2524.9244         45.5004         42.6004
  23678764.9544   23678768.0564   23678770.5014   -5994843.86847  -4646576.01646
      2928.2104       2281.7324         42.2004         39.7004
  23150420.3234   23150418.2234   23150421.8464   -5614802.74446  -4366334.44646
      1372.4674       1069.4664         41.6004         38.6004
  21793996.1084   21793995.3794   21793998.3454  -14468202.50348 -11259000.64047
     -1707.0024      -1330.1334         48.6004         45.4004
  23632145.9044   23632143.8554   23632147.9194   -5331737.76246  -4133893.31246
     -3185.1704      -2481.9354         40.3004         38.1004
 10  1  1  0 12  0.0000000  0  8G27G 5G15G 9G17G18G28G 8
  22001192.8094   22001192.5074   22001196.6364  -15638831.85247 -12171449.72347
      1924.6424       1499.7294         47.4004         44.5004
  24867708.8674   24867710.8654   24867717.9924    2557926.10545   2017350.31645
     -3744.0044      -2917.4074         34.9004         33.3004
  20454473.0474   20454472.8734   20454475.8284  -21445077.64748 -16693073.30048
      -181.3634       -141.3214         52.1004         49.2004
  22124610.6064   22124610.1974   22124613.9194  -14877617.97047 -11298355.29647
      3232.5604       2518.8834         45.5004         42.6004
  23662075.5294   23662075.7324   23662077.9464   -6082562.73047  -4714928.35346
      2919.7154       2275.1054         42.0004         39.2004
  23142634.8384   23142634.9704   23142638.1484   -5655711.56846  -4398211.46546
      1354.7634       1055.6684         41.5004         39.0004
  21803779.9924   21803779.3134   21803782.1754  -14416788.29648 -11218937.61247
     -1720.6124      -1340.7304         48.4004         45.4004
  23650338.4144   23650338.7974   23650343.4004   -5236122.45546  -4059387.93746
     -3189.2614      -2485.1284         40.1004         37.6004
 10  1  1  0 12 30.0000000  0  8G27G 5G15G 9G17G18G28G 8
  21990225.8774   21990225.7894   21990230.1204  -15696464.51447 -12216358.28847
      1917.5274       1494.1724         47.5004         44.7004
  24889086.6414   24889086.7714   24889091.6344    2670242.81745   2104869.89745
     -3743.9994      -2917.4034         34.7004         33.3004
  20455558.2474   20455558.4494   20455561.3964  -21439373.16648 -16688628.24848
      -198.9474       -155.0284         52.1004         49.2004
  22106179.1174   22106179.0314   22106182.7964  -14974477.11947 -11373829.94147
      3224.7144       2512.7704         45.5004         42.6004
  23645430.5914   23645431.4474   23645433.8874   -6170023.44546  -4783079.54746
      2911.0224       2268.3394         41.8004         39.2004
  23134952.3634   23134951.0294   23134954.9214   -5696087.40946  -4429673.15346
      1336.9384       1041.7764         41.8004         39.5004
  21813640.5574   21813640.2504   21813643.8344  -14364966.89448 -11178557.29747
     -1734.1204      -1351.2684         48.4004         45.4004
  23668557.5694   23668555.9244   23668561.4324   -5140383.18346  -3984785.90446
     -3193.4534      -2488.4124         39.6004         36.9004
 10  1  1  0 13  0.0000000  0  8G27G 5G15G 9G17G18G28G 8
  21979299.6754   21979298.8524   21979303.4564  -15753883.10647 -12261100.04247
      1910.3824       1488.6114         47.5004         44.5004
  24910456.6104   24910461.7444   24910460.6934    2782556.21845   2192386.76945
     -3743.8004      -2917.2494         34.2004         32.7004
  20456744.5924   20456744.5794   20456747.4764  -21433141.02048 -16683772.04448
      -216.5334       -168.7274         52.1004         49.4004
  22087791.4134   22087791.2794   22087795.4854  -15071101.03647 -11449121.28747
      3216.8584       2506.6394         45.3004         42.3004
  23628837.7294   23628838.7114   23628842.0474   -6257223.37947  -4851027.51546
      2902.2804       2261.4984         42.2004         39.5004
  23127371.1884   23127370.0314   23127373.0864   -5735929.10647  -4460718.62146
      1319.1464       1027.9094         42.2004         39.7004
  21823579.8934   21823579.2244   21823582.4704  -14312740.35848 -11137861.29547
     -1747.6304      -1361.7854         48.4004         45.4004
  23686797.9784   23686798.3584   23686803.1824   -5044521.63646  -3910088.63846
     -3197.4254      -2491.5184         39.6004         37.4004
 10  1  1  0 13 30.0000000  0  8G27G 5G15G 9G17G18G28G 8
  21968413.4464   21968413.0564   21968417.1984  -15811087.08847 -12305674.57247
      1903.2204       1483.0204         47.5004         44.4004
  24931828.0234   24931827.7134   24931835.0194    2894863.65955   2279899.02055
     -3743.7704      -2917.2324         33.3004         32.0004
  20458030.6604   20458030.9194   20458034.0004  -21426380.92248 -16678504.44848
      -234.1474       -182.4534         52.2004         49.4004
  22069449.6834   22069449.7724   22069454.3864  -15167488.38047 -11524228.28347
      3208.9684       2500.4894         45.3004         42.5004
  23612293.5914   23612293.6294   23612299.1664   -6344159.35547  -4918769.81946
      2893.4544       2254.6354         42.0004         38.6004
  23119892.3774   23119891.6794   23119893.9404   -5775235.32947  -4491346.87246
      1301.3064       1013.9984         42.7004         40.2004
  21833595.0614   21833594.7304   21833597.3874  -14260110.24148 -11096850.80147
     -1761.0544      -1372.2484         48.4004         45.4004
  23705064.3844   23705063.5104   23705068.1864   -4948538.89646  -3835296.92546
     -3201.4424      -2494.6324         40.1004         37.9004
 10  1  1  0 14  0.0000000  0  7G27G15G 9G17G18G28G 8
  21957569.3284   21957568.2094   21957572.9294  -15868075.89947 -12350081.42847
      1896.0354       1477.4304         47.4004         44.2004
  20459416.8274   20459417.7274   20459420.8854  -21419092.44248 -16672825.12248
      -251.7644       -196.1844         52.2004         49.2004
  22051152.7474   22051152.4104   22051157.2614  -15263637.15547 -11599149.41647
      3200.9634       2494.2504         45.1004         42.3004
  23595801.2824   23595801.6384   23595805.9104   -6430828.44646  -4986304.15646
      2884.4904       2247.6684         41.8004         39.0004
  23112512.8144   23112512.7844   23112516.4514   -5814005.09347  -4521557.09746
      1283.3524       1000.0294         42.7004         39.7004
  21843686.6694   21843686.1504   21843689.1184  -14207078.33348 -11055527.22747
     -1774.4114      -1382.6604         48.4004         45.2004
  23723352.6254   23723352.1234   23723357.6214   -4852435.82246  -3760411.48646
     -3205.4534      -2497.7574         40.8004         38.6004
 10  1  1  0 14 30.0000000  0  7G27G15G 9G17G18G28G 8
  21946764.7564   21946765.2124   21946768.8934  -15924849.03547 -12394320.23347
      1888.8264       1471.8024         47.4004         44.4004
  20460905.3494   20460905.2884   20460908.4444  -21411275.20648 -16666733.77148
      -269.3674       -209.8994         52.1004         49.2004
  22032902.5504   22032902.1294   22032906.9924  -15359546.25647 -11673883.75547
      3192.9474       2488.0104         45.3004         42.5004
  23579361.0874   23579360.2544   23579364.8274   -6517227.85146  -5053628.34446
      2875.4854       2240.6324         41.6004         39.2004
  23105238.1654   23105237.3844   23105240.3754   -5852236.61547  -4551347.91346
      1265.4134        986.0154         42.3004         39.5004
  21853853.8594   21853853.5134   21853856.8904  -14153646.37748 -11013891.93847
     -1787.7124      -1393.0214         48.2004         45.2004
  23741663.9884   23741662.2024   23741666.2924   -4756213.16946  -3685432.82846
     -3209.3204      -2500.7854         40.8004         37.9004
 10  1  1  0 15  0.0000000  0  7G27G15G 9G17G18G28G 8
  21936002.5674   21936002.6214   21936006.8774  -15981406.37247 -12438390.87747
      1881.6364       1466.2014         47.4004         44.5004
  20462493.0124   20462493.3754   20462496.8404  -21402928.87048 -16660230.14848
      -287.0434       -223.6694         52.1004         49.4004
  22014696.9124   22014697.0194   22014701.6654  -15455213.96147 -11748429.99547
      3184.9034       2481.7354         45.6004         42.8004
  23562972.4994   23562972.5904   23562973.5864   -6603354.48246  -5120739.99246
      2866.2894       2233.4634         41.8004         39.2004
  23098066.0274   23098064.4844   23098068.0914   -5889929.07947  -4580718.66346
      1247.4434        972.0334         42.0004         39.2004
  21864097.8644   21864097.2984   21864100.1344  -14099816.16048 -10971946.31347
     -1800.9634      -1403.3534         48.2004         45.2004
  23759996.1424   23759995.4674   23759999.3204   -4659872.27446  -3610361.99546
     -3213.3304      -2503.9064         40.3004         37.6004
 10  1  1  0 15 30.0000000  0  7G27G15G 9G17G18G28G 8
  21925282.3694   21925281.3574   21925285.5694  -16037747.53547 -12482293.08247
      1874.4284       1460.5964         47.5004         44.7004
  20464182.4084   20464182.6314   20464185.8714  -21394053.00148 -16653313.89348
      -304.6924       -237.4234         52.2004         49.4004
  21996538.7354   21996538.4284   21996542.4554  -15550638.84147 -11822787.02047
      3176.7484       2475.3824         45.5004         42.5004
  23546632.0814   23546633.7154   23546637.6874   -6689205.57346  -5187636.90946
      2857.0444       2226.2624         41.6004         38.8004
  23090994.9604   23090995.1764   23090997.5944   -5927080.83246  -4609668.07346
      1229.3564        957.9264         41.8004         38.8004
  21874416.3794   21874416.2034   21874419.7164  -14045589.28848 -10929691.60347
     -1814.1654      -1413.6424         48.4004         45.4004
  23778349.4024   23778350.5874   23778355.7804   -4563413.95346  -3535199.69146
     -3217.2424      -2506.9414         40.1004         37.6004
 10  1  1  0 16  0.0000000  0  7G27G15G 9G17G18G28G 8
  21914601.6274   21914601.5954   21914605.0274  -16093871.87647 -12526026.33347
      1867.1894       1454.9564         47.7004         44.7004
  20465971.7214   20465972.4504   20465975.8634  -21384647.31448 -16645984.79548
      -322.3614       -251.1874         52.2004         49.4004
  21978426.4534   21978425.7434   21978430.4084  -15645819.53247 -11896953.78747
      3168.6124       2469.0414         45.5004         42.6004
  23530349.1004   23530349.5564   23530352.8924   -6774777.95246  -5254316.70546
      2847.7924       2219.0454         41.5004         38.5004
  23084028.9414   23084027.4394   23084032.5754   -5963690.81646  -4638195.31846
      1211.2784        943.8504         41.6004         39.0004
  21884810.6784   21884810.4104   21884813.4204  -13990967.92248 -10887129.49547
     -1827.2894      -1423.8624         48.4004         45.2004
  23796730.7664   23796728.9074   23796733.0924   -4466839.18946  -3459946.67446
     -3221.0914      -2509.9214         40.3004         37.9004
 10  1  1  0 16 30.0000000  0  7G27G15G 9G17G18G28G 8
  21903962.9434   21903962.2804   21903966.8044  -16149778.98347 -12569590.31247
      1859.9484       1449.3094         47.7004         44.7004
  20467863.0444   20467863.3734   20467866.3824  -21374711.58048 -16638242.67548
      -340.0324       -264.9584         52.2004         49.4004
  21960360.3074   21960360.4744   21960364.0914  -15740754.59947 -11970929.16647
      3160.4204       2462.6654         45.5004         42.5004
  23514118.6414   23514120.3994   23514123.9294   -6860068.75446  -5320777.06846
      2838.3134       2211.6724         41.8004         39.5004
  23077166.7544   23077165.3964   23077168.0974   -5999757.64147  -4666299.36246
      1193.1704        929.7584         42.2004         39.7004
  21895280.1894   21895279.4324   21895282.4284  -13935953.63148 -10844261.19947
     -1840.3524      -1434.0434         48.4004         45.4004
  23815129.7004   23815128.5964   23815132.6884   -4370149.55046  -3384604.11146
     -3224.8834      -2512.9044         40.3004         37.4004
 10  1  1  0 17  0.0000000  0  7G27G15G 9G17G18G28G 8
  21893365.8544   21893365.0874   21893369.5424  -16205468.64547 -12612984.84647
      1852.6854       1443.6514         47.9004         44.9004
  20469854.1474   20469854.6794   20469857.8784  -21364245.66048 -16630087.42348
      -357.7104       -278.7314         52.1004         49.2004
  21942342.6254   21942342.0104   21942346.1284  -15835442.41147 -12044711.85147
      3152.1214       2456.1984         45.6004         42.8004
  23497947.4804   23497944.9914   23497947.8034   -6945075.51947  -5387016.09346
      2828.7694       2204.2344         42.2004         39.7004
  23070406.7544   23070405.8574   23070408.3114   -6035280.31747  -4693979.36446
      1175.0104        915.6024         42.3004         39.7004
  21905823.2194   21905822.6744   21905825.6014  -13880548.38048 -10801088.27747
     -1853.3414      -1444.1674         48.4004         45.4004
  23833548.3574   23833548.1244   23833554.5884   -4273345.75346  -3309172.63246
     -3228.7024      -2515.8694         39.4004         36.7004
 10  1  1  0 17 30.0000000  0  7G27G15G 9G17G18G28G 8
  21882809.7284   21882809.5764   21882813.4164  -16260940.29747 -12656209.49747
      1845.4194       1437.9854         47.9004         45.1004
  20471947.1134   20471947.5524   20471950.5414  -21353249.12748 -16621518.70448
      -375.3834       -292.5064         52.1004         49.2004
  21924369.9354   21924370.3874   21924375.7084  -15929881.31247 -12118300.60147
      3143.7524       2449.6814         45.6004         42.8004
  23481821.8104   23481822.4284   23481826.1684   -7029794.96247  -5453031.22446
      2819.1744       2196.7654         42.3004         39.7004
  23063750.4284   23063750.7294   23063753.6954   -6070257.52747  -4721234.33546
      1156.8144        901.3974         42.5004         39.9004
  21916439.7214   21916439.8784   21916442.7134  -13824754.08248 -10757612.18947
     -1866.2564      -1454.2244         48.2004         45.2004
  23851992.0274   23851991.8534   23851994.8254   -4176429.06846  -3233653.13446
     -3232.4154      -2518.7694         38.9004         36.6004
 10  1  1  0 18  0.0000000  0  7G27G15G 9G17G18G28G 8
  21872295.0744   21872295.4274   21872299.0024  -16316193.56347 -12699263.97947
      1838.1484       1432.3264         47.9004         45.1004
  20474140.8794   20474141.0494   20474144.1494  -21341721.99248 -16612536.52948
      -393.0864       -306.3014         52.1004         49.2004
  21906449.1314   21906447.5544   21906451.3714  -16024069.70347 -12191694.14647
      3135.4244       2443.1854         45.8004         43.0004
  23465756.8174   23465755.9074   23465759.8054   -7114224.06847  -5518820.13846
      2809.4644       2189.2004         42.3004         39.5004
  23057199.1204   23057197.8064   23057201.0954   -6104688.28947  -4748063.49746
      1138.5774        887.2274         42.7004         40.0004
  21927130.9404   21927130.3634   21927134.2404  -13768572.57248 -10713834.38847
     -1879.1654      -1464.2814         48.2004         45.2004
  23870456.8934   23870457.5434   23870461.3594   -4079400.27846  -3158046.32946
     -3236.2464      -2521.7454         38.7004         36.2004
 10  1  1  0 18 30.0000000  0  7G27G15G 9G17G18G28G 8
  21861823.1474   21861822.4434   21861826.4924  -16371228.02247 -12742147.96547
      1830.8164       1426.6064         47.9004         44.9004
  20476435.5674   20476435.6344   20476438.6444  -21329663.84148 -16603140.57648
      -410.8034       -320.1054         52.1004         49.2004
  21888572.0754   21888571.8324   21888575.5574  -16118006.03747 -12264891.28647
      3126.9914       2436.6114         45.8004         42.8004
  23449744.5964   23449744.8184   23449749.0744   -7198360.04047  -5584380.66546
      2799.6184       2181.5164         42.2004         39.3004
  23050749.6614   23050750.1104   23050753.0344   -6138571.41347  -4774465.93146
      1120.3024        872.9604         42.9004         40.0004
  21937895.4084   21937894.8554   21937898.2024  -13712005.50848 -10669756.15947
     -1891.9594      -1474.2524         48.2004         45.1004
  23888940.7044   23888940.8164   23888945.2734   -3982260.01346  -3082352.61545
     -3239.8314      -2524.5344         38.2004         35.7004
 10  1  1  0 19  0.0000000  0  7G27G15G 9G17G18G28G 8
  21851391.4104   21851391.0674   21851395.5814  -16426042.98847 -12784860.92047
      1823.4854       1420.8984         47.9004         44.9004
  20478831.1584   20478831.4074   20478834.3554  -21317074.40448 -16593330.63448
      -428.5124       -333.9064         52.1004         49.2004
  21870744.9364   21870744.3054   21870748.8324  -16211688.75147 -12337890.80347
      3118.5044       2430.0054         45.8004         43.0004
  23433791.7394   23433791.3364   23433795.0024   -7282200.05547  -5649710.53246
      2789.7174       2173.8194         42.7004         40.0004
  23044405.9884   23044406.0934   23044409.2324   -6171905.51647  -4800440.56746
      1102.0104        858.7074         42.9004         40.2004
  21948733.0544   21948733.0414   21948735.6114  -13655054.32748 -10625378.61147
     -1904.7654      -1484.2284         48.1004         45.2004
  23907448.3504   23907448.0674   23907452.1074   -3885010.04046  -3006573.44046
     -3243.5324      -2527.4204         38.2004         36.0004
 10  1  1  0 19 30.0000000  0  7G27G15G 9G17G18G28G 8
  21841001.8284   21841002.4624   21841005.9414  -16480638.13647 -12827402.58147
      1816.1654       1415.1984         47.7004         44.9004
  20481328.0404   20481328.0714   20481331.2814  -21303953.67448 -16583106.69648
      -446.2274       -347.7114         52.1004         49.2004
  21852967.1384   21852966.4034   21852969.9124  -16305116.46147 -12410691.57747
      3109.9904       2423.3624         46.2004         43.3004
  23417894.9684   23417894.7954   23417897.6364   -7365741.19647  -5714807.52746
      2779.6634       2165.9674         42.9004         40.0004
  23038169.4724   23038168.4114   23038172.2434   -6204689.49547  -4825986.52246
      1083.6224        844.3554         42.9004         39.9004
  21959642.5554   21959642.8594   21959645.3484  -13597721.48548 -10580703.67047
     -1917.4314      -1494.1044         48.1004         44.9004
  23925973.7724   23925972.5714   23925978.7184   -3787651.30746  -2930709.52145
     -3247.1254      -2530.2194         38.0004         35.7004
 10  1  1  0 20  0.0000000  0  7G27G15G 9G17G18G28G 8
  21830655.7084   21830655.1144   21830659.2574  -16535012.88747 -12869772.50247
      1808.7924       1409.4514         47.9004         44.9004
  20483925.6254   20483926.0754   20483929.4574  -21290301.34848 -16572468.52648
      -463.9464       -361.5164         52.1004         49.2004
  21835236.3364   21835236.3904   21835240.0694  -16398287.86347 -12483292.66347
      3101.4224       2416.6944         46.3004         43.5004
  23402054.7624   23402054.7064   23402056.6254   -7448980.68447  -5779669.44046
      2769.5524       2158.0784         42.7004         40.2004
  23032033.8664   23032033.7104   23032037.7754   -6236922.61647  -4851103.21746
      1065.1724        829.9924         42.7004         40.0004
  21970626.1714   21970624.9964   21970627.7364  -13540008.73747 -10535732.69847
     -1930.0464      -1503.9304         47.9004         44.9004
  23944522.1764   23944520.4964   23944525.8434   -3690184.54046  -2854761.35345
     -3250.6774      -2533.0084         37.6004         35.2004
 10  1  1  0 20 30.0000000  0  7G27G15G 9G17G18G28G 8
  21820349.7584   21820349.3434   21820353.9244  -16589166.90047 -12911970.42347
      1801.4474       1403.7274         47.9004         44.9004
  20486625.1204   20486625.0374   20486628.4884  -21276117.43948 -16561416.13848
      -481.6684       -375.3254         52.1004         49.2004
  21817555.7344   21817555.0474   21817559.5934  -16491201.06847 -12555692.54647
      3092.8004       2409.9744         46.5004         43.5004
  23386272.8224   23386272.0814   23386275.6864   -7531915.60647  -5844294.06446
      2759.3764       2150.1484         42.9004         40.0004
  23026006.0344   23026004.9284   23026009.3894   -6268603.46947  -4875789.62246
      1046.7844        815.6864         42.9004         40.0004
  21981679.2224   21981679.0224   21981682.4094  -13481917.81047 -10490467.04247
     -1942.6294      -1513.7354         47.9004         44.9004
  23963087.0464   23963087.6104   23963092.7304   -3592610.73646  -2778729.85945
     -3254.2314      -2535.7584         37.1004         35.0004
 10  1  1  0 21  0.0000000  0  7G27G15G 9G17G18G28G 8
  21810086.6334   21810086.5484   21810091.2994  -16643099.82847 -12953996.06447
      1794.0714       1397.9744         47.9004         45.1004
  20489425.3134   20489425.4064   20489428.4654  -21261401.66248 -16549949.31148
      -499.3854       -389.1324         52.1004         49.2004
  21799924.1544   21799924.0004   21799928.8904  -16583854.61047 -12627890.12647
      3084.1204       2403.2164         46.5004         43.7004
  23370547.4984   23370548.2964   23370551.8474   -7614542.76947  -5908678.86446
      2749.0584       2142.1094         42.9004         40.0004
  23020081.3804   23020081.5304   23020086.3354   -6299730.91247  -4900044.78546
      1028.4014        801.3654         42.7004         40.0004
  21992805.5334   21992805.1174   21992808.0604  -13423450.55147 -10444908.14247
     -1955.1634      -1523.4994         47.9004         44.9004
  23981678.1944   23981678.0284   23981683.7174   -3494930.96446  -2702615.75345
     -3257.6644      -2538.4354         37.1004         35.0004
 10  1  1  0 21 30.0000000  0  7G27G15G 9G17G18G28G 8
  21799866.6274   21799865.6374   21799870.3764  -16696811.03148 -12995848.93447
      1786.6734       1392.2184         48.1004         45.2004
  20492326.9934   20492327.1954   20492330.0394  -21246153.68748 -16538067.78048
      -517.1404       -402.9664         52.1004         49.2004
  21782341.5504   21782342.0044   21782346.6504  -16676246.78147 -12699884.01947
      3075.3904       2396.3994         46.7004         43.7004
  23354882.6234   23354884.7424   23354887.7824   -7696858.95947  -5972821.37146
      2738.6634       2134.0174         42.9004         40.0004
  23014265.9804   23014265.1374   23014267.3944   -6330304.28847  -4923868.19646
      1009.8484        786.9034         42.9004         40.0004
  22004002.8594   22004002.5414   22004005.6594  -13364608.85847 -10399057.46347
     -1967.6144      -1533.2074         47.9004         44.7004
  24000288.9924   24000284.4564   24000289.3164   -3397146.66046  -2626420.23345
     -3261.2004      -2541.1964         36.8004         34.6004
 10  1  1  0 22  0.0000000  0  7G27G15G 9G17G18G28G 8
  21789686.7614   21789686.7304   21789691.5104  -16750300.18048 -13037528.76147
      1779.2754       1386.4514         48.1004         45.1004
  20495329.6054   20495329.9144   20495333.1254  -21230373.62848 -16525771.64048
      -534.8704       -416.7844         52.1004         49.2004
  21764809.3934   21764809.4344   21764815.3484  -16768376.62847 -12771673.49547
      3066.6174       2389.5604         46.7004         43.7004
  23339280.1354   23339278.9864   23339283.2684   -7778861.69747  -6036719.59046
      2728.1134       2125.7904         42.9004         39.9004
  23008553.4444   23008552.6414   23008555.4024   -6360322.45447  -4947258.98646
       991.3424        772.4724         42.9004         40.2004
  22015270.5224   22015270.3584   22015273.9924  -13305394.67247 -10352916.53747
     -1980.0064      -1542.8654         47.7004         44.7004
  24018905.2764   24018908.3294   24018915.0454   -3299258.38845  -2550143.70945
     -3264.6884      -2543.9024         35.9004         34.1004
 10  1  1  0 22 30.0000000  0  7G27G15G 9G17G18G28G 8
  21779550.4984   21779550.2654   21779555.1244  -16803566.93048 -13079035.31247
      1771.8334       1380.6414         48.1004         45.1004
  20498433.3484   20498433.9364   20498437.0664  -21214061.93948 -16513061.23848
      -552.5794       -430.5834         52.1004         49.2004
  21747328.6084   21747328.5714   21747333.3624  -16860242.47547 -12843257.27747
      3057.7884       2382.6884         46.7004         43.9004
  23323735.7234   23323735.9334   23323738.3244   -7860548.95247  -6100371.96546
      2717.5984       2117.6194         42.7004         39.7004
  23002946.1164   23002946.6644   23002948.6884   -6389784.38847  -4970216.35546
       972.8104        758.0224         42.9004         40.2004
  22026610.1944   22026609.1594   22026613.1194  -13245809.74847 -10306486.72347
     -1992.3184      -1552.4544         47.9004         45.1004
  24037556.3784   24037557.9134   24037562.3984   -3201267.29945  -2473786.99445
     -3268.1004      -2546.5794         35.7004         34.3004
 10  1  1  0 23  0.0000000  0  7G27G15G 9G17G18G28G 8
  21769456.4464   21769456.6504   21769460.9084  -16856610.82348 -13120368.19747
      1764.4084       1374.8644         48.1004         45.1004
  20501638.8044   20501639.2064   20501642.3374  -21197217.75548 -16499935.90648
      -570.3384       -444.4204         52.1004         49.2004
  21729899.0354   21729898.6654   21729902.3524  -16951842.50447 -12914633.91247
      3048.8684       2375.7324         47.0004         44.0004
  23308249.6654   23308250.5454   23308255.6934   -7941916.56847  -6163775.29446
      2706.8934       2109.2664         42.5004         39.9004
  22997444.9004   22997444.8504   22997448.3374   -6418689.24747  -4992739.62946
       954.1594        743.4914         42.9004         40.0004
  22038017.9984   22038018.2424   22038021.1754  -13185856.11047 -10259769.60247
     -2004.5864      -1562.0184         47.9004         44.7004
  24056227.0884   24056225.3704   24056229.3444   -3103174.08546  -2397350.75445
     -3271.4434      -2549.1744         36.3004         34.6004
 10  1  1  0 23 30.0000000  0  7G27G15G 9G17G18G28G 8
  21759406.1334   21759405.1344   21759409.4104  -16909431.58347 -13161527.22547
      1756.9444       1369.0534         47.9004         45.1004
  20504945.9174   20504945.9884   20504949.0904  -21179841.35848 -16486395.86648
      -588.0954       -458.2524         52.1004         49.1004
  21712518.1104   21712517.6324   21712522.2644  -17043175.39547 -12985802.37847
      3039.9554       2368.7984         47.0004         44.0004
  23292829.0694   23292829.4534   23292832.0094   -8022962.26047  -6226927.75446
      2696.1284       2100.8814         42.9004         40.0004
  22992052.8234   22992052.6074   22992054.4784   -6447035.97947  -5014827.99146
       935.5754        729.0254         43.0004         40.4004
  22049497.1594   22049496.8504   22049499.5224  -13125535.28147 -10212766.35547
     -2016.7894      -1571.5254         47.7004         44.7004
  24074909.2114   24074909.6754   24074918.8794   -3004980.14046  -2320835.96545
     -3274.7934      -2551.7784         36.8004         34.6004
 10  1  1  0 24  0.0000000  0  7G27G15G 9G17G18G28G 8
  21749396.5404   21749396.1334   21749400.4994  -16962028.59548 -13202511.90347
      1749.4994       1363.2454         48.1004         45.1004
  20508353.2504   20508353.5934   20508357.0544  -21161932.57348 -16472440.97848
      -605.8254       -472.0714         51.9004         49.1004
  21695189.4884   21695189.2374   21695193.6904  -17134239.50547 -13056761.39947
      3030.9614       2361.7844         47.0004         44.0004
  23277469.2884   23277468.1464   23277471.8174   -8103683.24247  -6289827.20046
      2685.2484       2092.3984         43.0004         40.4004
  22986763.8874   22986763.8064   22986767.1134   -6474823.46947  -5036480.56646
       916.9204        714.4714         42.9004         40.2004
  22061044.9534   22061044.7324   22061048.0744  -13064849.30847 -10165478.58147
     -2028.9314      -1580.9834         47.7004         44.7004
  24093619.2894   24093618.2624   24093621.9824   -2906685.98546  -2244243.18245
     -3278.0684      -2554.3414         37.0004         35.0004
 10  1  1  0 24 30.0000000  0  7G27G15G 9G17G18G28G 8
  21739429.9384   21739430.3184   21739434.0264  -17014401.31048 -13243321.80747
      1741.9974       1357.4024         48.1004         45.1004
  20511863.1334   20511863.1944   20511866.4464  -21143491.69448 -16458071.46548
      -623.5814       -485.9074         51.9004         49.1004
  21677911.7004   21677911.4874   21677916.3074  -17225032.94347 -13127509.53147
      3021.9284       2354.7444         46.9004         43.7004
  23262170.6484   23262170.4514   23262173.7954   -8184076.72047  -6352471.44146
      2674.2724       2083.8504         43.6004         41.1004
  22981583.4894   22981582.5654   22981584.4274   -6502051.18847  -5057696.99246
       898.2424        699.9254         42.9004         40.0004
  22072662.4514   22072662.3474   22072664.7734  -13003800.22647 -10117907.86747
     -2041.0044      -1590.4004         47.7004         44.7004
  24112340.6104   24112340.6804   24112341.4064   -2808292.94146  -2167573.28945
     -3281.3794      -2556.9214         36.4004         34.3004
 10  1  1  0 25  0.0000000  0  7G27G15G 9G17G18G28G 8
  21729507.0914   21729506.6434   21729511.0754  -17066549.26048 -13283956.55847
      1734.5124       1351.5634         48.1004         45.1004
  20515473.8674   20515473.8894   20515476.2674  -21124518.31348 -16443287.03348
      -641.3124       -499.7194         51.9004         48.9004
  21660686.4594   21660686.6934   21660689.9644  -17315554.51647 -13198045.81147
      3012.8294       2347.6614         46.9004         43.9004
  23246933.9394   23246934.1954   23246938.7554   -8264139.61747  -6414858.09746
      2663.2074       2075.2504         43.7004         40.9004
  22976506.4684   22976506.7834   22976510.9134   -6528718.03547  -5078476.35046
       879.5104        685.3474         42.7004         40.0004
  22084348.9894   22084348.4154   22084350.9884  -12942389.88147 -10070055.63747
     -2053.0184      -1599.7564         47.7004         44.7004
