     2.11           OBSERVATION DATA    G (GPS)             RINEX VERSION / TYPE
teqc  2009Mar23     root                20100103 01:16:03UTCPGM / RUN BY / DATE
Linux 2.4.20-8|Pentium IV|gcc|Linux|486/DX+                 COMMENT
teqc  2009Mar23     root                20100102 01:00:00UTCCOMMENT
BIT 2 OF LLI FLAGS DATA COLLECTED UNDER A/S CONDITION       COMMENT
PTBB                                                        MARKER NAME
14234M001                                                   MARKER NUMBER
Automatic           BKG/GOWettzell+PTB                      OBSERVER / AGENCY
RT820013901         ASHTECH Z-XII3T     1L01-1D04           REC # / TYPE / VERS
CR15930             ASH700936E      SNOW                    ANT # / TYPE
  3844060.0000   709661.2700  5023129.5100                  APPROX POSITION XYZ
        0.0562        0.0000        0.0000                  ANTENNA: DELTA H/E/N
     1     1                                                WAVELENGTH FACT L1/2
     9    C1    P1    P2    L1    L2    D1    D2    S1    S2# / TYPES OF OBSERV
    30.0000                                                 INTERVAL
Forced Modulo Decimation to 30 seconds                      COMMENT
 SNR is mapped to RINEX snr flag value [0-9]                COMMENT
  L1 & L2: min(max(int(snr_dBHz/6), 0), 9)                  COMMENT
pseudorange smoothing corrections not applied               COMMENT
  2010     1     2     0     0    0.0000000     GPS         TIME OF FIRST OBS
                                                            END OF HEADER
 10  1  2  0  0  0.0000000  0  7G 5G18G 8G28G 9G27G15
  24531101.5924   24531100.0884   24531102.9274      95671.70846     92957.38446
     -3732.9304      -2908.7764         39.0004         36.6004
  23277288.3394   23277286.9554   23277289.7434   -5168244.68146  -3804260.99246
      1629.0754       1269.4124         40.1004         37.8004
  23362575.9184   23362574.8034   23362577.8404   -7865271.20246  -6109466.75646
     -3118.7974      -2430.2264         41.8004         39.2004
  21658675.4034   21658675.3694   21658679.1704  -15229767.94948 -11829671.57047
     -1498.8914      -1167.9674         48.9004         46.1004
  22419642.4914   22419642.1124   22419646.8094  -13377974.11247 -10412020.08146
      3348.7634       2609.4194         44.1004         41.2004
  22180250.7384   22180250.0904   22180254.8164  -14744403.48047 -11469438.94747
      2035.6724       1586.2294         47.2004         44.2004
  20450690.6124   20450690.1554   20450692.9844  -20276289.62748 -15779018.03648
        95.8004         74.6484         52.4004         49.6004
 10  1  2  0  0 30.0000000  0  8G17G 5G18G 8G28G 9G27G15
  23915794.7094   23915794.9254   23915798.4864   -4727307.77546  -3670167.90546
      3037.6954       2367.0374         41.3004         38.6004
  24552412.0684   24552412.8024   24552416.6324     207680.23246    180236.76946
     -3734.2774      -2909.8284         38.7004         36.4004
  23268035.7344   23268037.1384   23268038.7294   -5216862.51246  -3842145.01546
      1612.0604       1256.1504         40.8004         38.5004
  23380394.0214   23380393.4484   23380397.4984   -7771636.33347  -6036504.54646
     -3123.4924      -2433.9044         42.0004         39.5004
  21667273.1264   21667273.5564   21667277.1084  -15184584.75748 -11794463.88747
     -1513.3254      -1179.2214         48.9004         45.9004
  22400544.6074   22400545.1224   22400549.0434  -13478331.69147 -10490220.80346
      3341.7234       2603.9354         44.1004         41.2004
  22168649.0814   22168649.0544   22168653.2134  -14805370.03847 -11516945.34747
      2028.7674       1580.8624         47.0004         44.0004
  20450192.3784   20450192.4424   20450195.5054  -20278904.31948 -15781055.46648
        78.4994         61.1714         52.4004         49.6004
 10  1  2  0  1  0.0000000  0  8G17G 5G18G 8G28G 9G27G15
  23898472.2714   23898473.4954   23898477.9034   -4818331.91846  -3741095.78246
      3030.5244       2361.4444         41.3004         38.5004
  24573732.4134   24573735.6254   24573737.7964     319728.27246    267546.96646
     -3735.5344      -2910.8034         38.7004         36.4004
  23258882.0804   23258881.6644   23258884.4824   -5264970.04746  -3879631.41646
      1595.0264       1242.8814         41.3004         38.8004
  23398238.3654   23398237.5234   23398242.6124   -7677861.53447  -5963433.32346
     -3128.1324      -2437.5044         42.2004         39.2004
  21675954.1134   21675953.8654   21675957.6254  -15138969.18448 -11758919.27947
     -1527.7074      -1190.4204         48.9004         45.9004
  22381488.0514   22381488.0984   22381492.2384  -13578477.16347 -10568256.23146
      3334.6634       2598.4464         44.1004         41.2004
  22157086.5774   22157086.8134   22157090.7994  -14866129.18047 -11564290.12947
      2021.8594       1575.4704         47.0004         44.0004
  20449793.1824   20449793.6594   20449796.6784  -20280999.42548 -15782688.03248
        61.1634         47.6614         52.4004         49.6004
 10  1  2  0  1 30.0000000  0  8G17G 5G18G 8G28G 9G27G15
  23881193.4804   23881193.4504   23881196.2414   -4909139.68546  -3811855.05646
      3023.2434       2355.7674         41.3004         38.8004
  24595063.6594   24595064.4344   24595067.6804     431812.85246    354885.62446
     -3736.7794      -2911.7784         38.5004         36.0004
  23249825.3664   23249825.3224   23249826.9074   -5312565.54146  -3916718.80546
      1577.9604       1229.5794         41.6004         39.3004
  23416109.4454   23416107.3644   23416113.5504   -7583948.00446  -5890253.97346
     -3132.7854      -2441.1264         41.6004         38.5004
  21684717.0124   21684716.6234   21684719.4194  -15092922.97848 -11723039.11847
     -1542.0504      -1201.6014         48.8004         45.8004
  22362471.2684   22362471.6654   22362475.4124  -13678409.46447 -10646125.52446
      3327.4974       2592.8444         44.2004         41.4004
  22145565.1674   22145563.9804   22145568.9624  -14926680.55247 -11611472.99947
      2014.9224       1570.0674         47.0004         44.0004
  20449494.5014   20449494.0424   20449496.9354  -20282574.46848 -15783915.35048
        43.8214         34.1464         52.4004         49.4004
 10  1  2  0  2  0.0000000  0  8G17G 5G18G 8G28G 9G27G15
  23863953.7354   23863954.7444   23863958.5344   -4999727.68246  -3882443.11546
      3015.8734       2350.0364         41.6004         39.2004
  24616398.8184   24616399.6414   24616402.9854     543931.47946    442250.77545
     -3737.8384      -2912.6094         37.6004         35.0004
  23240864.9294   23240864.2644   23240867.3864   -5359647.39246  -3953405.96846
      1560.8014       1216.2144         41.8004         39.0004
  23434004.7694   23434004.8544   23434010.1854   -7489896.45546  -5816967.06546
     -3137.3744      -2444.7124         40.8004         37.6004
  21693560.6224   21693559.9974   21693563.6834  -15046447.58048 -11686824.51747
     -1556.3024      -1212.7084         48.9004         45.9004
  22343496.3794   22343496.5084   22343500.5154  -13778126.88047 -10723827.39546
      3320.3004       2587.2444         44.4004         41.8004
  22134082.1204   22134081.5084   22134086.2244  -14987023.74747 -11658493.63447
      2007.9374       1564.6254         47.0004         44.2004
  20449293.3304   20449293.4984   20449296.4014  -20283629.00648 -15784737.08548
        26.4714         20.6254         52.4004         49.6004
 10  1  2  0  2 30.0000000  0  8G17G 5G18G 8G28G 9G27G15
  23846758.7374   23846758.8174   23846762.4664   -5090093.08746  -3952857.70646
      3008.4284       2344.2214         41.8004         39.3004
  24637744.2494   24637739.5674   24637745.1734     656081.58246    529640.45745
     -3738.9844      -2913.4994         37.0004         34.6004
  23232002.5554   23232004.0724   23232006.7844   -5406213.74946  -3989691.42246
      1543.6064       1202.8154         41.8004         39.3004
  23451931.0414   23451928.5614   23451934.9194   -7395708.28646  -5743573.71446
     -3141.8674      -2448.2124         41.1004         38.8004
  21702485.8504   21702485.5594   21702488.7324  -14999544.92948 -11650276.99647
     -1570.5284      -1223.7944         48.8004         45.8004
  22324562.8954   22324561.7674   22324566.1434  -13877627.96447 -10801360.69246
      3313.0704       2581.6244         44.6004         41.8004
  22122638.3954   22122638.2524   22122642.4294  -15047158.41447 -11705351.79347
      2000.9894       1559.2154         47.0004         44.2004
  20449191.6804   20449192.0604   20449194.8494  -20284161.95048 -15785152.37948
         9.0714          7.0674         52.4004         49.6004
 10  1  2  0  3  0.0000000  0  8G17G 5G18G 8G28G 9G27G15
  23829607.7454   23829607.1404   23829609.1234   -5180232.89746  -4023096.51746
      3000.8564       2338.3264         41.8004         39.2004
  24659082.2174   24659084.1294   24659090.6324     768260.36446    617052.46945
     -3739.8084      -2914.1334         36.4004         34.3004
  23223242.7504   23223241.0284   23223243.9994   -5452263.11446  -4025574.02846
      1526.3764       1189.3804         41.8004         39.3004
  23469877.5564   23469879.0574   23469883.5504   -7301384.69246  -5670074.86646
     -3146.3514      -2451.6944         41.5004         38.6004
  21711493.0464   21711492.3684   21711495.3684  -14952216.64848 -11613397.80647
     -1584.6904      -1234.8264         48.8004         45.9004
  22305669.0364   22305668.7434   22305673.3674  -13976911.34547 -10878724.34947
      3305.7944       2575.9524         44.8004         42.1004
  22111234.4754   22111234.7294   22111239.1864  -15107084.08547 -11752047.10947
      1994.0224       1553.7834         47.0004         44.2004
  20449190.2244   20449190.1104   20449192.5004  -20284172.94948 -15785160.96048
        -8.3394         -6.5004         52.2004         49.4004
 10  1  2  0  3 30.0000000  0  8G17G 5G18G 8G28G 9G27G15
  23812496.5034   23812496.2154   23812498.6854   -5270144.15646  -4093157.23646
      2993.1694       2332.3284         41.8004         39.0004
  24680433.4964   24680437.1354   24680441.2844     880464.59446    704484.35945
     -3740.5894      -2914.7444         36.3004         34.3004
  23214576.7454   23214576.8884   23214579.3964   -5497794.55146  -4061053.09246
      1509.0344       1175.8854         41.8004         38.8004
  23487853.5924   23487854.1284   23487856.9604   -7206926.68546  -5596471.29146
     -3150.8404      -2455.2044         41.3004         38.6004
  21720578.8664   21720578.5374   21720582.3104  -14904464.22348 -11576188.12747
     -1598.7814      -1245.8034         48.8004         45.8004
  22286816.6604   22286816.6604   22286821.7274  -14075975.34447 -10955917.07246
      3298.4824       2570.2544         44.8004         41.9004
  22099871.9374   22099871.7184   22099875.0724  -15166800.32347 -11798579.22347
      1987.0784       1548.3674         47.2004         44.2004
  20449286.3674   20449286.8594   20449289.8594  -20283661.73048 -15784762.62248
       -25.7744        -20.0824         52.2004         49.4004
 10  1  2  0  4  0.0000000  0  8G17G 5G18G 8G28G 9G27G15
  23795432.1164   23795431.5164   23795434.6574   -5359824.04246  -4163037.64646
      2985.4514       2326.3174         41.6004         39.2004
  24701792.3364   24701793.4224   24701799.5844     992691.98846    791934.22245
     -3741.2634      -2915.2714         36.4004         34.8004
  23206011.1464   23206011.3094   23206013.4684   -5542806.05046  -4096126.95846
      1491.6894       1162.3594         41.5004         38.5004
  23505855.6184   23505853.9744   23505858.3934   -7112335.27946  -5522763.77746
     -3155.2544      -2458.6434         41.3004         38.8004
  21729746.0774   21729746.2764   21729749.5124  -14856289.53148 -11538649.40447
     -1612.8564      -1256.7694         48.8004         45.8004
  22268008.0124   22268007.7884   22268012.6874  -14174818.62147 -11032937.80147
      3291.0544       2564.4524         44.9004         42.1004
  22088548.5234   22088547.8504   22088551.4394  -15226306.55747 -11844947.71947
      1980.0464       1542.8984         47.2004         44.4004
  20449483.9134   20449484.0204   20449486.8844  -20282627.33848 -15783956.61748
       -43.2024        -33.6614         52.2004         49.4004
 10  1  2  0  4 30.0000000  0  8G17G 5G18G 8G28G 9G27G15
  23778409.2874   23778410.3134   23778414.6234   -5449269.51846  -4232735.40946
      2977.5344       2320.1534         41.8004         39.2004
  24723152.2764   24723154.6064   24723159.0284    1104939.70346    879399.99745
     -3741.9824      -2915.8384         36.6004         34.6004
  23197545.4414   23197545.2324   23197547.7354   -5587296.12446  -4130794.56346
      1474.3204       1148.8034         40.8004         37.9004
  23523880.5244   23523880.0134   23523883.3124   -7017611.52046  -5448953.11746
     -3159.6504      -2462.0594         41.3004         38.3004
  21738993.9754   21738993.7244   21738996.5524  -14807694.35448 -11500783.03147
     -1626.8334      -1267.6604         48.8004         45.6004
  22249240.4364   22249241.4154   22249245.4264  -14273439.70147 -11109785.37946
      3283.6774       2558.6974         44.9004         41.9004
  22077262.9704   22077263.3364   22077268.0234  -15285602.39147 -11891152.25347
      1972.9794       1537.3824         47.2004         44.2004
  20449780.2524   20449780.5194   20449783.2834  -20281069.31148 -15782742.58148
       -60.6604        -47.2664         52.2004         49.4004
 10  1  2  0  5  0.0000000  0  8G17G 5G18G 8G28G 9G27G15
  23761432.4214   23761433.5444   23761438.3414   -5538477.58546  -4302248.19246
      2969.5544       2313.9514         41.6004         38.8004
  24744514.5344   24744519.1614   24744525.1134    1217205.07846    966879.48045
     -3742.5754      -2916.2994         36.6004         34.8004
  23189176.5434   23189177.1594   23189179.3264   -5631262.99346  -4165054.46646
      1456.8324       1135.1814         40.3004         37.4004
  23541930.8654   23541929.2264   23541934.0504   -6922756.49546  -5375040.16446
     -3164.0184      -2465.4554         40.9004         38.3004
  21748320.9504   21748320.6404   21748323.6904  -14758680.13748 -11462590.13347
     -1640.7574      -1278.5104         48.6004         45.6004
  22230518.2134   22230517.2924   22230520.2524  -14371837.05147 -11186458.63446
      3276.1664       2552.8594         44.8004         41.9004
  22066021.4894   22066020.4194   22066024.6654  -15344687.34747 -11937192.47447
      1965.9874       1531.9384         47.2004         44.4004
  20450176.6224   20450176.5534   20450179.4044  -20278987.13748 -15781120.12248
       -78.1464        -60.8944         52.2004         49.4004
 10  1  2  0  5 30.0000000  0  8G17G 5G18G 8G28G 9G27G15
  23744504.9114   23744505.7624   23744507.6174   -5627445.27846  -4371573.62346
      2961.5394       2307.6884         41.8004         39.5004
  24765882.4264   24765884.3334   24765889.1424    1329485.17346   1054370.47045
     -3742.9384      -2916.5774         37.0004         35.0004
  23180912.2264   23180909.4854   23180913.3164   -5674705.58746  -4198905.87546
      1439.3794       1121.5894         40.4004         37.9004
  23560004.4334   23560004.9384   23560010.5184   -6827771.61446  -5301026.02646
     -3168.2874      -2468.7964         40.9004         38.1004
  21757727.9874   21757727.3564   21757730.4474  -14709248.69048 -11424072.12247
     -1654.6524      -1289.3354         48.8004         45.8004
  22211834.9404   22211834.8544   22211839.0914  -14470009.41647 -11262956.57847
      3268.6094       2546.9584         44.9004         42.1004
  22054817.1424   22054816.6504   22054821.0664  -15403560.97747 -11983068.00347
      1958.9054       1526.4164         47.4004         44.4004
  20450672.4314   20450672.9994   20450675.8934  -20276380.30148 -15779088.83248
       -95.6404        -74.5254         52.2004         49.6004
 10  1  2  0  6  0.0000000  0  8G17G 5G18G 8G28G 9G27G15
  23727621.6704   23727620.8174   23727624.5664   -5716169.45247  -4440709.33746
      2953.3644       2301.3204         42.2004         39.5004
  24787255.7824   24787254.7654   24787256.7484    1441777.30846   1141870.80745
     -3743.1764      -2916.7624         36.8004         34.6004
  23172744.7144   23172744.4154   23172747.0994   -5717622.38646  -4232347.51946
      1421.7694       1107.8744         40.6004         38.5004
  23578104.5644   23578104.6714   23578108.5524   -6732657.75246  -5226911.37446
     -3172.6094      -2472.1624         40.1004         36.7004
  21767213.4994   21767212.7424   21767216.2544  -14659401.86548 -11385230.43147
     -1668.4654      -1300.1084         48.8004         45.8004
  22193197.3604   22193196.5754   22193200.9644  -14567955.21847 -11339277.97147
      3261.0594       2541.0764         45.1004         42.3004
  22043653.4514   22043653.4954   22043658.1084  -15462222.99547 -12028778.66147
      1951.8684       1520.9374         47.2004         44.2004
  20451269.0304   20451268.9714   20451271.5654  -20273248.49748 -15776648.47148
      -113.1604        -88.1774         52.4004         49.4004
 10  1  2  0  6 30.0000000  0  8G17G 5G18G 8G28G 9G27G15
  23710784.2564   23710784.4384   23710788.2904   -5804647.11247  -4509652.97346
      2945.1164       2294.8934         42.0004         39.3004
  24808627.1644   24808626.2484   24808627.3914    1554079.01346   1229378.62745
     -3743.5304      -2917.0344         36.4004         34.5004
  23164679.1594   23164678.1574   23164681.6604   -5760011.95546  -4265378.34346
      1404.1614       1094.1594         41.5004         39.3004
  23596229.1124   23596228.7734   23596232.9644   -6637415.86646  -5152696.94046
     -3176.8904      -2475.5094         39.6004         37.1004
  21776777.4564   21776777.2944   21776780.5064  -14609141.33748 -11346066.37747
     -1682.2294      -1310.8244         48.8004         45.8004
  22174601.4044   22174602.0984   22174606.2874  -14665672.72147 -11415421.49547
      3253.4254       2535.1244         45.3004         42.6004
  22032531.7264   22032531.0394   22032535.9194  -15520672.91647 -12074324.04347
      1944.7854       1515.4134         47.2004         44.4004
  20451964.4214   20451964.5664   20451967.3204  -20269590.93348 -15773798.43048
      -130.6964       -101.8454         52.2004         49.2004
 10  1  2  0  7  0.0000000  0  8G17G 5G18G 8G28G 9G27G15
  23693995.1704   23693993.9894   23693997.6824   -5892875.60747  -4578402.47046
      2936.7454       2288.3584         42.0004         39.2004
  24830000.5704   24829996.2974   24830000.7704    1666387.68946   1316891.87145
     -3743.7364      -2917.1944         36.1004         34.1004
  23156712.8454   23156712.3264   23156715.9094   -5801872.58947  -4297997.02446
      1386.5174       1080.4074         42.0004         39.5004
  23614377.5804   23614376.9194   23614380.6744   -6542047.31546  -5078383.86146
     -3181.1304      -2478.8044         39.9004         37.6004
  21786420.0894   21786419.4134   21786422.8484  -14558468.59848 -11306581.12247
     -1695.9324      -1321.5074         48.6004         45.6004
  22156050.7124   22156050.9824   22156054.7174  -14763160.66647 -11491386.12947
      3245.7534       2529.1654         45.5004         42.5004
  22021449.1894   22021449.0234   22021453.3474  -15578910.25547 -12119703.77947
      1937.6804       1509.8834         47.4004         44.4004
  20452760.5194   20452760.7964   20452763.9164  -20265407.40148 -15770538.55148
      -148.2274       -115.5024         52.2004         49.4004
 10  1  2  0  7 30.0000000  0  8G17G 5G18G 8G28G 9G27G15
  23677252.6624   23677253.5224   23677256.1144   -5980851.99047  -4646955.48446
      2928.3424       2281.8484         42.2004         39.7004
  24851367.8654   24851366.9784   24851373.4034    1778700.79045   1404408.62345
     -3743.8214      -2917.2734         35.6004         33.8004
  23148847.5124   23148847.4044   23148850.3224   -5843203.09446  -4330202.62046
      1368.8274       1066.6304         41.8004         38.8004
  23632550.0074   23632548.9764   23632553.5604   -6446552.65146  -5003972.46446
     -3185.2464      -2482.0154         40.4004         37.8004
  21796139.8064   21796140.0064   21796143.9404  -14507385.77548 -11266776.31847
     -1709.5734      -1332.1364         48.6004         45.6004
  22137544.0294   22137542.8344   22137547.2534  -14860417.46047 -11567170.61547
      3238.0214       2523.1334         45.5004         42.5004
  22010407.6214   22010407.3004   22010411.3764  -15636934.77447 -12164917.67347
      1930.6024       1504.3664         47.2004         44.4004
  20453657.1804   20453657.0224   20453660.3104  -20260697.23448 -15766868.28648
      -165.7844       -129.1844         52.2004         49.4004
 10  1  2  0  8  0.0000000  0  8G17G 5G18G 8G28G 9G27G15
  23660559.4164   23660559.4764   23660564.0704   -6068573.31946  -4715309.72146
      2919.7694       2275.1414         41.8004         38.8004
  24872736.8264   24872739.3704   24872743.2004    1891015.04045   1491926.27145
     -3743.7294      -2917.2004         35.0004         33.4004
  23141084.1364   23141083.1684   23141087.1654   -5884002.25346  -4361994.15746
      1351.0634       1052.7834         41.8004         39.0004
  23650743.6684   23650743.9804   23650748.7074   -6350933.57546  -4929464.16946
     -3189.4004      -2485.2534         40.1004         37.4004
  21805938.9504   21805938.6014   21805942.1834  -14455894.54148 -11226653.27347
     -1723.1604      -1342.7234         48.6004         45.4004
  22119081.1484   22119080.5004   22119083.7464  -14957441.30247 -11642773.60847
      3230.2334       2517.0614         45.3004         42.5004
  21999407.5264   21999406.7784   21999410.6374  -15694745.83447 -12209965.24647
      1923.4654       1498.7974         47.4004         44.7004
  20454653.7554   20454653.7914   20454656.3354  -20255460.35948 -15762787.61448
      -183.3544       -142.8754         52.2004         49.4004
 10  1  2  0  8 30.0000000  0  8G17G 5G18G 8G28G 9G27G15
  23643915.3654   23643916.1034   23643919.5324   -6156036.29046  -4783462.69746
      2911.0934       2268.3894         41.8004         39.3004
  24894112.1084   24894111.7184   24894118.7414    2003327.70745   1579442.67245
     -3743.7024      -2917.1704         34.7004         33.3004
  23133421.5504   23133420.8864   23133424.8654   -5924268.45846  -4393370.39946
      1333.3024       1038.9584         41.8004         39.5004
  23668964.4414   23668963.1694   23668966.4394   -6255191.05146  -4854859.66646
     -3193.5514      -2488.4844         39.6004         36.7004
  21815815.1544   21815814.4704   21815818.1644  -14403996.45448 -11186213.20647
     -1736.6864      -1353.2614         48.4004         45.4004
  22100662.1614   22100662.0564   22100666.1944  -15054230.80547 -11718193.99247
      3222.3844       2510.9534         45.3004         42.5004
  21988446.7544   21988446.1664   21988449.8044  -15752343.04047 -12254846.17947
      1916.3384       1493.2484         47.5004         44.5004
  20455750.6514   20455750.6054   20455753.2354  -20249696.02648 -15758295.93048
      -200.9314       -156.5714         52.2004         49.2004
 10  1  2  0  9  0.0000000  0  8G17G 5G18G 8G28G 9G27G15
  23627322.3144   23627322.9964   23627327.5234   -6243238.41547  -4851412.40646
      2902.3724       2261.5964         42.0004         39.3004
  24915484.6484   24915483.9024   24915489.6094    2115636.55345   1666955.98845
     -3743.5914      -2917.0904         34.0004         32.7004
  23125860.4474   23125860.7714   23125862.9464   -5964000.36447  -4424330.33146
      1315.4624       1025.0414         42.2004         39.7004
  23687207.4484   23687205.7784   23687211.6694   -6159325.99046  -4780159.68946
     -3197.5554      -2491.6004         39.4004         37.1004
  21825768.3364   21825767.9864   21825771.2094  -14351693.38648 -11145457.57047
     -1750.1674      -1363.7634         48.4004         45.4004
  22082288.1364   22082288.2154   22082291.7014  -15150784.57647 -11793430.69247
      3214.5024       2504.7984         45.1004         42.1004
  21977526.8024   21977526.4594   21977530.6104  -15809725.91747 -12299560.10547
      1909.1644       1487.6654         47.7004         44.7004
  20456948.0964   20456948.0574   20456950.7894  -20243403.94648 -15753393.01548
      -218.5394       -170.2854         52.2004         49.4004
 10  1  2  0  9 30.0000000  0  8G17G 5G18G 8G28G 9G27G15
  23610778.3434   23610778.1254   23610782.1054   -6330176.47046  -4919156.36146
      2893.4884       2254.6794         41.8004         38.8004
  24936854.1814   24936852.7594   24936857.3904    2227938.72245   1754464.12745
     -3743.3274      -2916.8834         33.3004         32.4004
  23118404.7484   23118402.5984   23118404.7724   -6003196.49847  -4454872.78046
      1297.5854       1011.0954         42.7004         40.2004
  23705471.1334   23705471.3214   23705477.1144   -6063339.48546  -4705365.04946
     -3201.5934      -2494.7464         39.7004         37.6004
  21835798.0094   21835797.5034   21835800.5884  -14298987.05248 -11104387.69647
     -1763.5914      -1374.2274         48.4004         45.4004
  22063959.9814   22063959.6904   22063963.4534  -15247101.26247 -11868482.62447
      3206.5774       2498.6424         45.3004         42.3004
  21966647.3694   21966646.6624   21966651.7604  -15866894.18947 -12344106.79347
      1902.0344       1482.1074         47.5004         44.5004
  20458245.5514   20458245.7144   20458248.7244  -20236583.75148 -15748078.59048
      -236.1464       -184.0074         52.2004         49.4004
 10  1  2  0 10  0.0000000  0  8G17G 5G18G 8G28G 9G27G15
  23594285.3014   23594285.5754   23594289.2234   -6416847.59546  -4986692.29546
      2884.5714       2247.7274         41.6004         39.2004
  24958217.1024   24958222.9834   24958223.8394    2340232.15255   1841965.67155
     -3743.1634      -2916.7414         32.8004         32.0004
  23111045.0204   23111045.4254   23111048.8944   -6041855.74647  -4484996.88246
      1279.6914        997.1584         42.7004         39.9004
  23723759.7314   23723760.2294   23723766.5094   -5967232.15646  -4630476.31246
     -3205.5934      -2497.8564         40.6004         38.5004
  21845903.7224   21845903.5034   21845906.4624  -14245879.17448 -11063004.92647
     -1776.9344      -1384.6204         48.4004         45.4004
  22045676.1934   22045676.1044   22045681.2344  -15343179.44647 -11943348.74647
      3198.6214       2492.4434         45.1004         42.5004
  21955810.5374   21955809.2864   21955813.6314  -15923847.45847 -12388485.95647
      1894.8464       1476.5074         47.5004         44.4004
  20459643.0514   20459644.0014   20459647.2004  -20229235.18148 -15742352.43848
      -253.7604       -197.7334         52.2004         49.4004
 10  1  2  0 10 30.0000000  0  7G17G18G 8G28G 9G27G15
  23577843.8084   23577844.6814   23577847.2914   -6503248.78246  -5054017.90846
      2875.4864       2240.6454         41.6004         39.0004
  23103792.3774   23103791.2124   23103794.4834   -6079976.92947  -4514701.71446
      1261.6904        983.1364         42.5004         39.5004
  23742075.7954   23742073.4424   23742076.5884   -5871005.62446  -4555494.64946
     -3209.5204      -2500.9244         40.9004         38.3004
  21856086.6134   21856085.8594   21856088.3794  -14192371.62848 -11021310.74047
     -1790.2094      -1394.9624         48.4004         45.4004
  22027440.0684   22027438.9174   22027443.1724  -15439017.49447 -12018027.72147
      3190.5654       2486.1564         45.3004         42.3004
  21945012.9594   21945013.2804   21945016.1734  -15980585.01847 -12432697.04547
      1887.6574       1470.9004         47.5004         44.5004
  20461143.5674   20461143.2764   20461146.0964  -20221357.75048 -15736214.19148
      -271.4084       -211.4864         52.2004         49.2004
 10  1  2  0 11  0.0000000  0  7G17G18G 8G28G 9G27G15
  23561454.7214   23561454.8384   23561456.8214   -6589376.82646  -5121130.69146
      2866.2954       2233.4744         41.8004         39.2004
  23096639.0154   23096639.7144   23096642.1114   -6117558.51747  -4543986.05646
      1243.6404        969.0374         42.2004         39.2004
  23760405.5464   23760404.6664   23760410.0074   -5774660.73446  -4480420.73046
     -3213.4284      -2503.9744         40.3004         37.4004
  21866343.7874   21866343.5824   21866346.3844  -14138466.39548 -10979306.65447
     -1803.4584      -1405.2944         48.4004         45.4004
  22009248.2104   22009247.7124   22009252.5684  -15534613.73047 -12092518.28047
      3182.5104       2479.8734         45.5004         42.6004
  21934256.1284   21934257.1354   21934261.2864  -16037106.58947 -12476739.81547
      1880.4354       1465.2714         47.5004         44.7004
  20462742.5944   20462742.7194   20462746.0154  -20212951.06748 -15729663.53348
      -289.0444       -225.2274         52.1004         49.4004
 10  1  2  0 11 30.0000000  0  7G17G18G 8G28G 9G27G15
  23545114.3534   23545116.7324   23545120.6894   -6675229.13646  -5188028.58946
      2857.1004       2226.3184         41.8004         39.2004
  23089591.8444   23089590.6904   23089592.4064   -6154599.22946  -4572848.95346
      1225.6914        955.0754         41.8004         38.8004
  23778759.7024   23778760.6474   23778766.3594   -5678198.39846  -4405255.31746
     -3217.3214      -2506.9984         39.7004         37.4004
  21876677.6214   21876676.5894   21876679.9864  -14084165.09348 -10936993.94947
     -1816.6174      -1415.5444         48.4004         45.4004
  21991102.6374   21991102.0724   21991106.8244  -15629966.44147 -12166819.08847
      3174.3154       2473.4934         45.5004         42.5004
  21923543.6994   21923543.0004   21923546.5344  -16093411.64147 -12520613.87947
      1873.2164       1459.6494         47.5004         44.7004
  20464442.8784   20464443.4814   20464446.8924  -20204014.83148 -15722700.23648
      -306.7174       -238.9964         52.2004         49.4004
 10  1  2  0 12  0.0000000  0  7G17G18G 8G28G 9G27G15
  23528834.5244   23528833.0374   23528835.0094   -6760802.73846  -5254709.34246
      2847.8164       2219.0704         41.8004         38.8004
  23082644.0474   23082643.8054   23082648.1344   -6191098.02446  -4601289.56046
      1207.5584        940.9584         41.8004         39.5004
  23797142.4164   23797141.5004   23797144.6084   -5581620.32846  -4329999.73646
     -3221.2314      -2510.0384         40.1004         37.6004
  21887085.3404   21887085.2394   21887087.7424  -14029469.73548 -10894374.19047
     -1829.7374      -1425.7714         48.4004         45.4004
  21973004.0264   21973003.8374   21973007.7504  -15725074.30447 -12240929.08647
      3166.1494       2467.1124         45.5004         42.5004
  21912869.8874   21912869.6244   21912872.5634  -16149500.09747 -12564319.15947
      1865.9764       1454.0074         47.7004         44.7004
  20466244.1164   20466244.6454   20466247.9114  -20194548.91848 -15715324.20448
      -324.3634       -252.7524         52.2004         49.2004
 10  1  2  0 12 30.0000000  0  7G17G18G 8G28G 9G27G15
  23512600.3354   23512603.0824   23512605.9564   -6846094.87946  -5321170.76146
      2838.3454       2211.7014         41.6004         39.2004
  23075804.6474   23075803.9074   23075805.7694   -6227053.51547  -4629306.82146
      1189.4464        926.8474         42.3004         39.7004
  23815541.6554   23815541.4814   23815544.3324   -5484926.84846  -4254654.21846
     -3225.0394      -2513.0194         40.1004         37.4004
  21897568.1544   21897568.1754   21897570.9254  -13974381.72848 -10851448.46547
     -1842.7934      -1435.9444         48.4004         45.4004
  21954952.8904   21954952.5924   21954956.5104  -15819935.79547 -12314847.13947
      3157.9374       2460.7314         45.6004         42.8004
  21902237.6024   21902237.4504   21902241.3474  -16205371.40347 -12607855.23747
      1858.7274       1448.3624         47.7004         44.9004
  20468146.5104   20468146.6984   20468150.0514  -20184553.00248 -15707535.18548
      -342.0254       -266.5104         52.1004         49.2004
 10  1  2  0 13  0.0000000  0  7G17G18G 8G28G 9G27G15
  23496428.3814   23496426.5104   23496429.1914   -6931102.29747  -5387410.33146
      2828.7664       2204.2384         42.0004         39.3004
  23069065.4584   23069065.1064   23069067.6544   -6262464.78147  -4656900.01746
      1171.2734        912.6864         42.7004         40.0004
  23833960.4994   23833960.6234   23833966.3364   -5388119.44646  -4179219.90946
     -3228.8744      -2516.0194         39.6004         36.7004
  21908125.8054   21908125.0394   21908128.0424  -13918903.13848 -10808218.38747
     -1855.7974      -1446.0674         48.4004         45.2004
  21936948.6044   21936948.2814   21936952.4674  -15914549.52147 -12388572.11047
      3149.6764       2454.2984         45.6004         42.8004
  21891647.1114   21891646.8454   21891651.0174  -16261025.17147 -12651221.81147
      1851.4834       1442.7194         47.9004         44.9004
  20470149.0324   20470149.8854   20470153.0714  -20174026.63748 -15699332.83148
      -359.7194       -280.2994         52.1004         49.4004
 10  1  2  0 13 30.0000000  0  7G17G18G 8G28G 9G27G15
  23480302.8964   23480304.3764   23480307.3644   -7015822.14547  -5453425.79546
      2819.1854       2196.7654         42.2004         39.5004
  23062431.0494   23062430.0864   23062433.0054   -6297330.33347  -4684067.96946
      1153.0724        898.4884         42.7004         39.7004
  23852406.2744   23852404.9004   23852412.1204   -5291198.52946  -4103697.15546
     -3232.5854      -2518.8734         39.2004         36.6004
  21918756.3584   21918756.3144   21918759.6284  -13863035.70248 -10764685.30947
     -1868.7004      -1456.1224         48.2004         45.2004
  21918990.1954   21918991.5524   21918995.5914  -16008913.79847 -12462102.71447
      3141.3164       2447.7764         45.8004         43.0004
  21881098.4174   21881097.9614   21881101.7844  -16316460.73947 -12694418.34747
      1844.2084       1437.0504         47.9004         44.9004
  20472253.9374   20472254.1124   20472257.1824  -20162969.72348 -15690717.05948
      -377.4154       -294.0884         52.1004         49.2004
 10  1  2  0 14  0.0000000  0  7G17G18G 8G28G 9G27G15
  23464239.5034   23464238.7984   23464241.5094   -7100251.79247  -5519215.14346
      2809.4284       2189.1774         42.2004         39.3004
  23055899.7124   23055899.5264   23055902.2494   -6331649.05947  -4710809.83246
      1134.8364        884.2834         42.5004         39.7004
  23870872.3324   23870870.8524   23870876.3704   -5194165.68946  -4028087.22246
     -3236.3104      -2521.7974         39.0004         36.6004
  21929461.4244   21929460.7244   21929464.1144  -13806781.32448 -10720850.73747
     -1881.5954      -1466.1804         48.2004         45.2004
  21901082.2764   21901081.7334   21901086.2154  -16103027.42447 -12535437.99647
      3132.9354       2441.2404         46.0004         43.2004
  21870589.9014   21870590.6334   21870594.3844  -16371677.94547 -12737444.72447
      1836.9244       1431.3734         47.9004         45.1004
  20474459.0084   20474458.8914   20474462.3574  -20151382.24548 -15681687.86148
      -395.1034       -307.8734         52.1004         49.2004
 10  1  2  0 14 30.0000000  0  7G17G18G 8G28G 9G27G15
  23448227.8664   23448226.7904   23448230.9964   -7184388.14747  -5584775.95446
      2799.6484       2181.5584         42.0004         39.3004
  23049473.0604   23049472.9374   23049475.5424   -6365419.90947  -4737124.78446
      1116.5804        870.0434         42.7004         40.0004
  23889356.4144   23889355.9584   23889361.4344   -5097021.89246  -3952390.80145
     -3239.9844      -2524.6474         38.3004         35.9004
  21940239.3514   21940239.0304   21940241.8854  -13750141.82348 -10676716.05547
     -1894.3804      -1476.1414         48.2004         45.1004
  21883221.6174   21883221.0464   21883223.8024  -16196888.95347 -12608576.84047
      3124.4874       2434.6704         45.8004         42.8004
  21860125.5404   21860124.5854   21860128.6264  -16426676.04147 -12780300.36747
      1829.6224       1425.6814         47.9004         44.9004
  20476764.6944   20476765.3704   20476768.2184  -20139263.53048 -15672244.72048
      -412.8114       -321.6694         52.1004         49.2004
 10  1  2  0 15  0.0000000  0  7G17G18G 8G28G 9G27G15
  23432272.9204   23432272.8834   23432278.1394   -7268228.27447  -5650105.90846
      2789.7034       2173.7934         42.3004         39.9004
  23043151.0554   23043151.8644   23043154.5044   -6398641.63247  -4763011.85246
      1098.2504        855.7714         42.9004         39.9004
  23907862.0004   23907862.8984   23907869.2664   -4999768.09946  -3876608.65845
     -3243.6164      -2527.4924         38.2004         35.9004
  21951091.0374   21951090.2594   21951093.2524  -13693119.09048 -10632282.75347
     -1907.1264      -1486.0714         48.1004         45.1004
  21865407.2284   21865408.1694   21865412.0964  -16290496.50347 -12681517.78447
      3115.9964       2428.0554         46.0004         43.3004
  21849700.4174   21849700.6004   21849704.3894  -16481454.75147 -12822985.06847
      1822.3034       1419.9674         47.9004         44.9004
  20479172.5394   20479172.3964   20479175.5634  -20126613.51348 -15662387.56848
      -430.5354       -335.4804         52.1004         49.4004
 10  1  2  0 15 30.0000000  0  7G17G18G 8G28G 9G27G15
  23416376.1544   23416376.1134   23416381.4084   -7351769.13047  -5715202.70146
      2779.6374       2165.9414         42.5004         40.0004
  23036933.6114   23036933.4954   23036938.0524   -6431313.31747  -4788470.31846
      1079.8564        841.4554         42.7004         39.7004
  23926389.7104   23926390.3264   23926393.3454   -4902405.63346  -3800741.85445
     -3247.2034      -2530.2824         37.8004         35.3004
  21962013.8124   21962013.7784   21962016.8304  -13635714.82948 -10587552.16547
     -1919.8164      -1495.9634         48.1004         44.9004
  21847645.6484   21847643.9854   21847647.3984  -16383848.43247 -12754259.53147
      3107.4354       2421.3784         46.2004         43.3004
  21839318.2044   21839318.3674   21839322.3964  -16536013.62847 -12865498.47547
      1814.9554       1414.2544         47.9004         44.9004
  20481680.9934   20481680.8344   20481683.9004  -20113432.08248 -15652116.33848
      -448.2554       -349.2904         52.1004         49.2004
 10  1  2  0 16  0.0000000  0  7G17G18G 8G28G 9G27G15
  23400537.3314   23400537.6454   23400538.7304   -7435008.12547  -5780064.23546
      2769.5614       2158.1014         42.7004         39.9004
  23030821.3674   23030820.0564   23030824.3154   -6463433.64047  -4813499.13946
      1061.4644        827.1034         42.7004         39.9004
  23944940.6204   23944938.6104   23944942.0464   -4804934.96046  -3724790.67145
     -3250.8234      -2533.1144         37.6004         35.0004
  21973010.3734   21973009.8124   21973012.4224  -13577930.96947 -10542525.77747
     -1932.4394      -1505.7974         47.9004         44.9004
  21829929.1794   21829928.5604   21829931.7144  -16476943.33347 -12826800.99247
      3098.8644       2414.6874         46.5004         43.5004
  21828978.7784   21828978.1854   21828981.7344  -16590352.12447 -12907840.15547
      1807.6034       1408.5204         47.9004         44.9004
  20484289.3894   20484290.1164   20484293.4114  -20099719.10748 -15641430.90448
      -465.9564       -363.0824         52.1004         49.2004
 10  1  2  0 16 30.0000000  0  7G17G18G 8G28G 9G27G15
  23384756.9924   23384755.7404   23384758.3344   -7517942.45147  -5844688.36246
      2759.3554       2150.1324         43.0004         40.4004
  23024813.7584   23024813.8694   23024817.9764   -6495001.56247  -4838097.51846
      1043.0284        812.7424         42.5004         39.7004
  23963508.2964   23963508.4574   23963511.9774   -4707357.46646  -3648756.35645
     -3254.2824      -2535.7994         37.6004         35.5004
  21984077.9684   21984077.3284   21984080.5214  -13519769.01947 -10497204.78047
     -1945.0294      -1515.6124         47.9004         44.9004
  21812262.5064   21812261.9504   21812265.9704  -16569780.17347 -12899141.37847
      3090.2464       2407.9814         46.5004         43.5004
  21818679.6374   21818679.3204   21818684.0954  -16644470.02547 -12950009.94847
      1800.2374       1402.7784         47.9004         44.9004
  20487000.7734   20487001.0874   20487004.0844  -20085474.32948 -15630331.09548
      -483.7084       -376.9154         52.1004         49.2004
 10  1  2  0 17  0.0000000  0  7G17G18G 8G28G 9G27G15
  23369031.1284   23369031.4914   23369035.2714   -7600568.66947  -5909072.39646
      2748.9984       2142.0614         42.9004         39.9004
  23018913.9354   23018912.4614   23018916.0424   -6526015.97247  -4862264.59546
      1024.5524        798.3454         42.9004         40.2004
  23982094.7294   23982095.5224   23982103.9454   -4609674.02346  -3572639.41545
     -3257.9384      -2538.6614         37.5004         35.2004
  21995217.0194   21995216.8594   21995220.2424  -13461231.31947 -10451590.99647
     -1957.4944      -1525.3184         47.9004         44.9004
  21794645.8814   21794645.7524   21794649.4924  -16662357.04847 -12971279.20647
      3081.5564       2401.2184         46.7004         44.0004
  21808423.2454   21808423.2364   21808428.3094  -16698366.67447 -12992007.33447
      1792.8604       1397.0344         47.9004         45.1004
  20489812.6544   20489812.7894   20489815.8234  -20070697.73048 -15618816.87348
      -501.4364       -390.7284         52.1004         49.2004
 10  1  2  0 17 30.0000000  0  7G17G18G 8G28G 9G27G15
  23353366.2884   23353367.3524   23353370.8934   -7682884.35347  -5973214.49346
      2738.6474       2134.0174         42.9004         40.2004
  23013117.4314   23013116.7394   23013118.6254   -6556476.23947  -4885999.88046
      1006.0924        783.9764         42.9004         40.2004
  24000706.5384   24000701.7984   24000709.9364   -4511885.39946  -3496440.57645
     -3261.2664      -2541.2564         36.8004         34.5004
  22006428.1764   22006427.1624   22006430.3294  -13402319.56647 -10405685.72947
     -1969.9364      -1535.0154         47.9004         44.7004
  21777077.9524   21777077.5864   21777082.5624  -16754672.26547 -13043213.14247
      3072.8034       2394.3874         46.7004         43.7004
  21798210.0214   21798209.4934   21798213.8264  -16752041.47248 -13033831.85347
      1785.4504       1391.2574         48.1004         45.2004
  20492726.2634   20492726.1684   20492728.9184  -20055389.13748 -15606888.10948
      -519.1484       -404.5304         52.1004         49.2004
 10  1  2  0 18  0.0000000  0  7G17G18G 8G28G 9G27G15
  23337761.9214   23337762.1014   23337766.4214   -7764886.63247  -6037112.35646
      2728.1254       2125.8124         42.9004         40.0004
  23007427.1794   23007425.3274   23007428.3094   -6586381.13447  -4909302.40346
       987.5674        769.5234         43.0004         40.2004
  24019331.7214   24019332.5494   24019336.5404   -4413992.80045  -3420160.68145
     -3264.8204      -2544.0164         35.7004         33.8004
  22017708.2204   22017708.3024   22017712.4604  -13343035.67347 -10359490.49047
     -1982.3214      -1544.6634         47.7004         44.9004
  21759560.9864   21759560.7314   21759566.0184  -16846724.41147 -13114942.05847
      3063.9744       2387.5154         46.7004         43.7004
  21788037.3614   21788037.3594   21788042.0474  -16805494.16248 -13075483.28947
      1778.0694       1385.5064         48.1004         45.1004
  20495740.0654   20495740.2924   20495743.4394  -20039548.46948 -15594544.73648
      -536.8844       -418.3514         52.1004         49.2004
 10  1  2  0 18 30.0000000  0  7G17G18G 8G28G 9G27G15
  23322219.1784   23322218.8804   23322221.6234   -7846572.55147  -6100763.69646
      2717.5334       2117.5654         42.7004         40.0004
  23001840.4444   23001840.7194   23001843.2524   -6615729.85347  -4932171.54346
       969.0024        755.0544         42.9004         39.9004
  24037982.0764   24037981.6824   24037984.0974   -4315997.61146  -3343800.80845
     -3268.2594      -2546.6884         36.1004         34.6004
  22029060.4574   22029060.2294   22029064.3834  -13283381.35147 -10313006.60047
     -1994.6224      -1554.2554         47.9004         44.9004
  21742094.8604   21742094.4944   21742099.3754  -16938511.93947 -13186464.80247
      3055.1534       2380.6384         46.9004         44.0004
  21777908.4924   21777908.4924   21777912.6344  -16858724.34748 -13116961.35247
      1770.6194       1379.7044         48.1004         45.2004
  20498855.5814   20498856.0714   20498859.3994  -20023175.58448 -15581786.65548
      -554.6274       -432.1774         52.1004         49.2004
 10  1  2  0 19  0.0000000  0  7G17G18G 8G28G 9G27G15
  23306732.9144   23306734.0544   23306738.9904   -7927939.00347  -6164166.12146
      2706.8584       2109.2364         42.7004         40.0004
  22996361.5184   22996361.5064   22996364.9204   -6644521.15647  -4954606.32546
       950.4064        740.5834         42.9004         40.2004
  24056648.5344   24056648.6324   24056652.8654   -4217900.41446  -3267361.48745
     -3271.5674      -2549.2634         36.8004         35.0004
  22040482.3194   22040482.3004   22040486.1784  -13223358.69747 -10266235.70347
     -2006.8554      -1563.7944         47.7004         44.7004
  21724679.3614   21724678.6374   21724683.3354  -17030033.23547 -13257780.08247
      3046.2284       2373.6794         47.0004         44.2004
  21767821.1624   21767821.2744   21767825.6204  -16911731.46548 -13158265.58547
      1763.1734       1373.9044         48.1004         45.1004
  20502072.8994   20502072.8764   20502076.2614  -20006270.46548 -15568613.84748
      -572.3804       -446.0114         52.1004         49.1004
 10  1  2  0 19 30.0000000  0  7G17G18G 8G28G 9G27G15
  23291311.7174   23291311.8494   23291315.6644   -8008983.57247  -6227317.72546
      2696.1004       2100.8524         42.9004         40.0004
  22990990.6024   22990988.5194   22990992.1854   -6672753.91647  -4976605.87046
       931.7594        726.0324         42.9004         39.9004
  24075335.1894   24075334.1804   24075341.1894   -4119702.22346  -3190843.39745
     -3274.9694      -2551.9284         36.8004         34.6004
  22051974.3484   22051974.4474   22051977.6924  -13162969.50547 -10219179.18647
     -2019.0464      -1573.2844         47.7004         44.9004
  21707313.4034   21707313.2494   21707318.4914  -17121286.72147 -13328886.68447
      3037.3044       2366.7314         47.0004         44.0004
  21757777.6004   21757777.3474   21757781.0204  -16964515.14348 -13199395.71747
      1755.7254       1368.0944         48.1004         45.1004
  20505391.4904   20505391.2704   20505394.4414  -19988832.94948 -15555026.18948
      -590.1234       -459.8354         52.1004         49.1004
 10  1  2  0 20  0.0000000  0  7G17G18G 8G28G 9G27G15
  23275952.4884   23275951.8634   23275955.7494   -8089703.24047  -6290216.16446
      2685.1944       2092.3694         43.0004         40.6004
  22985724.0594   22985722.5504   22985726.1844   -6700427.67447  -4998169.81446
       913.1124        711.5134         42.7004         40.0004
  24094043.4594   24094041.0784   24094045.6554   -4021403.96246  -3114247.40545
     -3278.3084      -2554.5294         37.0004         34.8004
  22063535.2384   22063535.2644   22063538.2464  -13102215.59047 -10171838.47747
     -2031.2084      -1582.7554         47.7004         44.7004
  21690001.0854   21690000.5454   21690003.6254  -17212271.15347 -13399783.63247
      3028.3074       2359.7194         47.0004         44.0004
  21747775.2194   21747774.8434   21747779.4524  -17017075.04648 -13240351.48747
      1748.2744       1362.2914         48.1004         45.1004
  20508810.8424   20508810.5764   20508814.0884  -19970863.27148 -15541023.85948
      -607.8544       -473.6524         51.9004         49.1004
 10  1  2  0 20 30.0000000  0  7G17G18G 8G28G 9G27G15
  23260655.0014   23260656.1074   23260658.6274   -8170094.85647  -6352858.97846
      2674.1984       2083.7954         43.6004         41.1004
  22980562.7394   22980563.0494   22980567.8104   -6727541.36047  -5019297.36446
       894.4354        696.9764         42.7004         39.7004
  24112764.2514   24112762.2384   24112769.7614   -3923007.16646  -3037574.60245
     -3281.4994      -2557.0114         36.3004         34.1004
  22075166.8564   22075166.0684   22075168.2704  -13041099.03747 -10124215.18647
     -2043.2364      -1592.1324         47.7004         44.7004
  21672737.0734   21672737.2024   21672741.8804  -17302984.54647 -13470469.37047
      3019.2194       2352.6404         46.9004         43.7004
  21737816.8634   21737816.4594   21737819.6614  -17069410.72048 -13281132.53647
      1740.7744       1356.4484         48.1004         45.1004
  20512331.4024   20512331.7854   20512334.8294  -19952361.33648 -15526606.77548
      -625.5994       -487.4794         51.9004         49.1004
 10  1  2  0 21  0.0000000  0  7G17G18G 8G28G 9G27G15
  23245418.4544   23245417.9704   23245423.8944   -8250155.93647  -6415244.25946
      2663.1544       2075.1964         43.7004         41.1004
  22975511.0794   22975511.2534   22975514.6914   -6754094.15847  -5039987.85546
       875.7424        682.3864         42.5004         39.9004
  24131503.7714   24131505.0604   24131513.3284   -3824512.21745  -2960825.28245
     -3284.6424      -2559.4474         35.7004         34.0004
  22086865.1134   22086864.5484   22086866.9874  -12979621.36847 -10076310.50747
     -2055.2474      -1601.4994         47.7004         44.7004
  21655527.3984   21655527.2034   21655531.3324  -17393425.46647 -13540942.79347
      3010.1484       2345.5684         46.9004         43.9004
  21727900.6084   21727899.9604   21727903.3994  -17121521.55848 -13321738.37847
      1733.2684       1350.6034         48.1004         45.1004
  20515954.0084   20515954.1034   20515956.7524  -19933326.99248 -15511774.83648
      -643.3524       -501.3154         51.9004         49.1004
 10  1  2  0 21 30.0000000  0  7G17G18G 8G28G 9G27G15
  23230246.1004   23230247.4074   23230251.0794   -8329883.71447  -6477369.77646
      2651.9784       2066.4684         43.7004         40.7004
  22970564.2424   22970565.4434   22970567.7714   -6780085.11547  -5060240.55046
       856.9764        667.7594         42.9004         40.0004
  24150270.5904   24150268.9914   24150272.6484   -3725920.65845  -2884000.73645
     -3287.9144      -2562.0104         35.7004         34.0004
  22098632.2644   22098631.7154   22098634.0384  -12917784.68347 -10028126.08447
     -2067.1814      -1610.7864         47.7004         44.7004
  21638368.8604   21638369.3734   21638373.3614  -17483592.68147 -13611202.93747
      3001.0004       2338.4384         46.7004         43.9004
  21718027.0574   21718026.4604   21718030.0234  -17173407.20448 -13362168.74447
      1725.7654       1344.7554         48.1004         45.1004
  20519676.9274   20519676.9804   20519680.1514  -19913760.49248 -15496528.21948
      -661.0904       -515.1354         51.9004         48.9004
 10  1  2  0 22  0.0000000  0  7G17G18G 8G28G 9G27G15
  23215141.8134   23215139.1794   23215144.3344   -8409275.35347  -6539233.40246
      2640.7344       2057.7244         43.7004         40.9004
  22965726.1414   22965725.8944   22965729.6934   -6805513.44647  -5080054.82146
       838.2234        653.1614         42.9004         40.0004
  24169050.7694   24169048.5824   24169055.6604   -3627232.98246  -2807101.27045
     -3291.1234      -2564.5154         36.1004         34.5004
  22110467.0564   22110466.4814   22110469.1254  -12855590.97247  -9979663.44747
     -2079.0674      -1620.0514         47.7004         44.7004
  21621263.4224   21621263.0094   21621267.5804  -17573484.55447 -13681248.53047
      2991.7714       2331.2524         46.9004         44.0004
  21708196.3814   21708195.5774   21708199.4334  -17225067.12547 -13402423.22547
      1718.2054       1338.8664         47.9004         45.1004
  20523501.1404   20523501.7714   20523504.6664  -19893661.67448 -15480866.81348
      -678.8214       -528.9534         51.7004         48.7004
 10  1  2  0 22 30.0000000  0  7G17G18G 8G28G 9G27G15
  23200095.4704   23200096.2884   23200100.1294   -8488327.78647  -6600832.69746
      2629.4164       2048.9054         43.7004         40.9004
  22960994.8864   22960993.8384   22960998.2384   -6830378.39047  -5099430.10746
       819.3884        638.4794         42.9004         40.0004
  24187846.4944   24187846.3194   24187851.8954   -3528450.17946  -2730127.71645
     -3294.2404      -2566.9484         36.1004         34.1004
  22122368.7704   22122369.0554   22122372.0654  -12793041.96547  -9930923.96147
     -2090.8744      -1629.2514         47.5004         44.4004
  21604210.2144   21604209.7814   21604214.2284  -17663099.52847 -13751078.35347
      2982.5394       2324.0574         46.9004         44.0004
  21698408.4624   21698408.2934   21698411.9564  -17276500.93448 -13442501.51147
      1710.6934       1333.0124         48.1004         45.1004
  20527427.8484   20527427.9134   20527430.6734  -19873030.62948 -15464790.68748
      -696.5464       -542.7624         51.7004         48.9004
 10  1  2  0 23  0.0000000  0  7G17G18G 8G28G 9G27G15
  23185119.0684   23185117.8314   23185121.4054   -8567038.45747  -6662165.64246
      2617.9534       2039.9604         43.6004         40.7004
  22956372.0684   22956369.8744   22956374.3314   -6854678.98247  -5118365.63146
       800.6024        623.8594         43.0004         40.4004
  24206661.0034   24206658.1314   24206668.0494   -3429573.63045  -2653081.09445
     -3297.4244      -2569.4154         35.0004         33.1004
  22134338.9084   22134338.9054   22134341.8114  -12730139.61447  -9881909.14047
     -2102.6144      -1638.4014         47.4004         44.4004
  21587210.2324   21587210.4374   21587213.6124  -17752435.62247 -13820690.88747
      2973.2114       2316.7824         47.0004         44.2004
  21688664.4784   21688663.6434   21688667.4674  -17327708.07948 -13482403.18047
      1703.1104       1327.0934         48.1004         45.2004
  20531454.5054   20531454.8764   20531457.8234  -19851867.51748 -15448299.96148
      -714.3204       -556.6124         51.7004         48.7004
 10  1  2  0 23 30.0000000  0  7G17G18G 8G28G 9G27G15
  23170206.1604   23170205.2644   23170209.0554   -8645404.17647  -6723229.83746
      2606.4264       2030.9834         43.6004         40.6004
  22951854.7184   22951853.9754   22951856.3984   -6878414.42847  -5136860.78846
       781.7594        609.1514         43.0004         40.0004
  24225492.9104   24225492.8274   24225494.5484   -3330603.94145  -2575961.89345
     -3300.5204      -2571.8394         34.2004         32.7004
  22146376.1414   22146375.7804   22146378.9504  -12666885.85247  -9832620.49647
     -2114.2894      -1647.5034         47.4004         44.4004
  21570263.2294   21570263.4954   21570267.4424  -17841491.44447 -13890085.02547
      2963.8454       2309.4794         47.2004         44.2004
  21678963.7004   21678963.1144   21678966.4134  -17378688.25248 -13522127.99747
      1695.5474       1321.2064         48.2004         45.4004
  20535583.0304   20535583.6894   20535586.1724  -19830172.09648 -15431394.45748
      -732.0534       -570.4334         51.5004         48.7004
 10  1  2  0 24  0.0000000  0  7G17G18G 8G28G 9G27G15
  23155360.0614   23155359.3614   23155362.7134   -8723422.41747  -6784023.28246
      2594.7854       2021.9144         43.6004         40.6004
  22947445.4414   22947445.4174   22947447.6564   -6901584.12447  -5154915.11746
       762.8814        594.4514         43.0004         40.4004
  24244348.3204   24244348.5114   24244350.8474   -3231542.23145  -2498770.97745
     -3303.5444      -2574.1924         34.7004         33.3004
  22158480.0624   22158479.5044   22158482.0074  -12603282.50047  -9783059.43147
     -2125.9114      -1656.5584         47.4004         44.4004
  21553370.7804   21553369.8654   21553374.4774  -17930265.56047 -13959259.66047
      2954.4164       2302.1364         47.4004         44.5004
  21669305.1604   21669304.6814   21669308.1954  -17429441.01348 -13561675.59547
      1687.9484       1315.2844         48.2004         45.2004
  20539813.0954   20539813.2024   20539816.1624  -19807944.60648 -15414074.35048
      -749.7854       -584.2494         51.5004         48.7004
 10  1  2  0 24 30.0000000  0  7G17G18G 8G28G 9G27G15
  23140579.4434   23140578.9814   23140583.0214   -8801090.43347  -6844543.80046
      2583.0534       2012.7774         43.7004         41.1004
  22943144.0954   22943143.7714   22943146.3284   -6924187.24747  -5172527.94846
       743.9344        579.7094         43.0004         40.2004
  24263213.1694   24263214.0064   24263214.9684   -3132389.67945  -2421509.29845
     -3306.5824      -2576.5524         34.7004         33.4004
  22170648.4624   22170648.3864   22170651.1204  -12539331.64747  -9733227.61347
     -2137.4574      -1665.5564         47.2004         44.0004
  21536530.5304   21536530.8584   21536535.9074  -18018756.57047 -14028213.67847
      2944.9734       2294.7804         47.4004         44.5004
  21659690.5474   21659690.2104   21659693.8264  -17479965.83448 -13601045.59147
      1680.3644       1309.3754         48.4004         45.4004
  20544143.5504   20544144.1164   20544147.2674  -19785185.56248 -15396340.03248
      -767.4974       -598.0484         51.7004         48.7004
 10  1  2  0 25  0.0000000  0  7G17G18G 8G28G 9G27G15
  23125866.1064   23125866.3884   23125869.8824   -8878405.74547  -6904789.46446
      2571.2474       2003.5714         43.6004         40.7004
  22938950.2784   22938950.2084   22938950.6144   -6946223.33547  -5189698.92246
       725.0474        564.9474         42.9004         40.0004
  24282097.9294   24282094.3244   24282106.3414   -3033147.08045  -2344177.42045
     -3309.5694      -2578.8854         35.0004         34.0004
  22182884.2424   22182884.1754   22182886.2464  -12475035.16447  -9683126.45247
     -2148.9474      -1674.5084         47.2004         44.4004
  21519745.3314   21519745.4374   21519750.0134  -18106963.17647 -14096946.10047
      2935.4444       2287.3624         47.5004         44.5004
  21650119.8404   21650119.4854   21650123.1204  -17530262.39748 -13640237.70847
      1672.7264       1303.4274         48.4004         45.4004
  20548576.1834   20548576.3434   20548579.1904  -19761894.74848 -15378191.35048
      -785.2394       -611.8754         51.7004         48.7004
 10  1  2  0 25 30.0000000  0  7G17G18G 8G28G 9G27G15
  23111221.9644   23111220.9954   23111227.1914   -8955364.99047  -6964757.71446
      2559.3244       1994.2954         43.7004         41.1004
  22934866.1844   22934864.3404   22934867.0264   -6967691.49347  -5206427.35946
       706.1464        550.2534         42.9004         40.2004
  24301005.8604   24301005.6974   24301007.6404   -2933815.12746  -2266775.98545
     -3312.4794      -2581.1504         36.6004         35.0004
  22195185.8034   22195184.5844   22195187.1904  -12410394.61347  -9632757.18447
     -2160.3794      -1683.4164         47.4004         44.2004
  21503015.1734   21503014.7294   21503019.6804  -18194883.17247 -14165455.15747
      2925.8704       2279.8984         47.4004         44.4004
  21640592.8284   21640591.6994   21640595.1114  -17580330.02348 -13679251.44447
      1665.1034       1297.4814         48.4004         45.4004
